[{"ID":801500093,"Actor1":"AUSTRALIA","Actor1_Country":"AUS","Actor2":"AUSTRALIAN","Actor2_Country":"AUS","Code":120,"Class":3,"Actor1_Location":"Melbourne, Victoria, Australia","Actor2_Location":"Melbourne, Victoria, Australia","Action_Location":"Melbourne, Victoria, Australia","Lat":-37.8167,"Long":144.967,"Timestamp":20181110054500,"Source":"https:\/\/www.moreechampion.com.au\/story\/5750591\/politicians-unite-against-extremists\/"},{"ID":801500094,"Actor1":"AUSTRALIA","Actor1_Country":"AUS","Actor2":"AUSTRALIA","Actor2_Country":"AUS","Code":138,"Class":3,"Actor1_Location":"Melbourne, Victoria, Australia","Actor2_Location":"Melbourne, Victoria, Australia","Action_Location":"Melbourne, Victoria, Australia","Lat":-37.8167,"Long":144.967,"Timestamp":20181110054500,"Source":"https:\/\/thenewdaily.com.au\/news\/national\/2018\/11\/10\/scott-morrison-says-extremist-islam-terror-attack\/"},{"ID":801500104,"Actor1":"AUSTRIA","Actor1_Country":"AUT","Actor2":"RUSSIAN","Actor2_Country":"RUS","Code":112,"Class":3,"Actor1_Location":"Moscow, Moskva, Russia","Actor2_Location":"Moscow, Moskva, Russia","Action_Location":"Moscow, Moskva, Russia","Lat":55.7522,"Long":37.6156,"Timestamp":20181110054500,"Source":"https:\/\/akipress.com\/news:613110\/"},{"ID":801500138,"Actor1":"CREDIT UNION","Actor1_Country":null,"Actor2":"PROSECUTOR","Actor2_Country":null,"Code":112,"Class":3,"Actor1_Location":"Long Island, New York, United States","Actor2_Location":"Long Island, New York, United States","Action_Location":"Long Island, New York, United States","Lat":43.152,"Long":-76.061,"Timestamp":20181110054500,"Source":"http:\/\/thechiefleader.com\/news\/news_of_the_week\/ousted-mcu-head-wong-denies-he-s-embezzler\/article_7a3dd1a2-dc53-11e8-9815-bb623944f5e9.html"},{"ID":801500159,"Actor1":"CHINA","Actor1_Country":"CHN","Actor2":"PARTY LEADER","Actor2_Country":null,"Code":111,"Class":3,"Actor1_Location":"Ma Jian, Zhejiang, China","Actor2_Location":"Hong Kong","Action_Location":"Hong Kong","Lat":22.25,"Long":114.166667,"Timestamp":20181110054500,"Source":"http:\/\/www.wtvm.com\/2018\/11\/10\/financial-times-editor-refused-entry-hong-kong\/"},{"ID":801500171,"Actor1":"ARCHDIOCESE","Actor1_Country":null,"Actor2":"CLERGY","Actor2_Country":null,"Code":112,"Class":3,"Actor1_Location":"New Mexico, United States","Actor2_Location":"New Mexico, United States","Action_Location":"New Mexico, United States","Lat":34.8375,"Long":-106.237,"Timestamp":20181110054500,"Source":"http:\/\/www.santafenewmexican.com\/news\/local_news\/archdiocese-of-santa-fe-faces-new-sex-abuse-suits\/article_b546d4fc-d34e-5cf2-885e-d5fe36c38a39.html"},{"ID":801500199,"Actor1":"DEPUTY","Actor1_Country":null,"Actor2":"MONACO","Actor2_Country":"MCO","Code":112,"Class":3,"Actor1_Location":"Monaco","Actor2_Location":"Monaco","Action_Location":"Monaco","Lat":43.733333,"Long":7.4,"Timestamp":20181110054500,"Source":"https:\/\/en.crimerussia.com\/oligarchs\/monaco-police-rally-in-support-of-defendants-in-rybolovlev-s-case\/"},{"ID":801500235,"Actor1":"COMMUNITY","Actor1_Country":null,"Actor2":"METHODIST CHURCH","Actor2_Country":null,"Code":141,"Class":3,"Actor1_Location":"Colchester, Essex, United Kingdom","Actor2_Location":"Colchester, Essex, United Kingdom","Action_Location":"Colchester, Essex, United Kingdom","Lat":51.8833,"Long":0.9,"Timestamp":20181110054500,"Source":"https:\/\/www.thedailystar.com\/news\/local_news\/cooperstown-nursing-home-salutes-veterans\/article_0959a9e5-4649-598c-90b8-9d493cc2c22c.html"},{"ID":801500299,"Actor1":"SCHOOL","Actor1_Country":null,"Actor2":"ROMANIA","Actor2_Country":null,"Code":120,"Class":3,"Actor1_Location":"Bucharest, Bucuresti, Romania","Actor2_Location":"Bucharest, Bucuresti, Romania","Action_Location":"Bucharest, Bucuresti, Romania","Lat":44.4333,"Long":26.1,"Timestamp":20181110054500,"Source":"https:\/\/www.dnaindia.com\/world\/report-google-doodle-today-internet-giant-pays-tribute-to-romanian-engineer-elisa-leonida-zamfirescu-2684287"},{"ID":801500310,"Actor1":"STUDENT","Actor1_Country":null,"Actor2":"UNITED STATES","Actor2_Country":"USA","Code":111,"Class":3,"Actor1_Location":"Elizabeth City Police Department, North Carolina, United States","Actor2_Location":"Winston-Salem, North Carolina, United States","Action_Location":"Elizabeth City Police Department, North Carolina, United States","Lat":36.3009,"Long":-76.2218,"Timestamp":20181110054500,"Source":"https:\/\/www.journalnow.com\/eedition\/page-a\/page_1d9d7b05-3da0-58da-b84e-1c21b23e63d4.html"},{"ID":801500311,"Actor1":"UNIVERSITY","Actor1_Country":null,"Actor2":"UNITED STATES","Actor2_Country":"USA","Code":130,"Class":3,"Actor1_Location":"White House, District of Columbia, United States","Actor2_Location":"White House, District of Columbia, United States","Action_Location":"White House, District of Columbia, United States","Lat":38.8951,"Long":-77.0364,"Timestamp":20181110054500,"Source":"https:\/\/sputniknews.com\/analysis\/201811101069682715-usa-trump-democrats-congress-trump-targets-policy-split\/"},{"ID":801500338,"Actor1":"FINN","Actor1_Country":"FIN","Actor2":"HUNGARY","Actor2_Country":"HUN","Code":110,"Class":3,"Actor1_Location":"Munich, Bayern, Germany","Actor2_Location":"Munich, Bayern, Germany","Action_Location":"Munich, Bayern, Germany","Lat":48.15,"Long":11.5833,"Timestamp":20181110054500,"Source":"https:\/\/www.irishtimes.com\/news\/world\/europe\/who-is-manfred-weber-potential-next-head-of-european-commission-1.3692452"},{"ID":801500339,"Actor1":"FINN","Actor1_Country":"FIN","Actor2":"HUNGARY","Actor2_Country":"HUN","Code":110,"Class":3,"Actor1_Location":"Munich, Bayern, Germany","Actor2_Location":"Budapest, Budapest, Hungary","Action_Location":"Budapest, Budapest, Hungary","Lat":47.5,"Long":19.0833,"Timestamp":20181110054500,"Source":"https:\/\/www.irishtimes.com\/news\/world\/europe\/who-is-manfred-weber-potential-next-head-of-european-commission-1.3692452"},{"ID":801500340,"Actor1":"FINN","Actor1_Country":"FIN","Actor2":"HUNGARY","Actor2_Country":"HUN","Code":110,"Class":3,"Actor1_Location":"Budapest, Budapest, Hungary","Actor2_Location":"Budapest, Budapest, Hungary","Action_Location":"Budapest, Budapest, Hungary","Lat":47.5,"Long":19.0833,"Timestamp":20181110054500,"Source":"https:\/\/www.irishtimes.com\/news\/world\/europe\/who-is-manfred-weber-potential-next-head-of-european-commission-1.3692452"},{"ID":801500365,"Actor1":"UNITED KINGDOM","Actor1_Country":"GBR","Actor2":"METHODIST CHURCH","Actor2_Country":null,"Code":141,"Class":3,"Actor1_Location":"Colchester, Essex, United Kingdom","Actor2_Location":"Colchester, Essex, United Kingdom","Action_Location":"Colchester, Essex, United Kingdom","Lat":51.8833,"Long":0.9,"Timestamp":20181110054500,"Source":"https:\/\/www.thedailystar.com\/news\/local_news\/cooperstown-nursing-home-salutes-veterans\/article_0959a9e5-4649-598c-90b8-9d493cc2c22c.html"},{"ID":801500366,"Actor1":"UNITED KINGDOM","Actor1_Country":"GBR","Actor2":"METHODIST CHURCH","Actor2_Country":null,"Code":141,"Class":3,"Actor1_Location":"Colchester, Essex, United Kingdom","Actor2_Location":"Colchester, Essex, United Kingdom","Action_Location":"United States","Lat":39.828175,"Long":-98.5795,"Timestamp":20181110054500,"Source":"https:\/\/www.thedailystar.com\/news\/local_news\/cooperstown-nursing-home-salutes-veterans\/article_0959a9e5-4649-598c-90b8-9d493cc2c22c.html"},{"ID":801500396,"Actor1":"PRIME MINISTER","Actor1_Country":null,"Actor2":"AUSTRALIAN","Actor2_Country":"AUS","Code":120,"Class":3,"Actor1_Location":"Melbourne, Victoria, Australia","Actor2_Location":"Melbourne, Victoria, Australia","Action_Location":"Melbourne, Victoria, Australia","Lat":-37.8167,"Long":144.967,"Timestamp":20181110054500,"Source":"https:\/\/www.moreechampion.com.au\/story\/5750591\/politicians-unite-against-extremists\/"},{"ID":801500397,"Actor1":"PRIME MINISTER","Actor1_Country":null,"Actor2":"AUSTRALIA","Actor2_Country":"AUS","Code":138,"Class":3,"Actor1_Location":"Melbourne, Victoria, Australia","Actor2_Location":"Melbourne, Victoria, Australia","Action_Location":"Melbourne, Victoria, Australia","Lat":-37.8167,"Long":144.967,"Timestamp":20181110054500,"Source":"https:\/\/thenewdaily.com.au\/news\/national\/2018\/11\/10\/scott-morrison-says-extremist-islam-terror-attack\/"},{"ID":801500412,"Actor1":"ADMINISTRATION","Actor1_Country":null,"Actor2":"IRAN","Actor2_Country":"IRN","Code":100,"Class":3,"Actor1_Location":"Tehran, Tehran, Iran","Actor2_Location":"Tehran, Tehran, Iran","Action_Location":"Tehran, Tehran, Iran","Lat":35.75,"Long":51.5148,"Timestamp":20181110054500,"Source":"http:\/\/www.wyomingpublicmedia.org\/post\/new-us-sanctions-against-iran-go-effect"},{"ID":801500440,"Actor1":"MINIST OF JUSTICE","Actor1_Country":null,"Actor2":"TURKEY","Actor2_Country":"TUR","Code":115,"Class":3,"Actor1_Location":"Ankara, Ankara, Turkey","Actor2_Location":"Ankara, Ankara, Turkey","Action_Location":"Ankara, Ankara, Turkey","Lat":39.9272,"Long":32.8644,"Timestamp":20181110054500,"Source":"https:\/\/turkey.theglobepost.com\/cenk-yigiter-insulting-erdogan\/"},{"ID":801500448,"Actor1":"MINIST","Actor1_Country":null,"Actor2":"UNITED STATES","Actor2_Country":"USA","Code":111,"Class":3,"Actor1_Location":"Winston-Salem, North Carolina, United States","Actor2_Location":"Winston-Salem, North Carolina, United States","Action_Location":"Winston-Salem, North Carolina, United States","Lat":36.0999,"Long":-80.2442,"Timestamp":20181110054500,"Source":"https:\/\/www.journalnow.com\/eedition\/page-a\/page_1d9d7b05-3da0-58da-b84e-1c21b23e63d4.html"},{"ID":801500449,"Actor1":"PRESIDENT","Actor1_Country":null,"Actor2":"UNITED STATES","Actor2_Country":"USA","Code":111,"Class":3,"Actor1_Location":"California, United States","Actor2_Location":"White House, District of Columbia, United States","Action_Location":"California, United States","Lat":36.17,"Long":-119.746,"Timestamp":20181110054500,"Source":"https:\/\/www.theguardian.com\/world\/2018\/nov\/10\/us-stops-refuelling-of-saudi-led-coalition-aircraft-in-yemen-war"},{"ID":801500478,"Actor1":"GUYANA","Actor1_Country":"GUY","Actor2":"GHANA","Actor2_Country":"GHA","Code":100,"Class":3,"Actor1_Location":"Orinduik, Potaro-Siparuni, Guyana","Actor2_Location":"Orinduik, Potaro-Siparuni, Guyana","Action_Location":"Orinduik, Potaro-Siparuni, Guyana","Lat":4.7,"Long":-60.0167,"Timestamp":20181110054500,"Source":"https:\/\/www.hellenicshippingnews.com\/tullow-upbeat-on-ghana-guyana-crude-oil-output-in-2019\/"},{"ID":801500486,"Actor1":"EUROPEAN PARLIAMENT","Actor1_Country":"EUR","Actor2":"BUDAPEST","Actor2_Country":"HUN","Code":128,"Class":3,"Actor1_Location":"Landshut, Bayern, Germany","Actor2_Location":"Landshut, Bayern, Germany","Action_Location":"Landshut, Bayern, Germany","Lat":48.5333,"Long":12.15,"Timestamp":20181110054500,"Source":"https:\/\/www.irishtimes.com\/news\/world\/europe\/who-is-manfred-weber-potential-next-head-of-european-commission-1.3692452"},{"ID":801500487,"Actor1":"EUROPEAN PARLIAMENT","Actor1_Country":"EUR","Actor2":"BUDAPEST","Actor2_Country":"HUN","Code":128,"Class":3,"Actor1_Location":"Budapest, Budapest, Hungary","Actor2_Location":"Budapest, Budapest, Hungary","Action_Location":"Budapest, Budapest, Hungary","Lat":47.5,"Long":19.0833,"Timestamp":20181110054500,"Source":"https:\/\/www.irishtimes.com\/news\/world\/europe\/who-is-manfred-weber-potential-next-head-of-european-commission-1.3692452"},{"ID":801500504,"Actor1":"BIHAR","Actor1_Country":"IND","Actor2":"BIHAR","Actor2_Country":"IND","Code":1041,"Class":3,"Actor1_Location":"Delhi, Delhi, India","Actor2_Location":"Delhi, Delhi, India","Action_Location":"Delhi, Delhi, India","Lat":28.6667,"Long":77.2167,"Timestamp":20181110054500,"Source":"https:\/\/scroll.in\/latest\/901571\/the-big-news-sri-lankan-parliament-dissolved-fresh-elections-in-january-and-9-other-top-stories"},{"ID":801500505,"Actor1":"MADRAS","Actor1_Country":"IND","Actor2":"MADRAS","Actor2_Country":"IND","Code":1043,"Class":3,"Actor1_Location":"Dharmapuri, Tamil Nadu, India","Actor2_Location":"Dharmapuri, Tamil Nadu, India","Action_Location":"Dharmapuri, Tamil Nadu, India","Lat":12.1333,"Long":78.1667,"Timestamp":20181110054500,"Source":"https:\/\/auto.economictimes.indiatimes.com\/news\/policy\/hc-no-insurance-for-people-travelling-by-goods-carriers\/66564003"},{"ID":801500514,"Actor1":"IRISH","Actor1_Country":"IRL","Actor2":"AFRICA","Actor2_Country":"AFR","Code":130,"Class":3,"Actor1_Location":"Dublin, Dublin, Ireland","Actor2_Location":"Dublin, Dublin, Ireland","Action_Location":"Dublin, Dublin, Ireland","Lat":53.3331,"Long":-6.24889,"Timestamp":20181110054500,"Source":"https:\/\/www.irishtimes.com\/news\/social-affairs\/discrimination-at-work-you-see-africans-with-phds-driving-taxis-1.3692510"},{"ID":801500527,"Actor1":"IRAN","Actor1_Country":"IRN","Actor2":"UNITED STATES","Actor2_Country":"USA","Code":130,"Class":3,"Actor1_Location":"White House, District of Columbia, United States","Actor2_Location":"Paris, France (general), France","Action_Location":"White House, District of Columbia, United States","Lat":38.8951,"Long":-77.0364,"Timestamp":20181110054500,"Source":"http:\/\/globalengineeringnews.com\/2018\/11\/10\/trump-rips-macron-for-proposing-new-european-union-army-to\/"},{"ID":801500555,"Actor1":"TRIBUNAL","Actor1_Country":null,"Actor2":"COMPANIES","Actor2_Country":null,"Code":1043,"Class":3,"Actor1_Location":"Madras, Tamil Nadu, India","Actor2_Location":"Madras, Tamil Nadu, India","Action_Location":"Madras, Tamil Nadu, India","Lat":13.0833,"Long":80.2833,"Timestamp":20181110054500,"Source":"https:\/\/auto.economictimes.indiatimes.com\/news\/policy\/hc-no-insurance-for-people-travelling-by-goods-carriers\/66564003"},{"ID":801500562,"Actor1":"COUNSEL","Actor1_Country":null,"Actor2":"PRESIDENT","Actor2_Country":null,"Code":111,"Class":3,"Actor1_Location":"Kremlin, Moskva, Russia","Actor2_Location":"Kremlin, Moskva, Russia","Action_Location":"Kremlin, Moskva, Russia","Lat":55.7522,"Long":37.6156,"Timestamp":20181110054500,"Source":"https:\/\/politicaldog101.com\/2018\/11\/mueller-co-holding-back-dozens-of-sealed-indictments-report\/"},{"ID":801500576,"Actor1":"COUNSEL","Actor1_Country":null,"Actor2":"RUSSIA","Actor2_Country":"RUS","Code":111,"Class":3,"Actor1_Location":"Kremlin, Moskva, Russia","Actor2_Location":"Kremlin, Moskva, Russia","Action_Location":"Kremlin, Moskva, Russia","Lat":55.7522,"Long":37.6156,"Timestamp":20181110054500,"Source":"https:\/\/politicaldog101.com\/2018\/11\/mueller-co-holding-back-dozens-of-sealed-indictments-report\/"},{"ID":801500579,"Actor1":"FEDERAL JUDGE","Actor1_Country":null,"Actor2":"UNITED STATES","Actor2_Country":"USA","Code":100,"Class":3,"Actor1_Location":"Montana, United States","Actor2_Location":"Montana, United States","Action_Location":"Montana, United States","Lat":46.9048,"Long":-110.326,"Timestamp":20181110054500,"Source":"https:\/\/www.independent.co.uk\/environment\/keystone-xl-pipeline-environment-trump-judge-a8627121.html"},{"ID":801500580,"Actor1":"JUDGE","Actor1_Country":null,"Actor2":"ARIZONA","Actor2_Country":"USA","Code":120,"Class":3,"Actor1_Location":"Arizona, United States","Actor2_Location":"Arizona, United States","Action_Location":"Arizona, United States","Lat":33.7712,"Long":-111.388,"Timestamp":20181110054500,"Source":"https:\/\/www.msn.com\/en-us\/news\/politics\/flake-slams-trump-for-doubting-vote-count-there-is-no-evidence-of-electoral-corruption\/ar-BBPxpkm"},{"ID":801500680,"Actor1":"PROTESTER","Actor1_Country":null,"Actor2":"UNITED STATES","Actor2_Country":"USA","Code":111,"Class":3,"Actor1_Location":"Tehran, Tehran, Iran","Actor2_Location":"Tehran, Tehran, Iran","Action_Location":"Tehran, Tehran, Iran","Lat":35.75,"Long":51.5148,"Timestamp":20181110054500,"Source":"http:\/\/www.wyomingpublicmedia.org\/post\/new-us-sanctions-against-iran-go-effect"},{"ID":801500681,"Actor1":"PROTESTER","Actor1_Country":null,"Actor2":"UNITED STATES","Actor2_Country":"USA","Code":111,"Class":3,"Actor1_Location":"Tehran, Tehran, Iran","Actor2_Location":"White House, District of Columbia, United States","Action_Location":"White House, District of Columbia, United States","Lat":38.8951,"Long":-77.0364,"Timestamp":20181110054500,"Source":"http:\/\/www.wyomingpublicmedia.org\/post\/new-us-sanctions-against-iran-go-effect"},{"ID":801500682,"Actor1":"PROTESTER","Actor1_Country":null,"Actor2":"AMERICAN","Actor2_Country":"USA","Code":145,"Class":3,"Actor1_Location":"Tehran, Tehran, Iran","Actor2_Location":"Tehran, Tehran, Iran","Action_Location":"Tehran, Tehran, Iran","Lat":35.75,"Long":51.5148,"Timestamp":20181110054500,"Source":"http:\/\/www.wyomingpublicmedia.org\/post\/new-us-sanctions-against-iran-go-effect"},{"ID":801500683,"Actor1":"PROTESTER","Actor1_Country":null,"Actor2":"AMERICAN","Actor2_Country":"USA","Code":145,"Class":3,"Actor1_Location":"Tehran, Tehran, Iran","Actor2_Location":"White House, District of Columbia, United States","Action_Location":"White House, District of Columbia, United States","Lat":38.8951,"Long":-77.0364,"Timestamp":20181110054500,"Source":"http:\/\/www.wyomingpublicmedia.org\/post\/new-us-sanctions-against-iran-go-effect"},{"ID":801500687,"Actor1":"KARACHI","Actor1_Country":"PAK","Actor2":"CRIMINAL","Actor2_Country":null,"Code":110,"Class":3,"Actor1_Location":"Karachi, Sindh, Pakistan","Actor2_Location":"Karachi, Sindh, Pakistan","Action_Location":"Karachi, Sindh, Pakistan","Lat":24.8667,"Long":67.05,"Timestamp":20181110054500,"Source":"https:\/\/tribune.com.pk\/story\/1844064\/6-rangers-action-criminals\/"},{"ID":801500706,"Actor1":"PRIEST","Actor1_Country":null,"Actor2":"ARCHDIOCESE","Actor2_Country":null,"Code":112,"Class":3,"Actor1_Location":"Albuquerque, New Mexico, United States","Actor2_Location":"Albuquerque, New Mexico, United States","Action_Location":"Albuquerque, New Mexico, United States","Lat":35.0845,"Long":-106.651,"Timestamp":20181110054500,"Source":"http:\/\/www.santafenewmexican.com\/news\/local_news\/archdiocese-of-santa-fe-faces-new-sex-abuse-suits\/article_b546d4fc-d34e-5cf2-885e-d5fe36c38a39.html"},{"ID":801500707,"Actor1":"PRIEST","Actor1_Country":null,"Actor2":"ARCHDIOCESE","Actor2_Country":null,"Code":112,"Class":3,"Actor1_Location":"New Mexico, United States","Actor2_Location":"New Mexico, United States","Action_Location":"New Mexico, United States","Lat":34.8375,"Long":-106.237,"Timestamp":20181110054500,"Source":"http:\/\/www.santafenewmexican.com\/news\/local_news\/archdiocese-of-santa-fe-faces-new-sex-abuse-suits\/article_b546d4fc-d34e-5cf2-885e-d5fe36c38a39.html"},{"ID":801500715,"Actor1":"MOSCOW","Actor1_Country":"RUS","Actor2":"AUSTRIA","Actor2_Country":"AUT","Code":110,"Class":3,"Actor1_Location":"Moscow, Moskva, Russia","Actor2_Location":"Vienna, Wien, Austria","Action_Location":"Vienna, Wien, Austria","Lat":48.2,"Long":16.3667,"Timestamp":20181110054500,"Source":"https:\/\/akipress.com\/news:613110\/"},{"ID":801500716,"Actor1":"MOSCOW","Actor1_Country":"RUS","Actor2":"AUSTRIAN","Actor2_Country":"AUT","Code":110,"Class":3,"Actor1_Location":"Moscow, Moskva, Russia","Actor2_Location":"Vienna, Wien, Austria","Action_Location":"Moscow, Moskva, Russia","Lat":55.7522,"Long":37.6156,"Timestamp":20181110054500,"Source":"https:\/\/akipress.com\/news:613110\/"},{"ID":801500722,"Actor1":"MOSCOW","Actor1_Country":"RUS","Actor2":"EUROPEAN UNION","Actor2_Country":"EUR","Code":112,"Class":3,"Actor1_Location":"Moscow, Moskva, Russia","Actor2_Location":"Moscow, Moskva, Russia","Action_Location":"Moscow, Moskva, Russia","Lat":55.7522,"Long":37.6156,"Timestamp":20181110054500,"Source":"https:\/\/akipress.com\/news:613110\/"},{"ID":801500765,"Actor1":"ANKARA","Actor1_Country":"TUR","Actor2":"GOVERNMENT","Actor2_Country":null,"Code":100,"Class":3,"Actor1_Location":"Ankara, Ankara, Turkey","Actor2_Location":"Ankara, Ankara, Turkey","Action_Location":"Ankara, Ankara, Turkey","Lat":39.9272,"Long":32.8644,"Timestamp":20181110054500,"Source":"https:\/\/turkey.theglobepost.com\/cenk-yigiter-insulting-erdogan\/"},{"ID":801500835,"Actor1":"UNITED STATES","Actor1_Country":"USA","Actor2":"CREDIT UNION","Actor2_Country":null,"Code":110,"Class":3,"Actor1_Location":"Long Island, New York, United States","Actor2_Location":"Long Island, New York, United States","Action_Location":"Long Island, New York, United States","Lat":43.152,"Long":-76.061,"Timestamp":20181110054500,"Source":"http:\/\/thechiefleader.com\/news\/news_of_the_week\/ousted-mcu-head-wong-denies-he-s-embezzler\/article_7a3dd1a2-dc53-11e8-9815-bb623944f5e9.html"},{"ID":801500864,"Actor1":"UNITED STATES","Actor1_Country":"USA","Actor2":"JERUSALEM","Actor2_Country":"ISR","Code":130,"Class":3,"Actor1_Location":"White House, District of Columbia, United States","Actor2_Location":"Jerusalem, Israel (general), Israel","Action_Location":"Jerusalem, Israel (general), Israel","Lat":31.7667,"Long":35.2333,"Timestamp":20181110054500,"Source":"https:\/\/www.wvgazettemail.com\/opinion\/daily_mail_opinion\/syndicated_columnists\/star_parker\/star-parker-the-battle-to-maga-continues-daily-mail-opinion\/article_1d900b49-1e29-5738-a306-f29cd20a2f6c.html"},{"ID":801500865,"Actor1":"UNITED STATES","Actor1_Country":"USA","Actor2":"JERUSALEM","Actor2_Country":"ISR","Code":130,"Class":3,"Actor1_Location":"White House, District of Columbia, United States","Actor2_Location":"White House, District of Columbia, United States","Action_Location":"White House, District of Columbia, United States","Lat":38.8951,"Long":-77.0364,"Timestamp":20181110054500,"Source":"https:\/\/www.wvgazettemail.com\/opinion\/daily_mail_opinion\/syndicated_columnists\/star_parker\/star-parker-the-battle-to-maga-continues-daily-mail-opinion\/article_1d900b49-1e29-5738-a306-f29cd20a2f6c.html"},{"ID":801500883,"Actor1":"UNITED STATES","Actor1_Country":"USA","Actor2":"ACTIVIST","Actor2_Country":null,"Code":100,"Class":3,"Actor1_Location":"Westchester, New York, United States","Actor2_Location":"Westchester, New York, United States","Action_Location":"Westchester, New York, United States","Lat":40.8472,"Long":-73.8553,"Timestamp":20181110054500,"Source":"http:\/\/thechiefleader.com\/news\/news_of_the_week\/high-hopes-but-no-democratic-lock-in-state-senate-battle\/article_730103e6-ddde-11e8-8cad-57b9ee85d2ad.html"},{"ID":801500905,"Actor1":"OREGON","Actor1_Country":"USA","Actor2":"UNITED STATES","Actor2_Country":"USA","Code":110,"Class":3,"Actor1_Location":"Powell Butte, Oregon, United States","Actor2_Location":"Oregon, United States","Action_Location":"Oregon, United States","Lat":44.5672,"Long":-122.127,"Timestamp":20181110054500,"Source":"https:\/\/www.bendbulletin.com\/home\/6669823-151\/editorial-defending-the-land-with-a-bad-argument"},{"ID":801500906,"Actor1":"OREGON","Actor1_Country":"USA","Actor2":"UNITED STATES","Actor2_Country":"USA","Code":110,"Class":3,"Actor1_Location":"Oregon, United States","Actor2_Location":"Oregon, United States","Action_Location":"Oregon, United States","Lat":44.5672,"Long":-122.127,"Timestamp":20181110054500,"Source":"https:\/\/www.bendbulletin.com\/home\/6669823-151\/editorial-defending-the-land-with-a-bad-argument"},{"ID":801500981,"Actor1":"HANI","Actor1_Country":null,"Actor2":"MUSLIM","Actor2_Country":null,"Code":114,"Class":3,"Actor1_Location":"Hyderabad, Andhra Pradesh, India","Actor2_Location":"Hyderabad, Andhra Pradesh, India","Action_Location":"Qasimabad, Uttar Pradesh, India","Lat":25.7833,"Long":83.6833,"Timestamp":20181110054500,"Source":"https:\/\/tribune.com.pk\/story\/1844174\/1-water-commission-extends-ban-conversion-plots\/"},{"ID":801500982,"Actor1":"HANI","Actor1_Country":null,"Actor2":"MUSLIM","Actor2_Country":null,"Code":114,"Class":3,"Actor1_Location":"Qasimabad, Uttar Pradesh, India","Actor2_Location":"Qasimabad, Uttar Pradesh, India","Action_Location":"Qasimabad, Uttar Pradesh, India","Lat":25.7833,"Long":83.6833,"Timestamp":20181110054500,"Source":"https:\/\/tribune.com.pk\/story\/1844174\/1-water-commission-extends-ban-conversion-plots\/"},{"ID":801500984,"Actor1":"NATIVE AMERICAN","Actor1_Country":null,"Actor2":"UNITED STATES","Actor2_Country":"USA","Code":141,"Class":3,"Actor1_Location":"Montana, United States","Actor2_Location":"Montana, United States","Action_Location":"Montana, United States","Lat":46.9048,"Long":-110.326,"Timestamp":20181110054500,"Source":"https:\/\/www.independent.co.uk\/environment\/keystone-xl-pipeline-environment-trump-judge-a8627121.html"}]