[{"ID":801710247,"Actor1":"AUTHORITIES","Actor1_Country":null,"Actor2":"PRO INDEPENDENCE ACTIVIST","Actor2_Country":null,"Code":120,"Class":3,"Actor1_Location":"University Of Hong Kong, Hong Kong (general), Hong Kong","Actor2_Location":"University Of Hong Kong, Hong Kong (general), Hong Kong","Action_Location":"University Of Hong Kong, Hong Kong (general), Hong Kong","Lat":22.2833,"Long":114.133,"Timestamp":20181111111500,"Source":"http:\/\/internationalviewpoint.org\/spip.php?article5781"},{"ID":801710397,"Actor1":"BANGLADESH","Actor1_Country":"BGD","Actor2":"POLICE","Actor2_Country":null,"Code":112,"Class":3,"Actor1_Location":"Dhaka, Dhaka, Bangladesh","Actor2_Location":"Dhaka, Dhaka, Bangladesh","Action_Location":"Dhaka, Dhaka, Bangladesh","Lat":23.7231,"Long":90.4086,"Timestamp":20181111111500,"Source":"https:\/\/www.thedailystar.net\/politics\/jubo-league-leader-arrested-over-death-two-teenagers-1659028"},{"ID":801710430,"Actor1":"COMPANY","Actor1_Country":null,"Actor2":"COMPANY","Actor2_Country":null,"Code":112,"Class":3,"Actor1_Location":"Kabale, Kabale, Uganda","Actor2_Location":"Kabale, Kabale, Uganda","Action_Location":"Kabale, Kabale, Uganda","Lat":-1.32611,"Long":30.0039,"Timestamp":20181111111500,"Source":"https:\/\/www.observer.ug\/news\/headlines\/59156-kabale-court-dismisses-4gc-case"},{"ID":801710441,"Actor1":"BUSINESS","Actor1_Country":null,"Actor2":"UNITED STATES","Actor2_Country":"USA","Code":130,"Class":3,"Actor1_Location":"Anniston, Alabama, United States","Actor2_Location":"Anniston, Alabama, United States","Action_Location":"Anniston, Alabama, United States","Lat":33.6598,"Long":-85.8316,"Timestamp":20181111111500,"Source":"https:\/\/www.annistonstar.com\/news\/anniston\/big-changes-are-coming-for-the-noble-street-corridor-but\/article_71119bba-e58e-11e8-b3cc-5f09ed1d32cb.html"},{"ID":801710442,"Actor1":"BUSINESS","Actor1_Country":null,"Actor2":"UNITED STATES","Actor2_Country":"USA","Code":130,"Class":3,"Actor1_Location":"Mississippi, United States","Actor2_Location":"Mississippi, United States","Action_Location":"Mississippi, United States","Lat":32.7673,"Long":-89.6812,"Timestamp":20181111111500,"Source":"https:\/\/www.annistonstar.com\/news\/anniston\/big-changes-are-coming-for-the-noble-street-corridor-but\/article_71119bba-e58e-11e8-b3cc-5f09ed1d32cb.html"},{"ID":801710452,"Actor1":"CANADA","Actor1_Country":"CAN","Actor2":"ITALY","Actor2_Country":"ITA","Code":112,"Class":3,"Actor1_Location":"Toronto, Ontario, Canada","Actor2_Location":"Roma, Lazio, Italy","Action_Location":"Toronto, Ontario, Canada","Lat":43.6667,"Long":-79.4167,"Timestamp":20181111111500,"Source":"https:\/\/www.pressherald.com\/2018\/11\/11\/how-widows-roma-and-more-holiday-releases-look-to-shake-up-the-oscars-best-picture-race\/"},{"ID":801710465,"Actor1":"CHINESE","Actor1_Country":"CHN","Actor2":"VIETNAM","Actor2_Country":"VNM","Code":120,"Class":3,"Actor1_Location":"Vietnam, Republic Of","Actor2_Location":"Nigeria","Action_Location":"Vietnam, Republic Of","Lat":16.166667,"Long":107.833333,"Timestamp":20181111111500,"Source":"http:\/\/sggpnews.org.vn\/health\/chinese-drugs-containing-human-flesh-not-allowed-in-vietnam-78608.html"},{"ID":801710466,"Actor1":"CHINESE","Actor1_Country":"CHN","Actor2":"VIETNAM","Actor2_Country":"VNM","Code":120,"Class":3,"Actor1_Location":"Vietnam, Republic Of","Actor2_Location":"Vietnam, Republic Of","Action_Location":"Vietnam, Republic Of","Lat":16.166667,"Long":107.833333,"Timestamp":20181111111500,"Source":"http:\/\/sggpnews.org.vn\/health\/chinese-drugs-containing-human-flesh-not-allowed-in-vietnam-78608.html"},{"ID":801710473,"Actor1":"COLOMBIA","Actor1_Country":"COL","Actor2":"VENEZUELAN","Actor2_Country":"VEN","Code":111,"Class":3,"Actor1_Location":"Venezuela","Actor2_Location":"Venezuela","Action_Location":"Venezuela","Lat":8.0,"Long":-66.0,"Timestamp":20181111111500,"Source":"https:\/\/timesofindia.indiatimes.com\/world\/rest-of-world\/colombias-duque-calls-for-inaction-against-venezuelan-dictatorship\/articleshow\/66577061.cms"},{"ID":801710492,"Actor1":"POLICE","Actor1_Country":null,"Actor2":"PROSECUTOR","Actor2_Country":null,"Code":115,"Class":3,"Actor1_Location":null,"Actor2_Location":null,"Action_Location":null,"Lat":null,"Long":null,"Timestamp":20181111111500,"Source":"https:\/\/www.radyonatin.com\/story.php?storyid=30403"},{"ID":801710507,"Actor1":"THIEF","Actor1_Country":null,"Actor2":"POLICE","Actor2_Country":null,"Code":145,"Class":3,"Actor1_Location":null,"Actor2_Location":null,"Action_Location":null,"Lat":null,"Long":null,"Timestamp":20181111111500,"Source":"https:\/\/www.business-standard.com\/article\/pti-stories\/bid-to-loot-atm-in-jammu-foiled-by-police-118111100310_1.html"},{"ID":801710600,"Actor1":"SCHOLAR","Actor1_Country":null,"Actor2":"MEDIA","Actor2_Country":null,"Code":125,"Class":3,"Actor1_Location":"Delhi, Delhi, India","Actor2_Location":"Delhi, Delhi, India","Action_Location":"Delhi, Delhi, India","Lat":28.6667,"Long":77.2167,"Timestamp":20181111111500,"Source":"https:\/\/countercurrents.org\/2018\/11\/11\/beyond-secular-vs-communal-quest-for-an-egalitarian-society\/"},{"ID":801710602,"Actor1":"STUDENT","Actor1_Country":null,"Actor2":"PROTESTING STUDENT","Actor2_Country":null,"Code":110,"Class":3,"Actor1_Location":"Beijing, Beijing, China","Actor2_Location":"Beijing, Beijing, China","Action_Location":"Beijing, Beijing, China","Lat":39.9289,"Long":116.388,"Timestamp":20181111111500,"Source":"http:\/\/internationalviewpoint.org\/spip.php?article5781"},{"ID":801710681,"Actor1":"PARIS","Actor1_Country":"FRA","Actor2":"ACTIVIST","Actor2_Country":null,"Code":112,"Class":3,"Actor1_Location":"Paris, France (general), France","Actor2_Location":"Paris, France (general), France","Action_Location":"Paris, France (general), France","Lat":48.8667,"Long":2.33333,"Timestamp":20181111111500,"Source":"https:\/\/www.thestar.com.my\/news\/world\/2018\/11\/11\/topless-female-protester-runs-at-trumps-motorcade-in-paris\/"},{"ID":801710703,"Actor1":"FRANCE","Actor1_Country":"FRA","Actor2":"PARIS","Actor2_Country":"FRA","Code":141,"Class":3,"Actor1_Location":"Germany","Actor2_Location":"Germany","Action_Location":"Germany","Lat":51.5,"Long":10.5,"Timestamp":20181111111500,"Source":"https:\/\/www.seattlepi.com\/news\/world\/article\/Trump-joins-world-leaders-to-mark-100-years-since-13381672.php"},{"ID":801710788,"Actor1":"GOVERNMENT","Actor1_Country":null,"Actor2":"MUMBAI","Actor2_Country":"IND","Code":139,"Class":3,"Actor1_Location":"Mumbai, Maharashtra, India","Actor2_Location":"Mumbai, Maharashtra, India","Action_Location":"Mumbai, Maharashtra, India","Lat":18.975,"Long":72.8258,"Timestamp":20181111111500,"Source":"http:\/\/www.newsonair.com\/Main-News-Details.aspx?id=355216"},{"ID":801710795,"Actor1":"ADMINISTRATION","Actor1_Country":null,"Actor2":"REBEL","Actor2_Country":null,"Code":110,"Class":3,"Actor1_Location":"Sanaa, San\u0091a', Yemen","Actor2_Location":"Riyadh, Ar Riya?, Saudi Arabia","Action_Location":"Riyadh, Ar Riya?, Saudi Arabia","Lat":24.6408,"Long":46.7728,"Timestamp":20181111111500,"Source":"https:\/\/www.dailysabah.com\/mideast\/2018\/11\/11\/houthis-govt-forces-involve-in-heavy-clashes-in-residential-areas-of-yemens-hodeida"},{"ID":801710796,"Actor1":"ADMINISTRATION","Actor1_Country":null,"Actor2":"REBEL","Actor2_Country":null,"Code":120,"Class":3,"Actor1_Location":"Sanaa, San\u0091a', Yemen","Actor2_Location":"Riyadh, Ar Riya?, Saudi Arabia","Action_Location":"Sanaa, San\u0091a', Yemen","Lat":15.3547,"Long":44.2067,"Timestamp":20181111111500,"Source":"https:\/\/www.dailysabah.com\/mideast\/2018\/11\/11\/houthis-govt-forces-involve-in-heavy-clashes-in-residential-areas-of-yemens-hodeida"},{"ID":801710798,"Actor1":"MINIST","Actor1_Country":null,"Actor2":"RELIGION","Actor2_Country":null,"Code":141,"Class":3,"Actor1_Location":"Lahore, Punjab, Pakistan","Actor2_Location":"Lahore, Punjab, Pakistan","Action_Location":"Lahore, Punjab, Pakistan","Lat":31.5497,"Long":74.3436,"Timestamp":20181111111500,"Source":"https:\/\/www.dawn.com\/news\/1444968\/information-minister-urges-religious-leaders-society-to-take-ownership-of-fight-against-extremism"},{"ID":801710806,"Actor1":"PRESIDENT","Actor1_Country":null,"Actor2":"UNITED STATES","Actor2_Country":"USA","Code":111,"Class":3,"Actor1_Location":"White House, District of Columbia, United States","Actor2_Location":"White House, District of Columbia, United States","Action_Location":"White House, District of Columbia, United States","Lat":38.8951,"Long":-77.0364,"Timestamp":20181111111500,"Source":"https:\/\/www.annistonstar.com\/opinion\/columns\/anthony-cook-president-trump-jim-acosta-and-the-unchanging-role\/article_9e3dfa00-e478-11e8-a7aa-f788f5e575c3.html"},{"ID":801710845,"Actor1":"GUJARAT","Actor1_Country":"IND","Actor2":"POLICE","Actor2_Country":null,"Code":114,"Class":3,"Actor1_Location":"Surat, Gujarat, India","Actor2_Location":"Surat, Gujarat, India","Action_Location":"Surat, Gujarat, India","Lat":20.9667,"Long":72.9,"Timestamp":20181111111500,"Source":"https:\/\/www.business-standard.com\/article\/pti-stories\/guj-man-held-after-daughter-accuses-him-of-rape-in-surat-118111100318_1.html"},{"ID":801710853,"Actor1":"JAMMU AND KASHMIR","Actor1_Country":"IND","Actor2":"PAKISTAN","Actor2_Country":"PAK","Code":110,"Class":3,"Actor1_Location":"Burhan, Punjab, Pakistan","Actor2_Location":"Burhan, Punjab, Pakistan","Action_Location":"Burhan, Punjab, Pakistan","Lat":33.8128,"Long":72.5865,"Timestamp":20181111111500,"Source":"https:\/\/www.business-standard.com\/article\/pti-stories\/around-160-terrorists-waiting-at-launch-pads-to-infiltrate-lt-gen-singh-118111100314_1.html"},{"ID":801710856,"Actor1":"IRELAND","Actor1_Country":"IRL","Actor2":"GOVERNMENT","Actor2_Country":null,"Code":106,"Class":3,"Actor1_Location":"Irish Sea, Ireland (general), Ireland","Actor2_Location":"Northern Ireland, Craigavon, United Kingdom","Action_Location":"Northern Ireland, Craigavon, United Kingdom","Lat":54.5,"Long":-6.5,"Timestamp":20181111111500,"Source":"https:\/\/www.theargus.co.uk\/news\/national\/17215868.pm-warned-of-commons-brexit-defeat-as-eurosceptic-tories-and-dup-forge-alliance\/"},{"ID":801710871,"Actor1":"ISRAELI","Actor1_Country":"ISR","Actor2":"MILITANT","Actor2_Country":null,"Code":110,"Class":3,"Actor1_Location":"Gaza, Israel (general), Israel","Actor2_Location":"Gaza, Israel (general), Israel","Action_Location":"Gaza, Israel (general), Israel","Lat":31.4167,"Long":34.3333,"Timestamp":20181111111500,"Source":"http:\/\/www.WLOX.com\/2018\/11\/11\/israeli-leader-defends-money-transfer-gaza\/"},{"ID":801710874,"Actor1":"ITALY","Actor1_Country":"ITA","Actor2":"CANADA","Actor2_Country":"CAN","Code":112,"Class":3,"Actor1_Location":"Roma, Lazio, Italy","Actor2_Location":"Toronto, Ontario, Canada","Action_Location":"Toronto, Ontario, Canada","Lat":43.6667,"Long":-79.4167,"Timestamp":20181111111500,"Source":"https:\/\/www.pressherald.com\/2018\/11\/11\/how-widows-roma-and-more-holiday-releases-look-to-shake-up-the-oscars-best-picture-race\/"},{"ID":801710895,"Actor1":"COUNSELOR","Actor1_Country":null,"Actor2":"SCHOOL","Actor2_Country":null,"Code":100,"Class":3,"Actor1_Location":"Saigon, H? Ch\u00edinh, Vietnam, Republic Of","Actor2_Location":"Saigon, H? Ch\u00edinh, Vietnam, Republic Of","Action_Location":"Rockville, Maryland, United States","Lat":39.084,"Long":-77.1528,"Timestamp":20181111111500,"Source":"https:\/\/www.pressherald.com\/2018\/11\/11\/gardiner-woman-manned-machine-gun-in-vietnam-airlift\/"},{"ID":801710896,"Actor1":"COUNSELOR","Actor1_Country":null,"Actor2":"SCHOOL","Actor2_Country":null,"Code":100,"Class":3,"Actor1_Location":"Maryland, United States","Actor2_Location":"Maryland, United States","Action_Location":"Maryland, United States","Lat":39.0724,"Long":-76.7902,"Timestamp":20181111111500,"Source":"https:\/\/www.pressherald.com\/2018\/11\/11\/gardiner-woman-manned-machine-gun-in-vietnam-airlift\/"},{"ID":801710897,"Actor1":"COUNSELOR","Actor1_Country":null,"Actor2":"SCHOOL","Actor2_Country":null,"Code":100,"Class":3,"Actor1_Location":"Maine, United States","Actor2_Location":"Saigon, H? Ch\u00edinh, Vietnam, Republic Of","Action_Location":"Maine, United States","Lat":44.6074,"Long":-69.3977,"Timestamp":20181111111500,"Source":"https:\/\/www.pressherald.com\/2018\/11\/11\/gardiner-woman-manned-machine-gun-in-vietnam-airlift\/"},{"ID":801710898,"Actor1":"COUNSELOR","Actor1_Country":null,"Actor2":"SCHOOL","Actor2_Country":null,"Code":100,"Class":3,"Actor1_Location":"Maine, United States","Actor2_Location":"Maine, United States","Action_Location":"Maine, United States","Lat":44.6074,"Long":-69.3977,"Timestamp":20181111111500,"Source":"https:\/\/www.pressherald.com\/2018\/11\/11\/gardiner-woman-manned-machine-gun-in-vietnam-airlift\/"},{"ID":801710899,"Actor1":"MAGISTRATE","Actor1_Country":null,"Actor2":"ACTIVIST","Actor2_Country":null,"Code":112,"Class":3,"Actor1_Location":"Kabale, Kabale, Uganda","Actor2_Location":"Kabale, Kabale, Uganda","Action_Location":"Kabale, Kabale, Uganda","Lat":-1.32611,"Long":30.0039,"Timestamp":20181111111500,"Source":"https:\/\/www.observer.ug\/news\/headlines\/59156-kabale-court-dismisses-4gc-case"},{"ID":801710960,"Actor1":"RADIO STATION","Actor1_Country":null,"Actor2":"DENMARK","Actor2_Country":"DNK","Code":130,"Class":3,"Actor1_Location":"Denmark","Actor2_Location":"Denmark","Action_Location":"Denmark","Lat":56.0,"Long":10.0,"Timestamp":20181111111500,"Source":"https:\/\/www.cnn.com\/2018\/11\/11\/health\/denmark-sc-water-chemical-not-epa-approved\/"},{"ID":801710969,"Actor1":"MEDIA","Actor1_Country":null,"Actor2":"FLORIDA","Actor2_Country":"USA","Code":110,"Class":3,"Actor1_Location":"Sussex, East Sussex, United Kingdom","Actor2_Location":"Sussex, East Sussex, United Kingdom","Action_Location":"Sussex, East Sussex, United Kingdom","Lat":50.9167,"Long":-0.083333,"Timestamp":20181111111500,"Source":"http:\/\/freerepublic.com\/tag\/*\/index?more=3704862"},{"ID":801711027,"Actor1":"TUPPERWARE","Actor1_Country":"USA","Actor2":"CORPORATION","Actor2_Country":null,"Code":111,"Class":3,"Actor1_Location":"United States","Actor2_Location":"United States","Action_Location":"United States","Lat":39.828175,"Long":-98.5795,"Timestamp":20181111111500,"Source":"https:\/\/www.dailypolitical.com\/2018\/11\/11\/tupperware-brands-co-tup-shares-sold-by-commerce-bank.html"},{"ID":801711034,"Actor1":"MUSLIM","Actor1_Country":null,"Actor2":"AUSTRALIA","Actor2_Country":"AUS","Code":111,"Class":3,"Actor1_Location":"Melbourne, Victoria, Australia","Actor2_Location":"Melbourne, Victoria, Australia","Action_Location":"Melbourne, Victoria, Australia","Lat":-37.8167,"Long":144.967,"Timestamp":20181111111500,"Source":"https:\/\/sputniknews.com\/asia\/201811111069705628-australian-muslim-furious-pm-speech\/"},{"ID":801711037,"Actor1":"MUSLIM","Actor1_Country":null,"Actor2":"EXTREMIST","Actor2_Country":null,"Code":110,"Class":3,"Actor1_Location":"Melbourne, Victoria, Australia","Actor2_Location":"Melbourne, Victoria, Australia","Action_Location":"Melbourne, Victoria, Australia","Lat":-37.8167,"Long":144.967,"Timestamp":20181111111500,"Source":"https:\/\/sputniknews.com\/asia\/201811111069705628-australian-muslim-furious-pm-speech\/"},{"ID":801711038,"Actor1":"MUSLIM","Actor1_Country":null,"Actor2":"EXTREMIST","Actor2_Country":null,"Code":111,"Class":3,"Actor1_Location":"Melbourne, Victoria, Australia","Actor2_Location":"Melbourne, Victoria, Australia","Action_Location":"Melbourne, Victoria, Australia","Lat":-37.8167,"Long":144.967,"Timestamp":20181111111500,"Source":"https:\/\/sputniknews.com\/asia\/201811111069705628-australian-muslim-furious-pm-speech\/"},{"ID":801711049,"Actor1":"REPORTERS WITHOUT BORDERS","Actor1_Country":null,"Actor2":"JOURNALIST","Actor2_Country":null,"Code":111,"Class":3,"Actor1_Location":"Yemen","Actor2_Location":"Yemen","Action_Location":"Yemen","Lat":15.5,"Long":47.5,"Timestamp":20181111111500,"Source":"http:\/\/english.alarabiya.net\/en\/features\/2018\/11\/11\/Detained-Yemeni-journalist-speaks-about-horrors-inside-Houthi-prisons.html"},{"ID":801711069,"Actor1":"ACTIVIST","Actor1_Country":null,"Actor2":"CHINA","Actor2_Country":"CHN","Code":1044,"Class":3,"Actor1_Location":"Beijing, Beijing, China","Actor2_Location":"Beijing, Beijing, China","Action_Location":"Beijing, Beijing, China","Lat":39.9289,"Long":116.388,"Timestamp":20181111111500,"Source":"http:\/\/internationalviewpoint.org\/spip.php?article5781"},{"ID":801711071,"Actor1":"ACTIVIST","Actor1_Country":null,"Actor2":"CRIMINAL","Actor2_Country":null,"Code":141,"Class":3,"Actor1_Location":"Paris, France (general), France","Actor2_Location":"Paris, France (general), France","Action_Location":"Paris, France (general), France","Lat":48.8667,"Long":2.33333,"Timestamp":20181111111500,"Source":"https:\/\/sputniknews.com\/europe\/201811111069705052-topless-female-paris\/"},{"ID":801711073,"Actor1":"ACTIVIST","Actor1_Country":null,"Actor2":"SCHOLAR","Actor2_Country":null,"Code":112,"Class":3,"Actor1_Location":"Beijing, Beijing, China","Actor2_Location":"Beijing, Beijing, China","Action_Location":"Beijing, Beijing, China","Lat":39.9289,"Long":116.388,"Timestamp":20181111111500,"Source":"http:\/\/internationalviewpoint.org\/spip.php?article5781"},{"ID":801711076,"Actor1":"ACTIVIST","Actor1_Country":null,"Actor2":"FRENCH","Actor2_Country":"FRA","Code":140,"Class":3,"Actor1_Location":"Paris, France (general), France","Actor2_Location":"Paris, France (general), France","Action_Location":"Paris, France (general), France","Lat":48.8667,"Long":2.33333,"Timestamp":20181111111500,"Source":"https:\/\/sputniknews.com\/europe\/201811111069705052-topless-female-paris\/"},{"ID":801711082,"Actor1":"ACTIVIST","Actor1_Country":null,"Actor2":"IRANIAN","Actor2_Country":"IRN","Code":141,"Class":3,"Actor1_Location":"Paris, France (general), France","Actor2_Location":"Paris, France (general), France","Action_Location":"Paris, France (general), France","Lat":48.8667,"Long":2.33333,"Timestamp":20181111111500,"Source":"https:\/\/www.jpost.com\/International\/Topless-female-protester-runs-at-Trumps-motorcade-in-Paris-571582"},{"ID":801711083,"Actor1":"ACTIVIST","Actor1_Country":null,"Actor2":"IRANIAN","Actor2_Country":"IRN","Code":141,"Class":3,"Actor1_Location":"Paris, France (general), France","Actor2_Location":"Iran","Action_Location":"Iran","Lat":32.0,"Long":53.0,"Timestamp":20181111111500,"Source":"https:\/\/www.jpost.com\/International\/Topless-female-protester-runs-at-Trumps-motorcade-in-Paris-571582"},{"ID":801711084,"Actor1":"ACTIVIST","Actor1_Country":null,"Actor2":"IRANIAN","Actor2_Country":"IRN","Code":141,"Class":3,"Actor1_Location":"Paris, France (general), France","Actor2_Location":"Iran","Action_Location":"Paris, France (general), France","Lat":48.8667,"Long":2.33333,"Timestamp":20181111111500,"Source":"https:\/\/www.jpost.com\/International\/Topless-female-protester-runs-at-Trumps-motorcade-in-Paris-571582"},{"ID":801711085,"Actor1":"THE OPPOSITION","Actor1_Country":null,"Actor2":"PAKISTAN","Actor2_Country":"PAK","Code":111,"Class":3,"Actor1_Location":"Lahore, Punjab, Pakistan","Actor2_Location":"Lahore, Punjab, Pakistan","Action_Location":"Lahore, Punjab, Pakistan","Lat":31.5497,"Long":74.3436,"Timestamp":20181111111500,"Source":"http:\/\/www.indialegallive.com\/world-news\/global-trends-news\/pak-china-bus-route-the-road-less-travelled-57095"},{"ID":801711089,"Actor1":"ACTIVIST","Actor1_Country":null,"Actor2":"COMPANY","Actor2_Country":null,"Code":112,"Class":3,"Actor1_Location":"Kabale, Kabale, Uganda","Actor2_Location":"Kabale, Kabale, Uganda","Action_Location":"Kabale, Kabale, Uganda","Lat":-1.32611,"Long":30.0039,"Timestamp":20181111111500,"Source":"https:\/\/www.observer.ug\/news\/headlines\/59156-kabale-court-dismisses-4gc-case"},{"ID":801711092,"Actor1":"PAKISTAN","Actor1_Country":"PAK","Actor2":"ISRAEL","Actor2_Country":"ISR","Code":110,"Class":3,"Actor1_Location":"Islamabad, Islamabad, Pakistan","Actor2_Location":"Israel","Action_Location":"Islamabad, Islamabad, Pakistan","Lat":33.7,"Long":73.1667,"Timestamp":20181111111500,"Source":"http:\/\/pid.gov.pk\/site\/press_detail\/9640"},{"ID":801711093,"Actor1":"PAKISTAN","Actor1_Country":"PAK","Actor2":"ISRAEL","Actor2_Country":"ISR","Code":110,"Class":3,"Actor1_Location":"Israel","Actor2_Location":"Islamabad, Islamabad, Pakistan","Action_Location":"Israel","Lat":31.5,"Long":34.75,"Timestamp":20181111111500,"Source":"http:\/\/pid.gov.pk\/site\/press_detail\/9640"},{"ID":801711095,"Actor1":"PAKISTAN","Actor1_Country":"PAK","Actor2":"TERRORIST","Actor2_Country":null,"Code":110,"Class":3,"Actor1_Location":"Burhan, Punjab, Pakistan","Actor2_Location":"Burhan, Punjab, Pakistan","Action_Location":"Burhan, Punjab, Pakistan","Lat":33.8128,"Long":72.5865,"Timestamp":20181111111500,"Source":"https:\/\/www.business-standard.com\/article\/pti-stories\/around-160-terrorists-waiting-at-launch-pads-to-infiltrate-lt-gen-singh-118111100314_1.html"},{"ID":801711120,"Actor1":"POLITICIAN","Actor1_Country":null,"Actor2":"SCHOLAR","Actor2_Country":null,"Code":112,"Class":3,"Actor1_Location":"Beijing, Beijing, China","Actor2_Location":"Beijing, Beijing, China","Action_Location":"Beijing, Beijing, China","Lat":39.9289,"Long":116.388,"Timestamp":20181111111500,"Source":"http:\/\/internationalviewpoint.org\/spip.php?article5781"},{"ID":801711148,"Actor1":"SAUDI ARABIA","Actor1_Country":"SAU","Actor2":"REBEL","Actor2_Country":null,"Code":110,"Class":3,"Actor1_Location":"Riyadh, Ar Riya?, Saudi Arabia","Actor2_Location":"Riyadh, Ar Riya?, Saudi Arabia","Action_Location":"Riyadh, Ar Riya?, Saudi Arabia","Lat":24.6408,"Long":46.7728,"Timestamp":20181111111500,"Source":"https:\/\/www.dailysabah.com\/mideast\/2018\/11\/11\/houthis-govt-forces-involve-in-heavy-clashes-in-residential-areas-of-yemens-hodeida"},{"ID":801711168,"Actor1":"SYRIAN","Actor1_Country":"SYR","Actor2":"THE US","Actor2_Country":"USA","Code":110,"Class":3,"Actor1_Location":"Hajin, Dayr az Zawr, Syria","Actor2_Location":"Hajin, Dayr az Zawr, Syria","Action_Location":"Hajin, Dayr az Zawr, Syria","Lat":34.6927,"Long":40.827,"Timestamp":20181111111500,"Source":"https:\/\/www.middleeastmonitor.com\/20181111-syria-protests-to-un-over-coalition-air-strike-in-east\/"},{"ID":801711183,"Actor1":"TURKEY","Actor1_Country":"TUR","Actor2":"CONGRESS","Actor2_Country":null,"Code":120,"Class":3,"Actor1_Location":"Turkey","Actor2_Location":"Uttar Pradesh, Uttar Pradesh, India","Action_Location":"Uttar Pradesh, Uttar Pradesh, India","Lat":27.25,"Long":80.75,"Timestamp":20181111111500,"Source":"https:\/\/countercurrents.org\/2018\/11\/11\/beyond-secular-vs-communal-quest-for-an-egalitarian-society\/"},{"ID":801711184,"Actor1":"TURKEY","Actor1_Country":"TUR","Actor2":"CONGRESS","Actor2_Country":null,"Code":120,"Class":3,"Actor1_Location":"Turkey","Actor2_Location":"Turkey","Action_Location":"Turkey","Lat":39.059012,"Long":34.911546,"Timestamp":20181111111500,"Source":"https:\/\/countercurrents.org\/2018\/11\/11\/beyond-secular-vs-communal-quest-for-an-egalitarian-society\/"},{"ID":801711193,"Actor1":"UGANDA","Actor1_Country":"UGA","Actor2":"COMPANY","Actor2_Country":null,"Code":112,"Class":3,"Actor1_Location":"Kabale, Kabale, Uganda","Actor2_Location":"Kabale, Kabale, Uganda","Action_Location":"Kabale, Kabale, Uganda","Lat":-1.32611,"Long":30.0039,"Timestamp":20181111111500,"Source":"https:\/\/www.observer.ug\/news\/headlines\/59156-kabale-court-dismisses-4gc-case"},{"ID":801711194,"Actor1":"UGANDA","Actor1_Country":"UGA","Actor2":"MAGISTRATE","Actor2_Country":null,"Code":110,"Class":3,"Actor1_Location":"Kabale, Kabale, Uganda","Actor2_Location":"Kabale, Kabale, Uganda","Action_Location":"Kabale, Kabale, Uganda","Lat":-1.32611,"Long":30.0039,"Timestamp":20181111111500,"Source":"https:\/\/www.observer.ug\/news\/headlines\/59156-kabale-court-dismisses-4gc-case"},{"ID":801711195,"Actor1":"UGANDA","Actor1_Country":"UGA","Actor2":"ACTIVIST","Actor2_Country":null,"Code":112,"Class":3,"Actor1_Location":"Kabale, Kabale, Uganda","Actor2_Location":"Kabale, Kabale, Uganda","Action_Location":"Kabale, Kabale, Uganda","Lat":-1.32611,"Long":30.0039,"Timestamp":20181111111500,"Source":"https:\/\/www.observer.ug\/news\/headlines\/59156-kabale-court-dismisses-4gc-case"},{"ID":801711256,"Actor1":"UNITED STATES","Actor1_Country":"USA","Actor2":"POPULATION","Actor2_Country":null,"Code":1233,"Class":3,"Actor1_Location":"United States","Actor2_Location":"United States","Action_Location":"United States","Lat":39.828175,"Long":-98.5795,"Timestamp":20181111111500,"Source":"https:\/\/www.heraldnet.com\/life\/new-mohai-exhibit-looks-at-how-world-war-i-changed-america\/"},{"ID":801711273,"Actor1":"UNITED STATES","Actor1_Country":"USA","Actor2":"GOVERNOR","Actor2_Country":null,"Code":110,"Class":3,"Actor1_Location":"Iowa, United States","Actor2_Location":"Iowa, United States","Action_Location":"Iowa, United States","Lat":42.0046,"Long":-93.214,"Timestamp":20181111111500,"Source":"https:\/\/qctimes.com\/opinion\/columnists\/iowa-a-new-kind-of-purple\/article_67ab048b-091d-5eeb-9487-fad80ec983f9.html"},{"ID":801711295,"Actor1":"WASHINGTON","Actor1_Country":"USA","Actor2":"WASHINGTON","Actor2_Country":"USA","Code":100,"Class":3,"Actor1_Location":"Washington, District of Columbia, United States","Actor2_Location":"Washington, District of Columbia, United States","Action_Location":"Washington, District of Columbia, United States","Lat":38.8951,"Long":-77.0364,"Timestamp":20181111111500,"Source":"https:\/\/www.heraldnet.com\/opinion\/commentary-employers-need-to-reach-out-to-military-spouses\/"},{"ID":801711296,"Actor1":"CALIFORNIA","Actor1_Country":"USA","Actor2":"UNITED STATES","Actor2_Country":"USA","Code":120,"Class":3,"Actor1_Location":"Seattle, Washington, United States","Actor2_Location":"Seattle, Washington, United States","Action_Location":"Seattle, Washington, United States","Lat":47.6062,"Long":-122.332,"Timestamp":20181111111500,"Source":"http:\/\/mynorthwest.com\/1179426\/washington-california-daylight-savings\/"},{"ID":801711300,"Actor1":"LOS ANGELES","Actor1_Country":"USA","Actor2":"LOS ANGELES","Actor2_Country":"USA","Code":111,"Class":3,"Actor1_Location":"Los Angeles, California, United States","Actor2_Location":"Los Angeles, California, United States","Action_Location":"Los Angeles, California, United States","Lat":34.0522,"Long":-118.244,"Timestamp":20181111111500,"Source":"https:\/\/www.nbclosangeles.com\/news\/local\/High-Winds-Able-to-Refuel-Woolsey-Fire-500225391.html"},{"ID":801711301,"Actor1":"UNITED STATES","Actor1_Country":"USA","Actor2":"TUPPERWARE","Actor2_Country":"USA","Code":120,"Class":3,"Actor1_Location":"United States","Actor2_Location":"United States","Action_Location":"United States","Lat":39.828175,"Long":-98.5795,"Timestamp":20181111111500,"Source":"https:\/\/www.dailypolitical.com\/2018\/11\/11\/tupperware-brands-co-tup-shares-sold-by-commerce-bank.html"},{"ID":801711304,"Actor1":"DAVID FRUM","Actor1_Country":"USA","Actor2":"PITTSBURGH","Actor2_Country":"USA","Code":114,"Class":3,"Actor1_Location":"Aisne, Pays de la Loire, France","Actor2_Location":"Aisne, Pays de la Loire, France","Action_Location":"Aisne, Pays de la Loire, France","Lat":48.4833,"Long":-0.366667,"Timestamp":20181111111500,"Source":"https:\/\/junkee.com\/trump-skips-armistice-day\/181680"},{"ID":801711305,"Actor1":"DAVID FRUM","Actor1_Country":"USA","Actor2":"PITTSBURGH","Actor2_Country":"USA","Code":114,"Class":3,"Actor1_Location":"Aisne, Pays de la Loire, France","Actor2_Location":"White House, District of Columbia, United States","Action_Location":"Aisne, Pays de la Loire, France","Lat":48.4833,"Long":-0.366667,"Timestamp":20181111111500,"Source":"https:\/\/junkee.com\/trump-skips-armistice-day\/181680"},{"ID":801711306,"Actor1":"DAVID FRUM","Actor1_Country":"USA","Actor2":"PITTSBURGH","Actor2_Country":"USA","Code":114,"Class":3,"Actor1_Location":"White House, District of Columbia, United States","Actor2_Location":"White House, District of Columbia, United States","Action_Location":"White House, District of Columbia, United States","Lat":38.8951,"Long":-77.0364,"Timestamp":20181111111500,"Source":"https:\/\/junkee.com\/trump-skips-armistice-day\/181680"},{"ID":801711311,"Actor1":"THE WHITE HOUSE","Actor1_Country":"USA","Actor2":"FRANCE","Actor2_Country":"FRA","Code":125,"Class":3,"Actor1_Location":"Aisne, Pays de la Loire, France","Actor2_Location":"Aisne, Pays de la Loire, France","Action_Location":"Aisne, Pays de la Loire, France","Lat":48.4833,"Long":-0.366667,"Timestamp":20181111111500,"Source":"https:\/\/junkee.com\/trump-skips-armistice-day\/181680"},{"ID":801711312,"Actor1":"THE WHITE HOUSE","Actor1_Country":"USA","Actor2":"FRANCE","Actor2_Country":"FRA","Code":125,"Class":3,"Actor1_Location":"Germany","Actor2_Location":"Aisne, Pays de la Loire, France","Action_Location":"Aisne, Pays de la Loire, France","Lat":48.4833,"Long":-0.366667,"Timestamp":20181111111500,"Source":"https:\/\/junkee.com\/trump-skips-armistice-day\/181680"},{"ID":801711314,"Actor1":"RICHARD NIXON","Actor1_Country":"USA","Actor2":"COUNSEL","Actor2_Country":null,"Code":1014,"Class":3,"Actor1_Location":"Maine, United States","Actor2_Location":"Maine, United States","Action_Location":"Maine, United States","Lat":44.6074,"Long":-69.3977,"Timestamp":20181111111500,"Source":"https:\/\/www.pressherald.com\/2018\/11\/11\/cooler-heads-not-panicking-about-post-sessions-mueller-probe\/"},{"ID":801711315,"Actor1":"RICHARD NIXON","Actor1_Country":"USA","Actor2":"COUNSEL","Actor2_Country":null,"Code":1014,"Class":3,"Actor1_Location":"New York, United States","Actor2_Location":"New York, United States","Action_Location":"New York, United States","Lat":42.1497,"Long":-74.9384,"Timestamp":20181111111500,"Source":"https:\/\/www.pressherald.com\/2018\/11\/11\/cooler-heads-not-panicking-about-post-sessions-mueller-probe\/"},{"ID":801711321,"Actor1":"UNITED STATES","Actor1_Country":"USA","Actor2":"LOS ANGELES","Actor2_Country":"USA","Code":111,"Class":3,"Actor1_Location":"Los Angeles, California, United States","Actor2_Location":"Los Angeles, California, United States","Action_Location":"Los Angeles, California, United States","Lat":34.0522,"Long":-118.244,"Timestamp":20181111111500,"Source":"https:\/\/www.nbclosangeles.com\/news\/local\/High-Winds-Able-to-Refuel-Woolsey-Fire-500225391.html"},{"ID":801711322,"Actor1":"UNITED STATES","Actor1_Country":"USA","Actor2":"LOS ANGELES","Actor2_Country":"USA","Code":111,"Class":3,"Actor1_Location":"Los Angeles, California, United States","Actor2_Location":"Los Angeles, California, United States","Action_Location":"California, United States","Lat":36.17,"Long":-119.746,"Timestamp":20181111111500,"Source":"https:\/\/www.nbclosangeles.com\/news\/local\/High-Winds-Able-to-Refuel-Woolsey-Fire-500225391.html"},{"ID":801711326,"Actor1":"RICHARD NIXON","Actor1_Country":"USA","Actor2":"UNITED STATES","Actor2_Country":"USA","Code":1014,"Class":3,"Actor1_Location":"Washington, District of Columbia, United States","Actor2_Location":"New York, United States","Action_Location":"New York, United States","Lat":42.1497,"Long":-74.9384,"Timestamp":20181111111500,"Source":"https:\/\/www.pressherald.com\/2018\/11\/11\/cooler-heads-not-panicking-about-post-sessions-mueller-probe\/"},{"ID":801711345,"Actor1":"YEMENI","Actor1_Country":"YEM","Actor2":"CRIMINAL","Actor2_Country":null,"Code":112,"Class":3,"Actor1_Location":"Hodeida, Al ?udaydah, Yemen","Actor2_Location":"Hodeida, Al ?udaydah, Yemen","Action_Location":"Hodeida, Al ?udaydah, Yemen","Lat":14.7978,"Long":42.9545,"Timestamp":20181111111500,"Source":"https:\/\/www.egyptindependent.com\/yemen-loyalists-push-deeper-into-hodeida-as-us-cuts-support\/"},{"ID":801711346,"Actor1":"YEMENI","Actor1_Country":"YEM","Actor2":"CRIMINAL","Actor2_Country":null,"Code":112,"Class":3,"Actor1_Location":"Washington, District of Columbia, United States","Actor2_Location":"Hodeida, Al ?udaydah, Yemen","Action_Location":"Washington, District of Columbia, United States","Lat":38.8951,"Long":-77.0364,"Timestamp":20181111111500,"Source":"https:\/\/www.egyptindependent.com\/yemen-loyalists-push-deeper-into-hodeida-as-us-cuts-support\/"},{"ID":801711349,"Actor1":"YEMENI","Actor1_Country":"YEM","Actor2":"REBEL GROUP","Actor2_Country":null,"Code":112,"Class":3,"Actor1_Location":"Riyadh, Ar Riya?, Saudi Arabia","Actor2_Location":"Hodeida, Al ?udaydah, Yemen","Action_Location":"Riyadh, Ar Riya?, Saudi Arabia","Lat":24.6408,"Long":46.7728,"Timestamp":20181111111500,"Source":"https:\/\/www.dailysabah.com\/mideast\/2018\/11\/11\/houthis-govt-forces-involve-in-heavy-clashes-in-residential-areas-of-yemens-hodeida"},{"ID":801711350,"Actor1":"YEMENI","Actor1_Country":"YEM","Actor2":"REBEL GROUP","Actor2_Country":null,"Code":112,"Class":3,"Actor1_Location":"Hodeida, Al ?udaydah, Yemen","Actor2_Location":"Hodeida, Al ?udaydah, Yemen","Action_Location":"Hodeida, Al ?udaydah, Yemen","Lat":14.7978,"Long":42.9545,"Timestamp":20181111111500,"Source":"https:\/\/www.dailysabah.com\/mideast\/2018\/11\/11\/houthis-govt-forces-involve-in-heavy-clashes-in-residential-areas-of-yemens-hodeida"},{"ID":801711353,"Actor1":"YEMENI","Actor1_Country":"YEM","Actor2":"CRIMINAL","Actor2_Country":null,"Code":112,"Class":3,"Actor1_Location":"Hodeida, Al ?udaydah, Yemen","Actor2_Location":"Hodeida, Al ?udaydah, Yemen","Action_Location":"Hodeida, Al ?udaydah, Yemen","Lat":14.7978,"Long":42.9545,"Timestamp":20181111111500,"Source":"https:\/\/www.egyptindependent.com\/yemen-loyalists-push-deeper-into-hodeida-as-us-cuts-support\/"},{"ID":801711355,"Actor1":"YEMENI","Actor1_Country":"YEM","Actor2":"REBEL GROUP","Actor2_Country":null,"Code":112,"Class":3,"Actor1_Location":"Hodeida, Al ?udaydah, Yemen","Actor2_Location":"Hodeida, Al ?udaydah, Yemen","Action_Location":"Hodeida, Al ?udaydah, Yemen","Lat":14.7978,"Long":42.9545,"Timestamp":20181111111500,"Source":"https:\/\/www.dailysabah.com\/mideast\/2018\/11\/11\/houthis-govt-forces-involve-in-heavy-clashes-in-residential-areas-of-yemens-hodeida"}]