[{"ID":801430909,"Actor1":"AUSTRALIAN","Actor1_Country":"AUS","Actor2":"REUTERS","Actor2_Country":"USA","Code":173,"Class":4,"Actor1_Location":"Melbourne, Victoria, Australia","Actor2_Location":"Sydney, New South Wales, Australia","Action_Location":"Melbourne, Victoria, Australia","Lat":-37.8167,"Long":144.967,"Timestamp":20181110000000,"Source":"https:\/\/in.reuters.com\/article\/australia-security\/melbourne-attackers-brother-arrested-last-year-police-idINKCN1NE2M4"},{"ID":801430916,"Actor1":"CIVILIAN","Actor1_Country":null,"Actor2":"ISRAEL","Actor2_Country":"ISR","Code":190,"Class":4,"Actor1_Location":"Jerusalem, Israel (general), Israel","Actor2_Location":"Jerusalem, Israel (general), Israel","Action_Location":"Jerusalem, Israel (general), Israel","Lat":31.7667,"Long":35.2333,"Timestamp":20181110000000,"Source":"http:\/\/blog.camera.org\/2007\/05\/"},{"ID":801430917,"Actor1":"CITIZEN","Actor1_Country":null,"Actor2":"MEXICO","Actor2_Country":"MEX","Code":173,"Class":4,"Actor1_Location":"Tijuana, Baja California, Mexico","Actor2_Location":"San Ysidro, California, United States","Action_Location":"Tijuana, Baja California, Mexico","Lat":32.5333,"Long":-117.017,"Timestamp":20181110000000,"Source":"https:\/\/www.newsadvance.com\/news\/world\/wire\/man-s-harrowing-journey-to-us-underscores-immigration-shift\/article_1a0ecb4f-50ab-503f-9a6a-680cf477a6a5.html"},{"ID":801430918,"Actor1":"CITIZEN","Actor1_Country":null,"Actor2":"MEXICO","Actor2_Country":"MEX","Code":173,"Class":4,"Actor1_Location":"Philadelphia, Pennsylvania, United States","Actor2_Location":"Philadelphia, Pennsylvania, United States","Action_Location":"Philadelphia, Pennsylvania, United States","Lat":39.9523,"Long":-75.1638,"Timestamp":20181110000000,"Source":"http:\/\/www.wrcbtv.com\/story\/39453965\/mans-harrowing-journey-to-us-underscores-immigration-shift"},{"ID":801430919,"Actor1":"CITIZEN","Actor1_Country":null,"Actor2":"MEXICO","Actor2_Country":"MEX","Code":173,"Class":4,"Actor1_Location":"San Diego, California, United States","Actor2_Location":"Philadelphia, Pennsylvania, United States","Action_Location":"Philadelphia, Pennsylvania, United States","Lat":39.9523,"Long":-75.1638,"Timestamp":20181110000000,"Source":"https:\/\/www.newsadvance.com\/news\/world\/wire\/man-s-harrowing-journey-to-us-underscores-immigration-shift\/article_1a0ecb4f-50ab-503f-9a6a-680cf477a6a5.html"},{"ID":801430920,"Actor1":"CITIZEN","Actor1_Country":null,"Actor2":"MEXICO","Actor2_Country":"MEX","Code":173,"Class":4,"Actor1_Location":"San Diego, California, United States","Actor2_Location":"Philadelphia, Pennsylvania, United States","Action_Location":"San Diego, California, United States","Lat":32.7153,"Long":-117.157,"Timestamp":20181110000000,"Source":"http:\/\/www.wrcbtv.com\/story\/39453965\/mans-harrowing-journey-to-us-underscores-immigration-shift"},{"ID":801430928,"Actor1":"ISRAEL","Actor1_Country":"ISR","Actor2":"POLICE","Actor2_Country":null,"Code":193,"Class":4,"Actor1_Location":"Moledet, Tel Aviv, Israel","Actor2_Location":"Moledet, Tel Aviv, Israel","Action_Location":"Moledet, Tel Aviv, Israel","Lat":32.0011,"Long":34.8006,"Timestamp":20181110000000,"Source":"http:\/\/blog.camera.org\/2007\/11\/"},{"ID":801430929,"Actor1":"ISRAEL","Actor1_Country":"ISR","Actor2":"POLICE","Actor2_Country":null,"Code":193,"Class":4,"Actor1_Location":"Moledet, Tel Aviv, Israel","Actor2_Location":"Iraq","Action_Location":"Iraq","Lat":33.0,"Long":44.0,"Timestamp":20181110000000,"Source":"http:\/\/blog.camera.org\/2007\/11\/"},{"ID":801430930,"Actor1":"ISRAEL","Actor1_Country":"ISR","Actor2":"JERUSALEM","Actor2_Country":"ISR","Code":1712,"Class":4,"Actor1_Location":"Jerusalem, Israel (general), Israel","Actor2_Location":"Jerusalem, Israel (general), Israel","Action_Location":"Jerusalem, Israel (general), Israel","Lat":31.7667,"Long":35.2333,"Timestamp":20181110000000,"Source":"http:\/\/blog.camera.org\/2015\/10\/"},{"ID":801430936,"Actor1":"JERUSALEM","Actor1_Country":"ISR","Actor2":"ISRAEL","Actor2_Country":"ISR","Code":1712,"Class":4,"Actor1_Location":"Jerusalem, Israel (general), Israel","Actor2_Location":"Jerusalem, Israel (general), Israel","Action_Location":"Jerusalem, Israel (general), Israel","Lat":31.7667,"Long":35.2333,"Timestamp":20181110000000,"Source":"http:\/\/blog.camera.org\/2015\/10\/"},{"ID":801430937,"Actor1":"JERUSALEM","Actor1_Country":"ISR","Actor2":"ISRAEL","Actor2_Country":"ISR","Code":190,"Class":4,"Actor1_Location":"Jerusalem, Israel (general), Israel","Actor2_Location":"Jerusalem, Israel (general), Israel","Action_Location":"Jerusalem, Israel (general), Israel","Lat":31.7667,"Long":35.2333,"Timestamp":20181110000000,"Source":"http:\/\/blog.camera.org\/2015\/10\/"},{"ID":801430946,"Actor1":"COMBATANT","Actor1_Country":null,"Actor2":"POLICE","Actor2_Country":null,"Code":193,"Class":4,"Actor1_Location":"Moledet, Tel Aviv, Israel","Actor2_Location":"Moledet, Tel Aviv, Israel","Action_Location":"Moledet, Tel Aviv, Israel","Lat":32.0011,"Long":34.8006,"Timestamp":20181110000000,"Source":"http:\/\/blog.camera.org\/2007\/11\/"},{"ID":801430947,"Actor1":"COMBATANT","Actor1_Country":null,"Actor2":"POLICE","Actor2_Country":null,"Code":193,"Class":4,"Actor1_Location":"Moledet, Tel Aviv, Israel","Actor2_Location":"Iraq","Action_Location":"Iraq","Lat":33.0,"Long":44.0,"Timestamp":20181110000000,"Source":"http:\/\/blog.camera.org\/2007\/11\/"},{"ID":801430950,"Actor1":"LOS ANGELES","Actor1_Country":"USA","Actor2":"CIVILIAN","Actor2_Country":null,"Code":202,"Class":4,"Actor1_Location":"University Of Haifa, H_efa, Israel","Actor2_Location":"University Of Haifa, H_efa, Israel","Action_Location":"University Of Haifa, H_efa, Israel","Lat":32.7618,"Long":35.0195,"Timestamp":20181110000000,"Source":"http:\/\/blog.camera.org\/2014\/02\/"},{"ID":801430951,"Actor1":"LOS ANGELES","Actor1_Country":"USA","Actor2":"CIVILIAN","Actor2_Country":null,"Code":202,"Class":4,"Actor1_Location":"Los Angeles, California, United States","Actor2_Location":"Tantura, H_efa, Israel","Action_Location":"Tantura, H_efa, Israel","Lat":32.6075,"Long":34.9233,"Timestamp":20181110000000,"Source":"http:\/\/blog.camera.org\/2014\/02\/"},{"ID":801430957,"Actor1":"UNITED STATES","Actor1_Country":"USA","Actor2":"RUSSIA","Actor2_Country":"RUS","Code":193,"Class":4,"Actor1_Location":"Houston, Texas, United States","Actor2_Location":"Russia","Action_Location":"Houston, Texas, United States","Lat":29.7633,"Long":-95.3633,"Timestamp":20181110000000,"Source":"https:\/\/www.wrdw.com\/content\/news\/Next-US-astronaut-on-Russian-rocket-confident-after-mishaps-500160781.html"},{"ID":801430958,"Actor1":"UNITED STATES","Actor1_Country":"USA","Actor2":"RUSSIA","Actor2_Country":"RUS","Code":193,"Class":4,"Actor1_Location":"Houston, Texas, United States","Actor2_Location":"Russia","Action_Location":"Russia","Lat":60.0,"Long":100.0,"Timestamp":20181110000000,"Source":"https:\/\/www.wrdw.com\/content\/news\/Next-US-astronaut-on-Russian-rocket-confident-after-mishaps-500160781.html"},{"ID":801430959,"Actor1":"LAS VEGAS","Actor1_Country":"USA","Actor2":"THE ASSOCIATED PRESS","Actor2_Country":"USA","Code":193,"Class":4,"Actor1_Location":"Orange County, California, United States","Actor2_Location":"Orange County, California, United States","Action_Location":"Orange County, California, United States","Lat":33.7,"Long":-117.768,"Timestamp":20181110000000,"Source":"https:\/\/www.ksbw.com\/article\/veteran-who-survived-las-vegas-massacre-among-those-who-died-at-california-nightclub-shooting\/24860356"},{"ID":801430960,"Actor1":"REUTERS","Actor1_Country":"USA","Actor2":"TERRORIST","Actor2_Country":null,"Code":190,"Class":4,"Actor1_Location":"Sydney, New South Wales, Australia","Actor2_Location":"Sydney, New South Wales, Australia","Action_Location":"Sydney, New South Wales, Australia","Lat":-33.8833,"Long":151.217,"Timestamp":20181110000000,"Source":"https:\/\/in.reuters.com\/article\/australia-security\/melbourne-attackers-brother-arrested-last-year-police-idINKCN1NE2M4"},{"ID":801430973,"Actor1":"ISRAEL","Actor1_Country":"ISR","Actor2":"ISRAEL","Actor2_Country":"ISR","Code":193,"Class":4,"Actor1_Location":"Jerusalem, Israel (general), Israel","Actor2_Location":"Jerusalem, Israel (general), Israel","Action_Location":"Jerusalem, Israel (general), Israel","Lat":31.7667,"Long":35.2333,"Timestamp":20181110000000,"Source":"http:\/\/blog.camera.org\/2014\/11\/"},{"ID":801430978,"Actor1":"SAN ANTONIO","Actor1_Country":"USA","Actor2":"SENATOR","Actor2_Country":null,"Code":173,"Class":4,"Actor1_Location":"San Antonio, Texas, United States","Actor2_Location":"San Antonio, Texas, United States","Action_Location":"San Antonio, Texas, United States","Lat":29.4241,"Long":-98.4936,"Timestamp":20181110000000,"Source":"https:\/\/www.mysanantonio.com\/news\/local\/article\/Jury-acquits-Uresti-co-defendant-in-bribery-case-13379168.php"},{"ID":801430984,"Actor1":"EGYPTIAN","Actor1_Country":"EGY","Actor2":"ISRAEL","Actor2_Country":"ISR","Code":193,"Class":4,"Actor1_Location":"Jerusalem, Israel (general), Israel","Actor2_Location":"Jerusalem, Israel (general), Israel","Action_Location":"Jerusalem, Israel (general), Israel","Lat":31.7667,"Long":35.2333,"Timestamp":20181110000000,"Source":"http:\/\/blog.camera.org\/2011\/01\/"},{"ID":801430985,"Actor1":"EGYPTIAN","Actor1_Country":"EGY","Actor2":"ISRAEL","Actor2_Country":"ISR","Code":193,"Class":4,"Actor1_Location":"Alexandria, Al Iskandariyah, Egypt","Actor2_Location":"Jerusalem, Israel (general), Israel","Action_Location":"Alexandria, Al Iskandariyah, Egypt","Lat":31.1981,"Long":29.9192,"Timestamp":20181110000000,"Source":"http:\/\/blog.camera.org\/2011\/01\/"},{"ID":801430986,"Actor1":"EGYPTIAN","Actor1_Country":"EGY","Actor2":"PALESTINIAN","Actor2_Country":"PSE","Code":193,"Class":4,"Actor1_Location":"Alexandria, Al Iskandariyah, Egypt","Actor2_Location":"Alexandria, Al Iskandariyah, Egypt","Action_Location":"Alexandria, Al Iskandariyah, Egypt","Lat":31.1981,"Long":29.9192,"Timestamp":20181110000000,"Source":"http:\/\/blog.camera.org\/2011\/01\/"},{"ID":801430990,"Actor1":"IRAQ","Actor1_Country":"IRQ","Actor2":"SECURITY FORCE","Actor2_Country":null,"Code":193,"Class":4,"Actor1_Location":"Iraq","Actor2_Location":"Jerusalem, Israel (general), Israel","Action_Location":"Iraq","Lat":33.0,"Long":44.0,"Timestamp":20181110000000,"Source":"http:\/\/blog.camera.org\/2007\/10\/"},{"ID":801430992,"Actor1":"ISRAEL","Actor1_Country":"ISR","Actor2":"SECURITY FORCE","Actor2_Country":null,"Code":193,"Class":4,"Actor1_Location":"Jerusalem, Israel (general), Israel","Actor2_Location":"Jerusalem, Israel (general), Israel","Action_Location":"Iraq","Lat":33.0,"Long":44.0,"Timestamp":20181110000000,"Source":"http:\/\/blog.camera.org\/2007\/10\/"},{"ID":801430993,"Actor1":"ISRAEL","Actor1_Country":"ISR","Actor2":"SECURITY FORCE","Actor2_Country":null,"Code":193,"Class":4,"Actor1_Location":"Jerusalem, Israel (general), Israel","Actor2_Location":"Iraq","Action_Location":"Iraq","Lat":33.0,"Long":44.0,"Timestamp":20181110000000,"Source":"http:\/\/blog.camera.org\/2007\/10\/"},{"ID":801430996,"Actor1":"ISRAEL","Actor1_Country":"ISR","Actor2":"ISLAMIC","Actor2_Country":null,"Code":194,"Class":4,"Actor1_Location":"Gaza, Israel (general), Israel","Actor2_Location":"Gaza, Israel (general), Israel","Action_Location":"Gaza, Israel (general), Israel","Lat":31.4167,"Long":34.3333,"Timestamp":20181110000000,"Source":"http:\/\/blog.camera.org\/2006\/07\/"},{"ID":801431006,"Actor1":"ISRAEL","Actor1_Country":"ISR","Actor2":"CIVILIAN","Actor2_Country":null,"Code":190,"Class":4,"Actor1_Location":"Gaza, Israel (general), Israel","Actor2_Location":"Gaza, Israel (general), Israel","Action_Location":"Gaza, Israel (general), Israel","Lat":31.4167,"Long":34.3333,"Timestamp":20181110000000,"Source":"http:\/\/blog.camera.org\/2014\/02\/"},{"ID":801431019,"Actor1":"ARMY","Actor1_Country":null,"Actor2":"ISRAEL","Actor2_Country":"ISR","Code":194,"Class":4,"Actor1_Location":"Sderot, HaDarom, Israel","Actor2_Location":"Sderot, HaDarom, Israel","Action_Location":"Los Angeles, California, United States","Lat":34.0522,"Long":-118.244,"Timestamp":20181110000000,"Source":"http:\/\/blog.camera.org\/2008\/01\/"},{"ID":801431020,"Actor1":"ARMY","Actor1_Country":null,"Actor2":"GAZA","Actor2_Country":"PSE","Code":194,"Class":4,"Actor1_Location":"Sderot, HaDarom, Israel","Actor2_Location":"Sderot, HaDarom, Israel","Action_Location":"Sderot, HaDarom, Israel","Lat":31.525,"Long":34.5969,"Timestamp":20181110000000,"Source":"http:\/\/blog.camera.org\/2008\/01\/"},{"ID":801431022,"Actor1":"MUSLIM","Actor1_Country":null,"Actor2":"CHRISTIAN","Actor2_Country":null,"Code":190,"Class":4,"Actor1_Location":"Jerusalem, Israel (general), Israel","Actor2_Location":"Jerusalem, Israel (general), Israel","Action_Location":"Jerusalem, Israel (general), Israel","Lat":31.7667,"Long":35.2333,"Timestamp":20181110000000,"Source":"http:\/\/blog.camera.org\/2016\/07\/"},{"ID":801431023,"Actor1":"MUSLIM","Actor1_Country":null,"Actor2":"CHRISTIAN","Actor2_Country":null,"Code":190,"Class":4,"Actor1_Location":"World Health Organization, Al Qahirah, Egypt","Actor2_Location":"World Health Organization, Al Qahirah, Egypt","Action_Location":"World Health Organization, Al Qahirah, Egypt","Lat":30.0643,"Long":31.3481,"Timestamp":20181110000000,"Source":"http:\/\/blog.camera.org\/2016\/07\/"},{"ID":801431024,"Actor1":"ISLAMIC","Actor1_Country":null,"Actor2":"ISRAEL","Actor2_Country":"ISR","Code":194,"Class":4,"Actor1_Location":"Gaza, Israel (general), Israel","Actor2_Location":"Gaza, Israel (general), Israel","Action_Location":"Gaza, Israel (general), Israel","Lat":31.4167,"Long":34.3333,"Timestamp":20181110000000,"Source":"http:\/\/blog.camera.org\/2006\/07\/"},{"ID":801431026,"Actor1":"PALESTINIAN","Actor1_Country":"PSE","Actor2":"CIVILIAN","Actor2_Country":null,"Code":190,"Class":4,"Actor1_Location":"Gaza, Israel (general), Israel","Actor2_Location":"Gaza, Israel (general), Israel","Action_Location":"Gaza, Israel (general), Israel","Lat":31.4167,"Long":34.3333,"Timestamp":20181110000000,"Source":"http:\/\/blog.camera.org\/2014\/02\/"},{"ID":801431027,"Actor1":"PALESTINIAN","Actor1_Country":"PSE","Actor2":"CIVILIAN","Actor2_Country":null,"Code":190,"Class":4,"Actor1_Location":"New York, United States","Actor2_Location":"Gaza, Israel (general), Israel","Action_Location":"New York, United States","Lat":42.1497,"Long":-74.9384,"Timestamp":20181110000000,"Source":"http:\/\/blog.camera.org\/2014\/02\/"},{"ID":801431029,"Actor1":"WEST BANK","Actor1_Country":"PSE","Actor2":"ISRAEL","Actor2_Country":"ISR","Code":190,"Class":4,"Actor1_Location":"Ramallah, West Bank (general), West Bank","Actor2_Location":"Jerusalem, Israel (general), Israel","Action_Location":"Ramallah, West Bank (general), West Bank","Lat":31.9026,"Long":35.1955,"Timestamp":20181110000000,"Source":"http:\/\/blog.camera.org\/2008\/05\/"},{"ID":801431030,"Actor1":"WEST BANK","Actor1_Country":"PSE","Actor2":"ISRAEL","Actor2_Country":"ISR","Code":173,"Class":4,"Actor1_Location":"Jerusalem, Israel (general), Israel","Actor2_Location":"Jerusalem, Israel (general), Israel","Action_Location":"Jerusalem, Israel (general), Israel","Lat":31.7667,"Long":35.2333,"Timestamp":20181110000000,"Source":"http:\/\/blog.camera.org\/2010\/08\/"},{"ID":801431031,"Actor1":"WEST BANK","Actor1_Country":"PSE","Actor2":"ISRAEL","Actor2_Country":"ISR","Code":173,"Class":4,"Actor1_Location":"Intercontinental Hotel, West Bank (general), West Bank","Actor2_Location":"Jerusalem, Israel (general), Israel","Action_Location":"Jerusalem, Israel (general), Israel","Lat":31.7667,"Long":35.2333,"Timestamp":20181110000000,"Source":"http:\/\/blog.camera.org\/2010\/08\/"},{"ID":801431036,"Actor1":"WEST BANK","Actor1_Country":"PSE","Actor2":"PALESTINIAN","Actor2_Country":"PSE","Code":173,"Class":4,"Actor1_Location":"Intercontinental Hotel, West Bank (general), West Bank","Actor2_Location":"Jerusalem, Israel (general), Israel","Action_Location":"Jerusalem, Israel (general), Israel","Lat":31.7667,"Long":35.2333,"Timestamp":20181110000000,"Source":"http:\/\/blog.camera.org\/2010\/08\/"},{"ID":801431037,"Actor1":"PALESTINIAN","Actor1_Country":"PSE","Actor2":"CIVILIAN","Actor2_Country":null,"Code":190,"Class":4,"Actor1_Location":"Gaza, Israel (general), Israel","Actor2_Location":"Gaza, Israel (general), Israel","Action_Location":"Gaza, Israel (general), Israel","Lat":31.4167,"Long":34.3333,"Timestamp":20181110000000,"Source":"http:\/\/blog.camera.org\/2014\/02\/"},{"ID":801431040,"Actor1":"HAMAS","Actor1_Country":"PSE","Actor2":"SECURITY FORCE","Actor2_Country":null,"Code":193,"Class":4,"Actor1_Location":"Jerusalem, Israel (general), Israel","Actor2_Location":"Jerusalem, Israel (general), Israel","Action_Location":"Jerusalem, Israel (general), Israel","Lat":31.7667,"Long":35.2333,"Timestamp":20181110000000,"Source":"http:\/\/blog.camera.org\/2007\/10\/"},{"ID":801431041,"Actor1":"HAMAS","Actor1_Country":"PSE","Actor2":"SECURITY FORCE","Actor2_Country":null,"Code":193,"Class":4,"Actor1_Location":"Iraq","Actor2_Location":"Iraq","Action_Location":"Iraq","Lat":33.0,"Long":44.0,"Timestamp":20181110000000,"Source":"http:\/\/blog.camera.org\/2007\/10\/"},{"ID":801431087,"Actor1":"ISRAEL","Actor1_Country":"ISR","Actor2":"AGENCE FRANCE PRESS","Actor2_Country":"FRA","Code":190,"Class":4,"Actor1_Location":"Jerusalem, Israel (general), Israel","Actor2_Location":"Jerusalem, Israel (general), Israel","Action_Location":"Jerusalem, Israel (general), Israel","Lat":31.7667,"Long":35.2333,"Timestamp":20181110000000,"Source":"http:\/\/blog.camera.org\/2015\/10\/"},{"ID":801431088,"Actor1":"ISRAEL","Actor1_Country":"ISR","Actor2":"AGENCE FRANCE PRESS","Actor2_Country":"FRA","Code":195,"Class":4,"Actor1_Location":"Jerusalem, Israel (general), Israel","Actor2_Location":"Jerusalem, Israel (general), Israel","Action_Location":"Jerusalem, Israel (general), Israel","Lat":31.7667,"Long":35.2333,"Timestamp":20181110000000,"Source":"http:\/\/blog.camera.org\/2015\/10\/"},{"ID":801431091,"Actor1":"ISRAELI","Actor1_Country":"ISR","Actor2":"PALESTINIAN","Actor2_Country":"PSE","Code":1823,"Class":4,"Actor1_Location":"Tel Aviv, Tel Aviv, Israel","Actor2_Location":"Tel Aviv, Tel Aviv, Israel","Action_Location":"Tel Aviv, Tel Aviv, Israel","Lat":32.0667,"Long":34.7667,"Timestamp":20181110000000,"Source":"http:\/\/blog.camera.org\/2014\/11\/"},{"ID":801431099,"Actor1":"JOURNALIST","Actor1_Country":null,"Actor2":"ATTORNEY","Actor2_Country":null,"Code":1712,"Class":4,"Actor1_Location":"Gaza, Israel (general), Israel","Actor2_Location":"Gaza, Israel (general), Israel","Action_Location":"Gaza, Israel (general), Israel","Lat":31.4167,"Long":34.3333,"Timestamp":20181110000000,"Source":"http:\/\/blog.camera.org\/2008\/03\/"},{"ID":801431105,"Actor1":"ISLAMIC","Actor1_Country":null,"Actor2":"ISRAEL","Actor2_Country":"ISR","Code":190,"Class":4,"Actor1_Location":"Jerusalem, Israel (general), Israel","Actor2_Location":"Jerusalem, Israel (general), Israel","Action_Location":"Jerusalem, Israel (general), Israel","Lat":31.7667,"Long":35.2333,"Timestamp":20181110000000,"Source":"http:\/\/blog.camera.org\/2014\/11\/"},{"ID":801431114,"Actor1":"PALESTINIAN","Actor1_Country":"PSE","Actor2":"ISRAEL","Actor2_Country":"ISR","Code":1823,"Class":4,"Actor1_Location":"Tel Aviv, Tel Aviv, Israel","Actor2_Location":"Tel Aviv, Tel Aviv, Israel","Action_Location":"Tel Aviv, Tel Aviv, Israel","Lat":32.0667,"Long":34.7667,"Timestamp":20181110000000,"Source":"http:\/\/blog.camera.org\/2014\/11\/"},{"ID":801431115,"Actor1":"PALESTINIAN","Actor1_Country":"PSE","Actor2":"ISRAEL","Actor2_Country":"ISR","Code":1823,"Class":4,"Actor1_Location":"New York, United States","Actor2_Location":"New York, United States","Action_Location":"New York, United States","Lat":42.1497,"Long":-74.9384,"Timestamp":20181110000000,"Source":"http:\/\/blog.camera.org\/2014\/11\/"},{"ID":801431116,"Actor1":"GAZA","Actor1_Country":"PSE","Actor2":"ISRAEL","Actor2_Country":"ISR","Code":190,"Class":4,"Actor1_Location":"Silwan, West Bank (general), West Bank","Actor2_Location":"Silwan, West Bank (general), West Bank","Action_Location":"Silwan, West Bank (general), West Bank","Lat":31.7684,"Long":35.2381,"Timestamp":20181110000000,"Source":"http:\/\/blog.camera.org\/2016\/10\/"},{"ID":801431117,"Actor1":"GAZA","Actor1_Country":"PSE","Actor2":"ISRAEL","Actor2_Country":"ISR","Code":190,"Class":4,"Actor1_Location":"Washington, District of Columbia, United States","Actor2_Location":"Washington, District of Columbia, United States","Action_Location":"Washington, District of Columbia, United States","Lat":38.8951,"Long":-77.0364,"Timestamp":20181110000000,"Source":"http:\/\/blog.camera.org\/2009\/06\/"},{"ID":801431118,"Actor1":"PALESTINIAN","Actor1_Country":"PSE","Actor2":"ISRAELI","Actor2_Country":"ISR","Code":193,"Class":4,"Actor1_Location":"Tel Aviv, Tel Aviv, Israel","Actor2_Location":"Tel Aviv, Tel Aviv, Israel","Action_Location":"Tel Aviv, Tel Aviv, Israel","Lat":32.0667,"Long":34.7667,"Timestamp":20181110000000,"Source":"http:\/\/blog.camera.org\/2014\/11\/"},{"ID":801431119,"Actor1":"PALESTINIAN","Actor1_Country":"PSE","Actor2":"ISRAEL","Actor2_Country":"ISR","Code":194,"Class":4,"Actor1_Location":"Ashkelon, HaDarom, Israel","Actor2_Location":"Ashkelon, HaDarom, Israel","Action_Location":"Ashkelon, HaDarom, Israel","Lat":31.6693,"Long":34.5715,"Timestamp":20181110000000,"Source":"http:\/\/blog.camera.org\/2015\/09\/"},{"ID":801431120,"Actor1":"GAZA","Actor1_Country":"PSE","Actor2":"ISRAEL","Actor2_Country":"ISR","Code":194,"Class":4,"Actor1_Location":"Gaza, Israel (general), Israel","Actor2_Location":"Ashkelon, HaDarom, Israel","Action_Location":"Ashkelon, HaDarom, Israel","Lat":31.6693,"Long":34.5715,"Timestamp":20181110000000,"Source":"http:\/\/blog.camera.org\/2015\/09\/"},{"ID":801431121,"Actor1":"GAZA","Actor1_Country":"PSE","Actor2":"ISRAELI","Actor2_Country":"ISR","Code":194,"Class":4,"Actor1_Location":"Gaza, Israel (general), Israel","Actor2_Location":"Gaza, Israel (general), Israel","Action_Location":"Ashkelon, HaDarom, Israel","Lat":31.6693,"Long":34.5715,"Timestamp":20181110000000,"Source":"http:\/\/blog.camera.org\/2015\/09\/"},{"ID":801431122,"Actor1":"GAZA","Actor1_Country":"PSE","Actor2":"ISRAEL","Actor2_Country":"ISR","Code":194,"Class":4,"Actor1_Location":"Gaza, Israel (general), Israel","Actor2_Location":"Gaza, Israel (general), Israel","Action_Location":"Gaza, Israel (general), Israel","Lat":31.4167,"Long":34.3333,"Timestamp":20181110000000,"Source":"http:\/\/blog.camera.org\/2015\/09\/"},{"ID":801431123,"Actor1":"PALESTINIAN","Actor1_Country":"PSE","Actor2":"JERUSALEM","Actor2_Country":"ISR","Code":195,"Class":4,"Actor1_Location":"Jerusalem, Israel (general), Israel","Actor2_Location":"Jerusalem, Israel (general), Israel","Action_Location":"Jerusalem, Israel (general), Israel","Lat":31.7667,"Long":35.2333,"Timestamp":20181110000000,"Source":"http:\/\/blog.camera.org\/2015\/10\/"},{"ID":801431135,"Actor1":"NEW YORK","Actor1_Country":"USA","Actor2":"ISRAEL","Actor2_Country":"ISR","Code":173,"Class":4,"Actor1_Location":"New York, United States","Actor2_Location":"Jerusalem, Israel (general), Israel","Action_Location":"Jerusalem, Israel (general), Israel","Lat":31.7667,"Long":35.2333,"Timestamp":20181110000000,"Source":"http:\/\/blog.camera.org\/2010\/08\/"},{"ID":801431138,"Actor1":"NEW YORK","Actor1_Country":"USA","Actor2":"IMAM","Actor2_Country":null,"Code":173,"Class":4,"Actor1_Location":"New York, United States","Actor2_Location":"Jerusalem, Israel (general), Israel","Action_Location":"Jerusalem, Israel (general), Israel","Lat":31.7667,"Long":35.2333,"Timestamp":20181110000000,"Source":"http:\/\/blog.camera.org\/2010\/08\/"},{"ID":801431144,"Actor1":"NEW YORK","Actor1_Country":"USA","Actor2":"PALESTINIAN","Actor2_Country":"PSE","Code":173,"Class":4,"Actor1_Location":"Amman, (JO11), Jordan","Actor2_Location":"Bedfordshire, United Kingdom (general), United Kingdom","Action_Location":"Bedfordshire, United Kingdom (general), United Kingdom","Lat":52.0,"Long":-0.5,"Timestamp":20181110000000,"Source":"http:\/\/blog.camera.org\/2010\/08\/"},{"ID":801431145,"Actor1":"NEW YORK","Actor1_Country":"USA","Actor2":"PALESTINIAN","Actor2_Country":"PSE","Code":173,"Class":4,"Actor1_Location":"Syria","Actor2_Location":"Lebanon","Action_Location":"Lebanon","Lat":33.833333,"Long":35.833333,"Timestamp":20181110000000,"Source":"http:\/\/blog.camera.org\/2010\/08\/"},{"ID":801431150,"Actor1":"REUTERS","Actor1_Country":"USA","Actor2":"PALESTINIAN","Actor2_Country":"PSE","Code":193,"Class":4,"Actor1_Location":"Jerusalem, Israel (general), Israel","Actor2_Location":"Jerusalem, Israel (general), Israel","Action_Location":"Jerusalem, Israel (general), Israel","Lat":31.7667,"Long":35.2333,"Timestamp":20181110000000,"Source":"http:\/\/blog.camera.org\/2015\/10\/"},{"ID":801431151,"Actor1":"REUTERS","Actor1_Country":"USA","Actor2":"PALESTINIAN","Actor2_Country":"PSE","Code":193,"Class":4,"Actor1_Location":"Gaza City, Israel (general), Israel","Actor2_Location":"Gaza City, Israel (general), Israel","Action_Location":"Gaza City, Israel (general), Israel","Lat":31.4167,"Long":34.3333,"Timestamp":20181110000000,"Source":"http:\/\/blog.camera.org\/2015\/10\/"},{"ID":801432076,"Actor1":"KANDAHAR","Actor1_Country":"AFG","Actor2":"TROOPER","Actor2_Country":null,"Code":190,"Class":4,"Actor1_Location":"London, London, City of, United Kingdom","Actor2_Location":"London, London, City of, United Kingdom","Action_Location":"London, London, City of, United Kingdom","Lat":51.5,"Long":-0.116667,"Timestamp":20181110000000,"Source":"https:\/\/www.cbc.ca\/news\/canada\/london\/new-monument-in-london-commemorates-canadian-soldiers-1.4899806"},{"ID":801432077,"Actor1":"AFGHANISTAN","Actor1_Country":"AFG","Actor2":"CIVILIAN","Actor2_Country":null,"Code":190,"Class":4,"Actor1_Location":"Kunduz, Kondoz, Afghanistan","Actor2_Location":"Kunduz, Kondoz, Afghanistan","Action_Location":"Kunduz, Kondoz, Afghanistan","Lat":36.729,"Long":68.857,"Timestamp":20181110000000,"Source":"http:\/\/blog.camera.org\/2015\/10\/"},{"ID":801432078,"Actor1":"AFGHANISTAN","Actor1_Country":"AFG","Actor2":"CIVILIAN","Actor2_Country":null,"Code":190,"Class":4,"Actor1_Location":"Kunduz, Kondoz, Afghanistan","Actor2_Location":"Jerusalem, Israel (general), Israel","Action_Location":"Jerusalem, Israel (general), Israel","Lat":31.7667,"Long":35.2333,"Timestamp":20181110000000,"Source":"http:\/\/blog.camera.org\/2015\/10\/"},{"ID":801432080,"Actor1":"AFGHANISTAN","Actor1_Country":"AFG","Actor2":"UNITED KINGDOM","Actor2_Country":"GBR","Code":190,"Class":4,"Actor1_Location":"London, London, City of, United Kingdom","Actor2_Location":"London, London, City of, United Kingdom","Action_Location":"London, London, City of, United Kingdom","Lat":51.5,"Long":-0.116667,"Timestamp":20181110000000,"Source":"https:\/\/www.1069thex.com\/2018\/11\/09\/lav-iii-monument\/"},{"ID":801432081,"Actor1":"AFGHANISTAN","Actor1_Country":"AFG","Actor2":"LONDON","Actor2_Country":"GBR","Code":190,"Class":4,"Actor1_Location":"Afghanistan","Actor2_Location":"London, London, City of, United Kingdom","Action_Location":"London, London, City of, United Kingdom","Lat":51.5,"Long":-0.116667,"Timestamp":20181110000000,"Source":"https:\/\/www.1069thex.com\/2018\/11\/09\/lav-iii-monument\/"},{"ID":801432082,"Actor1":"KANDAHAR","Actor1_Country":"AFG","Actor2":"UNITED KINGDOM","Actor2_Country":"GBR","Code":190,"Class":4,"Actor1_Location":"London, London, City of, United Kingdom","Actor2_Location":"London, London, City of, United Kingdom","Action_Location":"London, London, City of, United Kingdom","Lat":51.5,"Long":-0.116667,"Timestamp":20181110000000,"Source":"https:\/\/www.cbc.ca\/news\/canada\/london\/new-monument-in-london-commemorates-canadian-soldiers-1.4899806"},{"ID":801432083,"Actor1":"AFGHANISTAN","Actor1_Country":"AFG","Actor2":"ISRAEL","Actor2_Country":"ISR","Code":190,"Class":4,"Actor1_Location":"Tel Aviv, Tel Aviv, Israel","Actor2_Location":"Somalia","Action_Location":"Cameroon","Lat":6.0,"Long":12.0,"Timestamp":20181110000000,"Source":"http:\/\/blog.camera.org\/2016\/07\/"},{"ID":801432084,"Actor1":"AFGHANISTAN","Actor1_Country":"AFG","Actor2":"ISRAELI","Actor2_Country":"ISR","Code":190,"Class":4,"Actor1_Location":"Afghanistan","Actor2_Location":"Tel Aviv, Tel Aviv, Israel","Action_Location":"Tel Aviv, Tel Aviv, Israel","Lat":32.0667,"Long":34.7667,"Timestamp":20181110000000,"Source":"http:\/\/blog.camera.org\/2016\/07\/"},{"ID":801432085,"Actor1":"AFGHANISTAN","Actor1_Country":"AFG","Actor2":"ISRAEL","Actor2_Country":"ISR","Code":190,"Class":4,"Actor1_Location":"Turkey","Actor2_Location":"Tel Aviv, Tel Aviv, Israel","Action_Location":"Tel Aviv, Tel Aviv, Israel","Lat":32.0667,"Long":34.7667,"Timestamp":20181110000000,"Source":"http:\/\/blog.camera.org\/2016\/07\/"},{"ID":801432093,"Actor1":"AFGHANISTAN","Actor1_Country":"AFG","Actor2":"TURKEY","Actor2_Country":"TUR","Code":190,"Class":4,"Actor1_Location":"Tel Aviv, Tel Aviv, Israel","Actor2_Location":"Tel Aviv, Tel Aviv, Israel","Action_Location":"Tel Aviv, Tel Aviv, Israel","Lat":32.0667,"Long":34.7667,"Timestamp":20181110000000,"Source":"http:\/\/blog.camera.org\/2016\/07\/"},{"ID":801432094,"Actor1":"AFGHANISTAN","Actor1_Country":"AFG","Actor2":"TURKEY","Actor2_Country":"TUR","Code":190,"Class":4,"Actor1_Location":"Afghanistan","Actor2_Location":"Turkey","Action_Location":"Fallujah, Al Anbar, Iraq","Lat":33.3558,"Long":43.7861,"Timestamp":20181110000000,"Source":"http:\/\/blog.camera.org\/2016\/07\/"},{"ID":801432095,"Actor1":"AFGHANISTAN","Actor1_Country":"AFG","Actor2":"TURKEY","Actor2_Country":"TUR","Code":190,"Class":4,"Actor1_Location":"Turkey","Actor2_Location":"Fallujah, Al Anbar, Iraq","Action_Location":"Fallujah, Al Anbar, Iraq","Lat":33.3558,"Long":43.7861,"Timestamp":20181110000000,"Source":"http:\/\/blog.camera.org\/2016\/07\/"},{"ID":801432147,"Actor1":"FARMER","Actor1_Country":null,"Actor2":"MAHARASHTRA","Actor2_Country":"IND","Code":1712,"Class":4,"Actor1_Location":null,"Actor2_Location":null,"Action_Location":null,"Lat":null,"Long":null,"Timestamp":20181110000000,"Source":"https:\/\/www.nyoooz.com\/news\/mumbai\/1251474\/maharashtra-cane-farmers-burn-mill-offices\/"},{"ID":801432185,"Actor1":"AUSTRALIA","Actor1_Country":"AUS","Actor2":"POLICE","Actor2_Country":null,"Code":193,"Class":4,"Actor1_Location":"Melbourne, Victoria, Australia","Actor2_Location":"Melbourne, Victoria, Australia","Action_Location":"Melbourne, Victoria, Australia","Lat":-37.8167,"Long":144.967,"Timestamp":20181110000000,"Source":"http:\/\/news.trust.org\/item\/20181109233823-a1i7n"},{"ID":801432186,"Actor1":"MELBOURNE","Actor1_Country":"AUS","Actor2":"POLICE","Actor2_Country":null,"Code":193,"Class":4,"Actor1_Location":"Melbourne, Victoria, Australia","Actor2_Location":"Werribee, Western Australia, Australia","Action_Location":"Melbourne, Victoria, Australia","Lat":-37.8167,"Long":144.967,"Timestamp":20181110000000,"Source":"http:\/\/news.trust.org\/item\/20181109233823-a1i7n"},{"ID":801432187,"Actor1":"AUSTRALIAN","Actor1_Country":"AUS","Actor2":"PARIS","Actor2_Country":"FRA","Code":172,"Class":4,"Actor1_Location":"Australia","Actor2_Location":"Australia","Action_Location":"Australia","Lat":-25.0,"Long":135.0,"Timestamp":20181110000000,"Source":"https:\/\/hyperallergic.com\/470546\/woman-barred-from-the-louvre-for-her-attire\/"},{"ID":801432228,"Actor1":"AUSTRIAN","Actor1_Country":"AUT","Actor2":"GERMANY","Actor2_Country":"DEU","Code":173,"Class":4,"Actor1_Location":"Vienna, Wien, Austria","Actor2_Location":"Germany","Action_Location":"Vienna, Wien, Austria","Lat":48.2,"Long":16.3667,"Timestamp":20181110000000,"Source":"https:\/\/www.irrigator.com.au\/story\/5750537\/contraptions-to-launch-into-sydney-harbour\/"},{"ID":801432229,"Actor1":"AUSTRIAN","Actor1_Country":"AUT","Actor2":"GERMAN","Actor2_Country":"DEU","Code":173,"Class":4,"Actor1_Location":"Vienna, Wien, Austria","Actor2_Location":"Germany","Action_Location":"Germany","Lat":51.5,"Long":10.5,"Timestamp":20181110000000,"Source":"https:\/\/www.irrigator.com.au\/story\/5750537\/contraptions-to-launch-into-sydney-harbour\/"},{"ID":801432239,"Actor1":"BURUNDI","Actor1_Country":"BDI","Actor2":"CONGOLESE","Actor2_Country":"COD","Code":160,"Class":4,"Actor1_Location":"Burundi","Actor2_Location":"Zambia","Action_Location":"Burundi","Lat":-3.5,"Long":30.0,"Timestamp":20181110000000,"Source":"http:\/\/blog.camera.org\/2012\/06\/"},{"ID":801432240,"Actor1":"BURUNDI","Actor1_Country":"BDI","Actor2":"CONGOLESE","Actor2_Country":"COD","Code":160,"Class":4,"Actor1_Location":"Burundi","Actor2_Location":"Zambia","Action_Location":"Zambia","Lat":-15.0,"Long":30.0,"Timestamp":20181110000000,"Source":"http:\/\/blog.camera.org\/2012\/06\/"},{"ID":801432241,"Actor1":"BURUNDI","Actor1_Country":"BDI","Actor2":"CONGOLESE","Actor2_Country":"COD","Code":160,"Class":4,"Actor1_Location":"Zambia","Actor2_Location":"Angola","Action_Location":"Zambia","Lat":-15.0,"Long":30.0,"Timestamp":20181110000000,"Source":"http:\/\/blog.camera.org\/2012\/06\/"},{"ID":801432248,"Actor1":"BANGLADESH","Actor1_Country":"BGD","Actor2":"ISRAEL","Actor2_Country":"ISR","Code":190,"Class":4,"Actor1_Location":"Tel Aviv, Tel Aviv, Israel","Actor2_Location":"Somalia","Action_Location":"Cameroon","Lat":6.0,"Long":12.0,"Timestamp":20181110000000,"Source":"http:\/\/blog.camera.org\/2016\/07\/"},{"ID":801432249,"Actor1":"BANGLADESH","Actor1_Country":"BGD","Actor2":"ISRAEL","Actor2_Country":"ISR","Code":190,"Class":4,"Actor1_Location":"Afghanistan","Actor2_Location":"Tel Aviv, Tel Aviv, Israel","Action_Location":"Tel Aviv, Tel Aviv, Israel","Lat":32.0667,"Long":34.7667,"Timestamp":20181110000000,"Source":"http:\/\/blog.camera.org\/2016\/07\/"},{"ID":801432250,"Actor1":"BANGLADESH","Actor1_Country":"BGD","Actor2":"ISRAELI","Actor2_Country":"ISR","Code":190,"Class":4,"Actor1_Location":"Bangladesh","Actor2_Location":"Tel Aviv, Tel Aviv, Israel","Action_Location":"Tel Aviv, Tel Aviv, Israel","Lat":32.0667,"Long":34.7667,"Timestamp":20181110000000,"Source":"http:\/\/blog.camera.org\/2016\/07\/"},{"ID":801432253,"Actor1":"BANGLADESH","Actor1_Country":"BGD","Actor2":"TURKEY","Actor2_Country":"TUR","Code":190,"Class":4,"Actor1_Location":"Tel Aviv, Tel Aviv, Israel","Actor2_Location":"Tel Aviv, Tel Aviv, Israel","Action_Location":"Tel Aviv, Tel Aviv, Israel","Lat":32.0667,"Long":34.7667,"Timestamp":20181110000000,"Source":"http:\/\/blog.camera.org\/2016\/07\/"},{"ID":801432254,"Actor1":"BANGLADESH","Actor1_Country":"BGD","Actor2":"TURKEY","Actor2_Country":"TUR","Code":190,"Class":4,"Actor1_Location":"Afghanistan","Actor2_Location":"Fallujah, Al Anbar, Iraq","Action_Location":"Fallujah, Al Anbar, Iraq","Lat":33.3558,"Long":43.7861,"Timestamp":20181110000000,"Source":"http:\/\/blog.camera.org\/2016\/07\/"},{"ID":801432255,"Actor1":"BANGLADESH","Actor1_Country":"BGD","Actor2":"TURKEY","Actor2_Country":"TUR","Code":190,"Class":4,"Actor1_Location":"Bangladesh","Actor2_Location":"Turkey","Action_Location":"Fallujah, Al Anbar, Iraq","Lat":33.3558,"Long":43.7861,"Timestamp":20181110000000,"Source":"http:\/\/blog.camera.org\/2016\/07\/"},{"ID":801432256,"Actor1":"BANGLADESH","Actor1_Country":"BGD","Actor2":"BANGLADESH","Actor2_Country":"BGD","Code":173,"Class":4,"Actor1_Location":"Bangladesh","Actor2_Location":"Bangladesh","Action_Location":"Bangladesh","Lat":24.0,"Long":90.0,"Timestamp":20181110000000,"Source":"http:\/\/blog.camera.org\/2015\/01\/"},{"ID":801432262,"Actor1":"BAHRAIN","Actor1_Country":"BHR","Actor2":"IRAN","Actor2_Country":"IRN","Code":190,"Class":4,"Actor1_Location":"Gaza, Israel (general), Israel","Actor2_Location":"Gaza, Israel (general), Israel","Action_Location":"Gaza, Israel (general), Israel","Lat":31.4167,"Long":34.3333,"Timestamp":20181110000000,"Source":"http:\/\/blog.camera.org\/2016\/01\/"},{"ID":801432263,"Actor1":"BAHRAIN","Actor1_Country":"BHR","Actor2":"IRAN","Actor2_Country":"IRN","Code":190,"Class":4,"Actor1_Location":"Bahrain","Actor2_Location":"Tehran, Tehran, Iran","Action_Location":"Tehran, Tehran, Iran","Lat":35.75,"Long":51.5148,"Timestamp":20181110000000,"Source":"http:\/\/blog.camera.org\/2016\/01\/"},{"ID":801432438,"Actor1":"CANADA","Actor1_Country":"CAN","Actor2":"POLICE","Actor2_Country":null,"Code":180,"Class":4,"Actor1_Location":"North Battleford, Saskatchewan, Canada","Actor2_Location":"North Battleford, Saskatchewan, Canada","Action_Location":"North Battleford, Saskatchewan, Canada","Lat":52.7667,"Long":-108.283,"Timestamp":20181110000000,"Source":"https:\/\/www.melfortjournal.com\/news\/local-news\/macleans-says-cold-lake-one-of-canadas-most-dangerous-cities-rcmp-disagree\/wcm\/4b0aa3d4-eee6-4abe-be11-015f87fb9fb8"},{"ID":801432462,"Actor1":"MCGILL","Actor1_Country":"CAN","Actor2":"PROTESTER","Actor2_Country":null,"Code":174,"Class":4,"Actor1_Location":"Gaza, Israel (general), Israel","Actor2_Location":"Gaza, Israel (general), Israel","Action_Location":"Gaza, Israel (general), Israel","Lat":31.4167,"Long":34.3333,"Timestamp":20181110000000,"Source":"http:\/\/blog.camera.org\/2009\/04\/"},{"ID":801432471,"Actor1":"CANADA","Actor1_Country":"CAN","Actor2":"CANADA","Actor2_Country":"CAN","Code":160,"Class":4,"Actor1_Location":"Ottawa, Ontario, Canada","Actor2_Location":"Ottawa, Ontario, Canada","Action_Location":"Ottawa, Ontario, Canada","Lat":45.4167,"Long":-75.7,"Timestamp":20181110000000,"Source":"http:\/\/www.rcinet.ca\/en\/2018\/11\/09\/trudeau-wont-attend-usmca-signing-while-steel-and-aluminum-tariffs-in-place\/"},{"ID":801432502,"Actor1":"CHINA","Actor1_Country":"CHN","Actor2":"BRUNEI","Actor2_Country":"BRN","Code":160,"Class":4,"Actor1_Location":"Beijing, Beijing, China","Actor2_Location":"Beijing, Beijing, China","Action_Location":"Beijing, Beijing, China","Lat":39.9289,"Long":116.388,"Timestamp":20181110000000,"Source":"https:\/\/www.kalb.com\/content\/news\/US-China-hold-security-talks-amid-trade-tensions-500157811.html"},{"ID":801432526,"Actor1":"CHINA","Actor1_Country":"CHN","Actor2":"ISRAEL","Actor2_Country":"ISR","Code":190,"Class":4,"Actor1_Location":"Jenin, West Bank (general), West Bank","Actor2_Location":"Hebrew University, Yerushalayim, Israel","Action_Location":"Jenin, West Bank (general), West Bank","Lat":32.4594,"Long":35.3009,"Timestamp":20181110000000,"Source":"http:\/\/blog.camera.org\/2011\/04\/"},{"ID":801432528,"Actor1":"CHINA","Actor1_Country":"CHN","Actor2":"JEWISH","Actor2_Country":null,"Code":190,"Class":4,"Actor1_Location":"Khami, Xinjiang, China","Actor2_Location":"Khami, Xinjiang, China","Action_Location":"Khami, Xinjiang, China","Lat":42.8,"Long":93.45,"Timestamp":20181110000000,"Source":"http:\/\/blog.camera.org\/2011\/04\/"},{"ID":801432529,"Actor1":"CHINA","Actor1_Country":"CHN","Actor2":"JEWISH","Actor2_Country":null,"Code":190,"Class":4,"Actor1_Location":"Khami, Xinjiang, China","Actor2_Location":"Hollywood, California, United States","Action_Location":"Hollywood, California, United States","Lat":34.0983,"Long":-118.327,"Timestamp":20181110000000,"Source":"http:\/\/blog.camera.org\/2011\/04\/"},{"ID":801432530,"Actor1":"CHINA","Actor1_Country":"CHN","Actor2":"JEWISH","Actor2_Country":null,"Code":190,"Class":4,"Actor1_Location":"Washington, District of Columbia, United States","Actor2_Location":"Hollywood, California, United States","Action_Location":"Hollywood, California, United States","Lat":34.0983,"Long":-118.327,"Timestamp":20181110000000,"Source":"http:\/\/blog.camera.org\/2011\/04\/"},{"ID":801432535,"Actor1":"CHINA","Actor1_Country":"CHN","Actor2":"NEW ZEALAND","Actor2_Country":"NZL","Code":192,"Class":4,"Actor1_Location":"Beijing, Beijing, China","Actor2_Location":"Panmure, New Zealand (general), New Zealand","Action_Location":"Beijing, Beijing, China","Lat":39.9289,"Long":116.388,"Timestamp":20181110000000,"Source":"https:\/\/www.nzherald.co.nz\/nz\/news\/article.cfm?c_id=1&objectid=12157900"},{"ID":801432536,"Actor1":"CHINA","Actor1_Country":"CHN","Actor2":"NEW ZEALAND","Actor2_Country":"NZL","Code":192,"Class":4,"Actor1_Location":"Beijing, Beijing, China","Actor2_Location":"Beijing, Beijing, China","Action_Location":"Beijing, Beijing, China","Lat":39.9289,"Long":116.388,"Timestamp":20181110000000,"Source":"https:\/\/www.nzherald.co.nz\/nz\/news\/article.cfm?c_id=1&objectid=12157900"},{"ID":801432537,"Actor1":"CHINA","Actor1_Country":"CHN","Actor2":"NEW ZEALAND","Actor2_Country":"NZL","Code":192,"Class":4,"Actor1_Location":"Toronto, Ontario, Canada","Actor2_Location":"Toronto, Ontario, Canada","Action_Location":"Toronto, Ontario, Canada","Lat":43.6667,"Long":-79.4167,"Timestamp":20181110000000,"Source":"https:\/\/www.nzherald.co.nz\/nz\/news\/article.cfm?c_id=1&objectid=12157900"},{"ID":801432545,"Actor1":"CHINA","Actor1_Country":"CHN","Actor2":"GAZA","Actor2_Country":"PSE","Code":190,"Class":4,"Actor1_Location":"Khami, Xinjiang, China","Actor2_Location":"Khami, Xinjiang, China","Action_Location":"Khami, Xinjiang, China","Lat":42.8,"Long":93.45,"Timestamp":20181110000000,"Source":"http:\/\/blog.camera.org\/2011\/04\/"},{"ID":801432546,"Actor1":"CHINA","Actor1_Country":"CHN","Actor2":"GAZA","Actor2_Country":"PSE","Code":190,"Class":4,"Actor1_Location":"Khami, Xinjiang, China","Actor2_Location":"Jerusalem, Israel (general), Israel","Action_Location":"Khami, Xinjiang, China","Lat":42.8,"Long":93.45,"Timestamp":20181110000000,"Source":"http:\/\/blog.camera.org\/2011\/04\/"},{"ID":801432563,"Actor1":"CHINA","Actor1_Country":"CHN","Actor2":"THE US","Actor2_Country":"USA","Code":190,"Class":4,"Actor1_Location":"Beijing, Beijing, China","Actor2_Location":"Beijing, Beijing, China","Action_Location":"Beijing, Beijing, China","Lat":39.9289,"Long":116.388,"Timestamp":20181110000000,"Source":"https:\/\/www.newsheads.in\/latest-news\/sources\/us-denies-pursuing-cold-war-with-china-article-45943"},{"ID":801432564,"Actor1":"CHINA","Actor1_Country":"CHN","Actor2":"THE US","Actor2_Country":"USA","Code":190,"Class":4,"Actor1_Location":"Beijing, Beijing, China","Actor2_Location":"Beijing, Beijing, China","Action_Location":"North Korea","Lat":40.0,"Long":127.0,"Timestamp":20181110000000,"Source":"https:\/\/www.newsheads.in\/latest-news\/sources\/us-denies-pursuing-cold-war-with-china-article-45943"},{"ID":801432601,"Actor1":"CHRISTIAN","Actor1_Country":null,"Actor2":"EGYPTIAN","Actor2_Country":"EGY","Code":173,"Class":4,"Actor1_Location":"Nile River, Egypt (general), Egypt","Actor2_Location":"Nile River, Egypt (general), Egypt","Action_Location":"Nile River, Egypt (general), Egypt","Lat":30.1667,"Long":31.1,"Timestamp":20181110000000,"Source":"http:\/\/blog.camera.org\/2011\/10\/"},{"ID":801432602,"Actor1":"CHRISTIAN","Actor1_Country":null,"Actor2":"EGYPT","Actor2_Country":"EGY","Code":173,"Class":4,"Actor1_Location":"Nile River, Egypt (general), Egypt","Actor2_Location":"Gaza, Israel (general), Israel","Action_Location":"Gaza, Israel (general), Israel","Lat":31.4167,"Long":34.3333,"Timestamp":20181110000000,"Source":"http:\/\/blog.camera.org\/2011\/10\/"},{"ID":801432615,"Actor1":"CHRISTIAN","Actor1_Country":null,"Actor2":"ISRAELI","Actor2_Country":"ISR","Code":194,"Class":4,"Actor1_Location":"Gaza, Israel (general), Israel","Actor2_Location":"Gaza, Israel (general), Israel","Action_Location":"Gaza, Israel (general), Israel","Lat":31.4167,"Long":34.3333,"Timestamp":20181110000000,"Source":"http:\/\/blog.camera.org\/2006\/07\/"},{"ID":801432616,"Actor1":"CHRISTIAN","Actor1_Country":null,"Actor2":"ISRAEL","Actor2_Country":"ISR","Code":194,"Class":4,"Actor1_Location":"Ain Ebel, Nabat\u00ee, Lebanon","Actor2_Location":"Gaza, Israel (general), Israel","Action_Location":"Gaza, Israel (general), Israel","Lat":31.4167,"Long":34.3333,"Timestamp":20181110000000,"Source":"http:\/\/blog.camera.org\/2006\/07\/"},{"ID":801432618,"Actor1":"CHRISTIAN","Actor1_Country":null,"Actor2":"LIBYA","Actor2_Country":"LBY","Code":190,"Class":4,"Actor1_Location":"Gaza, Israel (general), Israel","Actor2_Location":"Gaza, Israel (general), Israel","Action_Location":"Gaza, Israel (general), Israel","Lat":31.4167,"Long":34.3333,"Timestamp":20181110000000,"Source":"http:\/\/blog.camera.org\/2014\/02\/"},{"ID":801432619,"Actor1":"CHRISTIAN","Actor1_Country":null,"Actor2":"LIBYA","Actor2_Country":"LBY","Code":190,"Class":4,"Actor1_Location":"Libya","Actor2_Location":"Libya","Action_Location":"Libya","Lat":25.0,"Long":17.0,"Timestamp":20181110000000,"Source":"http:\/\/blog.camera.org\/2014\/02\/"},{"ID":801432620,"Actor1":"CHRISTIAN","Actor1_Country":null,"Actor2":"MUSLIM","Actor2_Country":null,"Code":173,"Class":4,"Actor1_Location":"Ramallah, West Bank (general), West Bank","Actor2_Location":"Ramallah, West Bank (general), West Bank","Action_Location":"Ramallah, West Bank (general), West Bank","Lat":31.9026,"Long":35.1955,"Timestamp":20181110000000,"Source":"http:\/\/blog.camera.org\/2006\/10\/"},{"ID":801432621,"Actor1":"CHRISTIAN","Actor1_Country":null,"Actor2":"MUSLIM","Actor2_Country":null,"Code":173,"Class":4,"Actor1_Location":"Jerusalem, Israel (general), Israel","Actor2_Location":"Jerusalem, Israel (general), Israel","Action_Location":"Jerusalem, Israel (general), Israel","Lat":31.7667,"Long":35.2333,"Timestamp":20181110000000,"Source":"http:\/\/blog.camera.org\/2006\/10\/"},{"ID":801432682,"Actor1":"CAMEROON","Actor1_Country":"CMR","Actor2":"ISRAEL","Actor2_Country":"ISR","Code":190,"Class":4,"Actor1_Location":"Fallujah, Al Anbar, Iraq","Actor2_Location":"Somalia","Action_Location":"Cameroon","Lat":6.0,"Long":12.0,"Timestamp":20181110000000,"Source":"http:\/\/blog.camera.org\/2016\/07\/"},{"ID":801432683,"Actor1":"CAMEROON","Actor1_Country":"CMR","Actor2":"ISRAELI","Actor2_Country":"ISR","Code":190,"Class":4,"Actor1_Location":"Cameroon","Actor2_Location":"Tel Aviv, Tel Aviv, Israel","Action_Location":"Tel Aviv, Tel Aviv, Israel","Lat":32.0667,"Long":34.7667,"Timestamp":20181110000000,"Source":"http:\/\/blog.camera.org\/2016\/07\/"},{"ID":801432684,"Actor1":"CAMEROON","Actor1_Country":"CMR","Actor2":"ISRAEL","Actor2_Country":"ISR","Code":190,"Class":4,"Actor1_Location":"Somalia","Actor2_Location":"Tel Aviv, Tel Aviv, Israel","Action_Location":"Tel Aviv, Tel Aviv, Israel","Lat":32.0667,"Long":34.7667,"Timestamp":20181110000000,"Source":"http:\/\/blog.camera.org\/2016\/07\/"},{"ID":801432685,"Actor1":"CAMEROON","Actor1_Country":"CMR","Actor2":"TURKEY","Actor2_Country":"TUR","Code":190,"Class":4,"Actor1_Location":"Fallujah, Al Anbar, Iraq","Actor2_Location":"Tel Aviv, Tel Aviv, Israel","Action_Location":"Tel Aviv, Tel Aviv, Israel","Lat":32.0667,"Long":34.7667,"Timestamp":20181110000000,"Source":"http:\/\/blog.camera.org\/2016\/07\/"},{"ID":801432686,"Actor1":"CAMEROON","Actor1_Country":"CMR","Actor2":"TURKEY","Actor2_Country":"TUR","Code":190,"Class":4,"Actor1_Location":"Cameroon","Actor2_Location":"Turkey","Action_Location":"Fallujah, Al Anbar, Iraq","Lat":33.3558,"Long":43.7861,"Timestamp":20181110000000,"Source":"http:\/\/blog.camera.org\/2016\/07\/"},{"ID":801432687,"Actor1":"CAMEROON","Actor1_Country":"CMR","Actor2":"TURKEY","Actor2_Country":"TUR","Code":190,"Class":4,"Actor1_Location":"Somalia","Actor2_Location":"Fallujah, Al Anbar, Iraq","Action_Location":"Fallujah, Al Anbar, Iraq","Lat":33.3558,"Long":43.7861,"Timestamp":20181110000000,"Source":"http:\/\/blog.camera.org\/2016\/07\/"},{"ID":801432797,"Actor1":"PRISON","Actor1_Country":null,"Actor2":"SWISS","Actor2_Country":"CHE","Code":173,"Class":4,"Actor1_Location":"Switzerland","Actor2_Location":"Switzerland","Action_Location":"Switzerland","Lat":47.0,"Long":8.0,"Timestamp":20181110000000,"Source":"http:\/\/www.live5news.com\/2018\/11\/09\/imelda-marcos-convicted-graft-court-orders-her-arrest\/"},{"ID":801432802,"Actor1":"POLICE","Actor1_Country":null,"Actor2":"DRUG MULE","Actor2_Country":null,"Code":173,"Class":4,"Actor1_Location":"Gravesend, Kent, United Kingdom","Actor2_Location":"Gravesend, Kent, United Kingdom","Action_Location":"Gravesend, Kent, United Kingdom","Lat":51.4333,"Long":0.366667,"Timestamp":20181110000000,"Source":"https:\/\/www.dailymail.co.uk\/news\/article-6373695\/The-teenage-slavemasters-landmark-case-17-year-olds-accused-grooming-girls-drug-mules.html"},{"ID":801432803,"Actor1":"POLICE OFFICER","Actor1_Country":null,"Actor2":"ASSAILANT","Actor2_Country":null,"Code":193,"Class":4,"Actor1_Location":"Jerusalem, Israel (general), Israel","Actor2_Location":"Jerusalem, Israel (general), Israel","Action_Location":"Jerusalem, Israel (general), Israel","Lat":31.7667,"Long":35.2333,"Timestamp":20181110000000,"Source":"http:\/\/blog.camera.org\/2015\/10\/"},{"ID":801432804,"Actor1":"POLICE OFFICER","Actor1_Country":null,"Actor2":"ASSAILANT","Actor2_Country":null,"Code":193,"Class":4,"Actor1_Location":"United Kingdom","Actor2_Location":"Jerusalem, Israel (general), Israel","Action_Location":"Jerusalem, Israel (general), Israel","Lat":31.7667,"Long":35.2333,"Timestamp":20181110000000,"Source":"http:\/\/blog.camera.org\/2015\/10\/"},{"ID":801432805,"Actor1":"POLICE OFFICER","Actor1_Country":null,"Actor2":"ASSAILANT","Actor2_Country":null,"Code":193,"Class":4,"Actor1_Location":"United Kingdom","Actor2_Location":"United Kingdom","Action_Location":"Jerusalem, Israel (general), Israel","Lat":31.7667,"Long":35.2333,"Timestamp":20181110000000,"Source":"http:\/\/blog.camera.org\/2015\/10\/"},{"ID":801432806,"Actor1":"POLICE OFFICER","Actor1_Country":null,"Actor2":"ASSAILANT","Actor2_Country":null,"Code":193,"Class":4,"Actor1_Location":"United Kingdom","Actor2_Location":"United Kingdom","Action_Location":"United Kingdom","Lat":54.0,"Long":-4.0,"Timestamp":20181110000000,"Source":"http:\/\/blog.camera.org\/2015\/10\/"},{"ID":801432808,"Actor1":"POLICE","Actor1_Country":null,"Actor2":"CIVILIAN","Actor2_Country":null,"Code":193,"Class":4,"Actor1_Location":"Melbourne, Victoria, Australia","Actor2_Location":"Melbourne, Victoria, Australia","Action_Location":"Melbourne, Victoria, Australia","Lat":-37.8167,"Long":144.967,"Timestamp":20181110000000,"Source":"https:\/\/www.theherald.com.au\/story\/5750489\/melb-terrorist-planned-explosion-police\/"},{"ID":801432809,"Actor1":"POLICE","Actor1_Country":null,"Actor2":"CIVILIAN","Actor2_Country":null,"Code":193,"Class":4,"Actor1_Location":"Werribee, Western Australia, Australia","Actor2_Location":"Werribee, Western Australia, Australia","Action_Location":"Werribee, Western Australia, Australia","Lat":-31.7667,"Long":116.35,"Timestamp":20181110000000,"Source":"https:\/\/www.theherald.com.au\/story\/5750489\/melb-terrorist-planned-explosion-police\/"},{"ID":801432811,"Actor1":"POLICE","Actor1_Country":null,"Actor2":"ALGERIA","Actor2_Country":"DZA","Code":173,"Class":4,"Actor1_Location":"Algiers, Alger, Algeria","Actor2_Location":"Algiers, Alger, Algeria","Action_Location":"Algiers, Alger, Algeria","Lat":36.7631,"Long":3.05056,"Timestamp":20181110000000,"Source":"http:\/\/humanitariannews.org\/20181110\/algerian-tv-network-director-files-defamation-case-against-independent-journalists"},{"ID":801432812,"Actor1":"POLICE","Actor1_Country":null,"Actor2":"ALGERIA","Actor2_Country":"DZA","Code":175,"Class":4,"Actor1_Location":"Algiers, Alger, Algeria","Actor2_Location":"Algiers, Alger, Algeria","Action_Location":"Algiers, Alger, Algeria","Lat":36.7631,"Long":3.05056,"Timestamp":20181110000000,"Source":"http:\/\/humanitariannews.org\/20181110\/algerian-tv-network-director-files-defamation-case-against-independent-journalists"},{"ID":801432814,"Actor1":"POLICE","Actor1_Country":null,"Actor2":"STUDENT","Actor2_Country":null,"Code":173,"Class":4,"Actor1_Location":"Ghana","Actor2_Location":"Ghana","Action_Location":"Ghana","Lat":8.0,"Long":-2.0,"Timestamp":20181110000000,"Source":"https:\/\/yen.com.gh\/118509-taxi-driver-allegedly-killed-wass-student-arrested-by-police.html"},{"ID":801432815,"Actor1":"POLICE","Actor1_Country":null,"Actor2":"SCHOOL","Actor2_Country":null,"Code":193,"Class":4,"Actor1_Location":null,"Actor2_Location":null,"Action_Location":null,"Lat":null,"Long":null,"Timestamp":20181110000000,"Source":"https:\/\/wtvr.com\/2018\/11\/09\/lakeview-avenue-homicide\/"},{"ID":801432822,"Actor1":"POLICE","Actor1_Country":null,"Actor2":"HOSPITAL","Actor2_Country":null,"Code":193,"Class":4,"Actor1_Location":"Melbourne, Victoria, Australia","Actor2_Location":"Melbourne, Victoria, Australia","Action_Location":"Melbourne, Victoria, Australia","Lat":-37.8167,"Long":144.967,"Timestamp":20181110000000,"Source":"https:\/\/www.centraltelegraph.com.au\/news\/car-on-fire-in-melbournes-bourke-st-mall\/3571803\/"},{"ID":801432823,"Actor1":"POLICE","Actor1_Country":null,"Actor2":"HOSPITAL","Actor2_Country":null,"Code":193,"Class":4,"Actor1_Location":"Federation Square, New South Wales, Australia","Actor2_Location":"Federation Square, New South Wales, Australia","Action_Location":"Federation Square, New South Wales, Australia","Lat":-32.9985,"Long":150.001,"Timestamp":20181110000000,"Source":"https:\/\/www.centraltelegraph.com.au\/news\/car-on-fire-in-melbournes-bourke-st-mall\/3571803\/"},{"ID":801432829,"Actor1":"POLICE","Actor1_Country":null,"Actor2":"JEWISH","Actor2_Country":null,"Code":172,"Class":4,"Actor1_Location":"France","Actor2_Location":"France","Action_Location":"France","Lat":46.0,"Long":2.0,"Timestamp":20181110000000,"Source":"https:\/\/japantoday.com\/category\/world\/update-2-merkel-marks-nazi-kristallnacht-against-jews-with-synagogue-speech"},{"ID":801432831,"Actor1":"PRISON","Actor1_Country":null,"Actor2":"JUDGE","Actor2_Country":null,"Code":173,"Class":4,"Actor1_Location":null,"Actor2_Location":null,"Action_Location":null,"Lat":null,"Long":null,"Timestamp":20181110000000,"Source":"https:\/\/foxillinois.com\/news\/local\/tolono-man-sentenced-for-sexual-exploitation-of-children"},{"ID":801432835,"Actor1":"POLICE","Actor1_Country":null,"Actor2":"EDITOR IN CHIEF","Actor2_Country":null,"Code":173,"Class":4,"Actor1_Location":"Algiers, Alger, Algeria","Actor2_Location":"Algiers, Alger, Algeria","Action_Location":"Algiers, Alger, Algeria","Lat":36.7631,"Long":3.05056,"Timestamp":20181110000000,"Source":"http:\/\/humanitariannews.org\/20181110\/algerian-tv-network-director-files-defamation-case-against-independent-journalists"},{"ID":801432836,"Actor1":"POLICE","Actor1_Country":null,"Actor2":"NEWS OUTLET","Actor2_Country":null,"Code":173,"Class":4,"Actor1_Location":"Ayden Middle School, North Carolina, United States","Actor2_Location":"Ayden Middle School, North Carolina, United States","Action_Location":"Ayden Middle School, North Carolina, United States","Lat":35.4752,"Long":-77.4318,"Timestamp":20181110000000,"Source":"https:\/\/foxillinois.com\/news\/nation-world\/police-sixth-grader-pokes-students-with-needle-charged"},{"ID":801432837,"Actor1":"POLICE","Actor1_Country":null,"Actor2":"EDITOR IN CHIEF","Actor2_Country":null,"Code":175,"Class":4,"Actor1_Location":"Algiers, Alger, Algeria","Actor2_Location":"Algiers, Alger, Algeria","Action_Location":"Algiers, Alger, Algeria","Lat":36.7631,"Long":3.05056,"Timestamp":20181110000000,"Source":"http:\/\/humanitariannews.org\/20181110\/algerian-tv-network-director-files-defamation-case-against-independent-journalists"},{"ID":801432838,"Actor1":"POLICE","Actor1_Country":null,"Actor2":"NEWS OUTLET","Actor2_Country":null,"Code":180,"Class":4,"Actor1_Location":"Ayden Middle School, North Carolina, United States","Actor2_Location":"Ayden Middle School, North Carolina, United States","Action_Location":"Ayden Middle School, North Carolina, United States","Lat":35.4752,"Long":-77.4318,"Timestamp":20181110000000,"Source":"https:\/\/foxillinois.com\/news\/nation-world\/police-sixth-grader-pokes-students-with-needle-charged"},{"ID":801432846,"Actor1":"POLICE","Actor1_Country":null,"Actor2":"WEST BANK","Actor2_Country":"PSE","Code":1712,"Class":4,"Actor1_Location":"Bethlehem, West Bank (general), West Bank","Actor2_Location":"Bethlehem, West Bank (general), West Bank","Action_Location":"Bethlehem, West Bank (general), West Bank","Lat":31.7049,"Long":35.2038,"Timestamp":20181110000000,"Source":"http:\/\/blog.camera.org\/2014\/05\/"},{"ID":801432847,"Actor1":"POLICE","Actor1_Country":null,"Actor2":"WEST BANK","Actor2_Country":"PSE","Code":1712,"Class":4,"Actor1_Location":"Bethlehem, West Bank (general), West Bank","Actor2_Location":"Bethlehem, West Bank (general), West Bank","Action_Location":"Bethlehem, West Bank (general), West Bank","Lat":31.7049,"Long":35.2038,"Timestamp":20181110000000,"Source":"http:\/\/blog.camera.org\/2014\/05\/"},{"ID":801432848,"Actor1":"POLICE","Actor1_Country":null,"Actor2":"PALESTINIAN","Actor2_Country":"PSE","Code":1712,"Class":4,"Actor1_Location":"Jerusalem, Israel (general), Israel","Actor2_Location":"Jerusalem, Israel (general), Israel","Action_Location":"Jerusalem, Israel (general), Israel","Lat":31.7667,"Long":35.2333,"Timestamp":20181110000000,"Source":"http:\/\/blog.camera.org\/2014\/05\/"},{"ID":801432849,"Actor1":"POLICE","Actor1_Country":null,"Actor2":"HAMAS","Actor2_Country":"PSE","Code":190,"Class":4,"Actor1_Location":"The Goldstone, Northumberland, United Kingdom","Actor2_Location":"Gaza, Israel (general), Israel","Action_Location":"Gaza, Israel (general), Israel","Lat":31.4167,"Long":34.3333,"Timestamp":20181110000000,"Source":"http:\/\/blog.camera.org\/2010\/10\/"},{"ID":801432850,"Actor1":"POLICE","Actor1_Country":null,"Actor2":"HAMAS","Actor2_Country":"PSE","Code":190,"Class":4,"Actor1_Location":"Gaza, Israel (general), Israel","Actor2_Location":"Gaza, Israel (general), Israel","Action_Location":"Gaza, Israel (general), Israel","Lat":31.4167,"Long":34.3333,"Timestamp":20181110000000,"Source":"http:\/\/blog.camera.org\/2010\/10\/"},{"ID":801432853,"Actor1":"DEPUTY","Actor1_Country":null,"Actor2":"THAILAND","Actor2_Country":"THA","Code":173,"Class":4,"Actor1_Location":"Bangkok, Krung Thep Mahanakhon, Thailand","Actor2_Location":"Bangkok, Krung Thep Mahanakhon, Thailand","Action_Location":"Bangkok, Krung Thep Mahanakhon, Thailand","Lat":13.75,"Long":100.517,"Timestamp":20181110000000,"Source":"https:\/\/nextshark.com\/hiv-thailand-teen-boys\/"},{"ID":801432856,"Actor1":"SECURITY FORCE","Actor1_Country":null,"Actor2":"TERRORIST","Actor2_Country":null,"Code":190,"Class":4,"Actor1_Location":null,"Actor2_Location":null,"Action_Location":null,"Lat":null,"Long":null,"Timestamp":20181110000000,"Source":"https:\/\/news.biharprabha.com\/2018\/11\/tral-encounter-one-jem-terrorist-killed-in-encounter-informs-sp-pani\/"},{"ID":801432870,"Actor1":"POLICE","Actor1_Country":null,"Actor2":"UNITED STATES","Actor2_Country":"USA","Code":173,"Class":4,"Actor1_Location":"Clarksville, Tennessee, United States","Actor2_Location":"Clarksville, Tennessee, United States","Action_Location":"Clarksville, Tennessee, United States","Lat":36.5298,"Long":-87.3595,"Timestamp":20181110000000,"Source":"https:\/\/abc6onyourside.com\/news\/nation-world\/man-escapes-failed-human-sacrifice-to-santa-muerte-in-tennessee-mobile-home"},{"ID":801432871,"Actor1":"POLICE","Actor1_Country":null,"Actor2":"UNITED STATES","Actor2_Country":"USA","Code":173,"Class":4,"Actor1_Location":"Southington, Connecticut, United States","Actor2_Location":"Southington, Connecticut, United States","Action_Location":"Southington, Connecticut, United States","Lat":41.5965,"Long":-72.8776,"Timestamp":20181110000000,"Source":"http:\/\/southingtonobserver.com\/2018\/11\/09\/local-man-arrested-for-threats-of-gun-violence\/"},{"ID":801432872,"Actor1":"POLICE","Actor1_Country":null,"Actor2":"UNITED STATES","Actor2_Country":"USA","Code":173,"Class":4,"Actor1_Location":"Connecticut, United States","Actor2_Location":"Connecticut, United States","Action_Location":"Connecticut, United States","Lat":41.5834,"Long":-72.7622,"Timestamp":20181110000000,"Source":"http:\/\/southingtonobserver.com\/2018\/11\/09\/local-man-arrested-for-threats-of-gun-violence\/"},{"ID":801432873,"Actor1":"POLICE","Actor1_Country":null,"Actor2":"UNITED STATES","Actor2_Country":"USA","Code":173,"Class":4,"Actor1_Location":"Hungary","Actor2_Location":"Ohio, United States","Action_Location":"Hungary","Lat":47.0,"Long":20.0,"Timestamp":20181110000000,"Source":"http:\/\/www.teammyrtlebeach.com\/news\/four-indicted-in-cardless-atm-bank-fraud-scheme-for-bilking-fifth-third-out-of-106k\/"},{"ID":801432874,"Actor1":"DETECTIVE","Actor1_Country":null,"Actor2":"UNITED STATES","Actor2_Country":"USA","Code":173,"Class":4,"Actor1_Location":"Louisiana, United States","Actor2_Location":"Louisiana, United States","Action_Location":"Louisiana, United States","Lat":31.1801,"Long":-91.8749,"Timestamp":20181110000000,"Source":"https:\/\/www.kalb.com\/content\/news\/Man-arrested-for-contractor-fraud-after-complaints-from-Forest-Hill-500167261.html"},{"ID":801432875,"Actor1":"POLICE","Actor1_Country":null,"Actor2":"UNITED STATES","Actor2_Country":"USA","Code":173,"Class":4,"Actor1_Location":"Ohio, United States","Actor2_Location":"Ohio, United States","Action_Location":"Ohio, United States","Lat":40.3736,"Long":-82.7755,"Timestamp":20181110000000,"Source":"http:\/\/www.teammyrtlebeach.com\/news\/four-indicted-in-cardless-atm-bank-fraud-scheme-for-bilking-fifth-third-out-of-106k\/"},{"ID":801432876,"Actor1":"POLICE","Actor1_Country":null,"Actor2":"VERMONT","Actor2_Country":"USA","Code":173,"Class":4,"Actor1_Location":"Vermont, United States","Actor2_Location":"Vermont, United States","Action_Location":"Vermont, United States","Lat":44.0407,"Long":-72.7093,"Timestamp":20181110000000,"Source":"https:\/\/dailygazette.com\/article\/2018\/11\/09\/state-police-apprehend-two-women-after-chaotic-northway-chase"},{"ID":801432877,"Actor1":"POLICE","Actor1_Country":null,"Actor2":"FRESNO","Actor2_Country":"USA","Code":193,"Class":4,"Actor1_Location":"Clovis Community Medical Center, California, United States","Actor2_Location":"Clovis Community Medical Center, California, United States","Action_Location":"Clovis Community Medical Center, California, United States","Lat":36.8391,"Long":-119.66,"Timestamp":20181110000000,"Source":"https:\/\/www.yourcentralvalley.com\/crime\/police-investigate-after-victim-shot-in-central-fresno\/1584190646"},{"ID":801432878,"Actor1":"POLICE OFFICER","Actor1_Country":null,"Actor2":"UNITED STATES","Actor2_Country":"USA","Code":193,"Class":4,"Actor1_Location":"Camden Police Department, Arkansas, United States","Actor2_Location":"Arkansas, United States","Action_Location":"Camden Police Department, Arkansas, United States","Lat":33.5769,"Long":-92.8346,"Timestamp":20181110000000,"Source":"https:\/\/5newsonline.com\/2018\/11\/09\/south-arkansas-police-officers-toddler-fatally-shoots-self\/"},{"ID":801432879,"Actor1":"POLICE","Actor1_Country":null,"Actor2":"UNITED STATES","Actor2_Country":"USA","Code":193,"Class":4,"Actor1_Location":"Ventura County, California, United States","Actor2_Location":"Ventura County, California, United States","Action_Location":"Ventura County, California, United States","Lat":34.4667,"Long":-119.018,"Timestamp":20181110000000,"Source":"http:\/\/www.latimes.com\/politics\/essential\/la-lb-803-49422-la-me-pol-midterm-california-ballots-20181109-htmlstory.html"},{"ID":801432881,"Actor1":"POLICE","Actor1_Country":null,"Actor2":"SIOUX","Actor2_Country":null,"Code":173,"Class":4,"Actor1_Location":null,"Actor2_Location":null,"Action_Location":null,"Lat":null,"Long":null,"Timestamp":20181110000000,"Source":"https:\/\/kelofm.com\/news\/articles\/2018\/nov\/09\/woman-stabs-clerk-over-box-of-chicken-threatens-police-with-knife\/"},{"ID":801432918,"Actor1":"ASSAILANT","Actor1_Country":null,"Actor2":"EGYPT","Actor2_Country":"EGY","Code":193,"Class":4,"Actor1_Location":"Alexandria, Al Iskandariyah, Egypt","Actor2_Location":"Alexandria, Al Iskandariyah, Egypt","Action_Location":"Alexandria, Al Iskandariyah, Egypt","Lat":31.1981,"Long":29.9192,"Timestamp":20181110000000,"Source":"http:\/\/blog.camera.org\/2011\/01\/"},{"ID":801432919,"Actor1":"ASSAILANT","Actor1_Country":null,"Actor2":"EGYPT","Actor2_Country":"EGY","Code":193,"Class":4,"Actor1_Location":"Minya, Al Minya, Egypt","Actor2_Location":"Minya, Al Minya, Egypt","Action_Location":"Minya, Al Minya, Egypt","Lat":28.1099,"Long":30.7503,"Timestamp":20181110000000,"Source":"http:\/\/blog.camera.org\/2011\/01\/"},{"ID":801432921,"Actor1":"MISCREANT","Actor1_Country":null,"Actor2":"RULING PARTY","Actor2_Country":null,"Code":193,"Class":4,"Actor1_Location":"Kolkata, West Bengal, India","Actor2_Location":"Kolkata, West Bengal, India","Action_Location":"Kolkata, West Bengal, India","Lat":22.5697,"Long":88.3697,"Timestamp":20181110000000,"Source":"https:\/\/indianexpress.com\/article\/cities\/kolkata\/the-ruling-party-leader-was-shot-at-on-wednesday-blame-game-begins-after-tmc-leader-dies-5439965\/"},{"ID":801432922,"Actor1":"MISCREANT","Actor1_Country":null,"Actor2":"RULING PARTY","Actor2_Country":null,"Code":193,"Class":4,"Actor1_Location":"Purulia, West Bengal, India","Actor2_Location":"Purulia, West Bengal, India","Action_Location":"Purulia, West Bengal, India","Lat":23.3333,"Long":86.3667,"Timestamp":20181110000000,"Source":"https:\/\/indianexpress.com\/article\/cities\/kolkata\/the-ruling-party-leader-was-shot-at-on-wednesday-blame-game-begins-after-tmc-leader-dies-5439965\/"},{"ID":801432929,"Actor1":"ASSAILANT","Actor1_Country":null,"Actor2":"ISRAELI","Actor2_Country":"ISR","Code":190,"Class":4,"Actor1_Location":"Jerusalem, Israel (general), Israel","Actor2_Location":"Jerusalem, Israel (general), Israel","Action_Location":"Jerusalem, Israel (general), Israel","Lat":31.7667,"Long":35.2333,"Timestamp":20181110000000,"Source":"http:\/\/blog.camera.org\/2015\/10\/"},{"ID":801432930,"Actor1":"ASSAILANT","Actor1_Country":null,"Actor2":"ISRAELI","Actor2_Country":"ISR","Code":190,"Class":4,"Actor1_Location":"United Kingdom","Actor2_Location":"United Kingdom","Action_Location":"United Kingdom","Lat":54.0,"Long":-4.0,"Timestamp":20181110000000,"Source":"http:\/\/blog.camera.org\/2015\/10\/"},{"ID":801432931,"Actor1":"PERPETRATOR","Actor1_Country":null,"Actor2":"ISRAELI","Actor2_Country":"ISR","Code":193,"Class":4,"Actor1_Location":"Hebron, Israel (general), Israel","Actor2_Location":"Hebron, Israel (general), Israel","Action_Location":"Hebron, Israel (general), Israel","Lat":31.5333,"Long":35.1,"Timestamp":20181110000000,"Source":"http:\/\/blog.camera.org\/2015\/10\/"},{"ID":801432932,"Actor1":"PERPETRATOR","Actor1_Country":null,"Actor2":"ISRAELI","Actor2_Country":"ISR","Code":193,"Class":4,"Actor1_Location":"Jerusalem, Israel (general), Israel","Actor2_Location":"Jerusalem, Israel (general), Israel","Action_Location":"Jerusalem, Israel (general), Israel","Lat":31.7667,"Long":35.2333,"Timestamp":20181110000000,"Source":"http:\/\/blog.camera.org\/2015\/10\/"},{"ID":801432933,"Actor1":"ASSAILANT","Actor1_Country":null,"Actor2":"ISRAELI","Actor2_Country":"ISR","Code":193,"Class":4,"Actor1_Location":"Gaza, Israel (general), Israel","Actor2_Location":"Gaza, Israel (general), Israel","Action_Location":"Gaza, Israel (general), Israel","Lat":31.4167,"Long":34.3333,"Timestamp":20181110000000,"Source":"http:\/\/blog.camera.org\/2017\/02\/"},{"ID":801432935,"Actor1":"KIDNAPPER","Actor1_Country":null,"Actor2":"AMMAN","Actor2_Country":"JOR","Code":1831,"Class":4,"Actor1_Location":"Amman, (JO11), Jordan","Actor2_Location":"Amman, (JO11), Jordan","Action_Location":"Amman, (JO11), Jordan","Lat":31.95,"Long":35.9333,"Timestamp":20181110000000,"Source":"http:\/\/blog.camera.org\/2007\/05\/"},{"ID":801432946,"Actor1":"PERPETRATOR","Actor1_Country":null,"Actor2":"PALESTINIAN","Actor2_Country":"PSE","Code":193,"Class":4,"Actor1_Location":"Hebron, Israel (general), Israel","Actor2_Location":"Hebron, Israel (general), Israel","Action_Location":"Hebron, Israel (general), Israel","Lat":31.5333,"Long":35.1,"Timestamp":20181110000000,"Source":"http:\/\/blog.camera.org\/2015\/10\/"},{"ID":801432948,"Actor1":"ASSAILANT","Actor1_Country":null,"Actor2":"PRIEST","Actor2_Country":null,"Code":182,"Class":4,"Actor1_Location":"World Health Organization, Al Qahirah, Egypt","Actor2_Location":"World Health Organization, Al Qahirah, Egypt","Action_Location":"World Health Organization, Al Qahirah, Egypt","Lat":30.0643,"Long":31.3481,"Timestamp":20181110000000,"Source":"http:\/\/blog.camera.org\/2016\/07\/"},{"ID":801432950,"Actor1":"CRIMINAL","Actor1_Country":null,"Actor2":"THAILAND","Actor2_Country":"THA","Code":173,"Class":4,"Actor1_Location":"Bangkok, Krung Thep Mahanakhon, Thailand","Actor2_Location":"Bangkok, Krung Thep Mahanakhon, Thailand","Action_Location":"Bangkok, Krung Thep Mahanakhon, Thailand","Lat":13.75,"Long":100.517,"Timestamp":20181110000000,"Source":"https:\/\/learningenglish.voanews.com\/a\/family-and-allies-of-former-thai-leaders-form-new-party\/4650145.html"},{"ID":801432953,"Actor1":"FELON","Actor1_Country":null,"Actor2":"CALIFORNIA","Actor2_Country":"USA","Code":173,"Class":4,"Actor1_Location":"California, United States","Actor2_Location":"California, United States","Action_Location":"California, United States","Lat":36.17,"Long":-119.746,"Timestamp":20181110000000,"Source":"https:\/\/www.newsobserver.com\/news\/local\/article221411405.html"},{"ID":801433047,"Actor1":"COMMUNITY","Actor1_Country":null,"Actor2":"CANADA","Actor2_Country":"CAN","Code":173,"Class":4,"Actor1_Location":"Canada","Actor2_Location":"Canada","Action_Location":"Canada","Lat":60.0,"Long":-96.0,"Timestamp":20181110000000,"Source":"https:\/\/vancouversun.com\/news\/local-news\/mandatory-jail-time-for-possession-of-child-porn-unconstitutional-appeal-court"},{"ID":801433061,"Actor1":"VILLAGE","Actor1_Country":null,"Actor2":"ASSAILANT","Actor2_Country":null,"Code":190,"Class":4,"Actor1_Location":"World Health Organization, Al Qahirah, Egypt","Actor2_Location":"World Health Organization, Al Qahirah, Egypt","Action_Location":"World Health Organization, Al Qahirah, Egypt","Lat":30.0643,"Long":31.3481,"Timestamp":20181110000000,"Source":"http:\/\/blog.camera.org\/2016\/07\/"},{"ID":801433064,"Actor1":"COMMUNITY","Actor1_Country":null,"Actor2":"SCHOLAR","Actor2_Country":null,"Code":161,"Class":4,"Actor1_Location":"Washington, District of Columbia, United States","Actor2_Location":"Washington, District of Columbia, United States","Action_Location":"Washington, District of Columbia, United States","Lat":38.8951,"Long":-77.0364,"Timestamp":20181110000000,"Source":"http:\/\/blog.camera.org\/2006\/05\/"},{"ID":801433065,"Actor1":"COMMUNITY","Actor1_Country":null,"Actor2":"SCHOLAR","Actor2_Country":null,"Code":161,"Class":4,"Actor1_Location":"Florida, United States","Actor2_Location":"Florida, United States","Action_Location":"Florida, United States","Lat":27.8333,"Long":-81.717,"Timestamp":20181110000000,"Source":"http:\/\/blog.camera.org\/2006\/05\/"},{"ID":801433066,"Actor1":"VOTER","Actor1_Country":null,"Actor2":"COLLEGE","Actor2_Country":null,"Code":180,"Class":4,"Actor1_Location":"The White House, District of Columbia, United States","Actor2_Location":"The White House, District of Columbia, United States","Action_Location":"The White House, District of Columbia, United States","Lat":38.8951,"Long":-77.0364,"Timestamp":20181110000000,"Source":"http:\/\/www.aei.org\/publication\/the-kavanaugh-debacle-cost-the-democrats-the-senate\/"},{"ID":801433067,"Actor1":"VOTER","Actor1_Country":null,"Actor2":"COLLEGE","Actor2_Country":null,"Code":180,"Class":4,"Actor1_Location":"Texas, United States","Actor2_Location":"Texas, United States","Action_Location":"Texas, United States","Lat":31.106,"Long":-97.6475,"Timestamp":20181110000000,"Source":"http:\/\/www.aei.org\/publication\/the-kavanaugh-debacle-cost-the-democrats-the-senate\/"},{"ID":801433068,"Actor1":"VOTER","Actor1_Country":null,"Actor2":"SCHOOL","Actor2_Country":null,"Code":1821,"Class":4,"Actor1_Location":"The White House, District of Columbia, United States","Actor2_Location":"The White House, District of Columbia, United States","Action_Location":"The White House, District of Columbia, United States","Lat":38.8951,"Long":-77.0364,"Timestamp":20181110000000,"Source":"http:\/\/www.aei.org\/publication\/the-kavanaugh-debacle-cost-the-democrats-the-senate\/"},{"ID":801433069,"Actor1":"VOTER","Actor1_Country":null,"Actor2":"SCHOOL","Actor2_Country":null,"Code":1821,"Class":4,"Actor1_Location":"Texas, United States","Actor2_Location":"Texas, United States","Action_Location":"Texas, United States","Lat":31.106,"Long":-97.6475,"Timestamp":20181110000000,"Source":"http:\/\/www.aei.org\/publication\/the-kavanaugh-debacle-cost-the-democrats-the-senate\/"},{"ID":801433095,"Actor1":"TOURIST","Actor1_Country":null,"Actor2":"ISRAELI","Actor2_Country":"ISR","Code":163,"Class":4,"Actor1_Location":"Bethlehem, West Bank (general), West Bank","Actor2_Location":"Gaza, Israel (general), Israel","Action_Location":"Gaza, Israel (general), Israel","Lat":31.4167,"Long":34.3333,"Timestamp":20181110000000,"Source":"http:\/\/blog.camera.org\/2018\/01\/"},{"ID":801433096,"Actor1":"TOURIST","Actor1_Country":null,"Actor2":"ISRAELI","Actor2_Country":"ISR","Code":163,"Class":4,"Actor1_Location":"France","Actor2_Location":"Gaza, Israel (general), Israel","Action_Location":"Gaza, Israel (general), Israel","Lat":31.4167,"Long":34.3333,"Timestamp":20181110000000,"Source":"http:\/\/blog.camera.org\/2018\/01\/"},{"ID":801433097,"Actor1":"VILLAGE","Actor1_Country":null,"Actor2":"ISRAEL","Actor2_Country":"ISR","Code":190,"Class":4,"Actor1_Location":"Ramallah, West Bank (general), West Bank","Actor2_Location":"Gaza, Israel (general), Israel","Action_Location":"Gaza, Israel (general), Israel","Lat":31.4167,"Long":34.3333,"Timestamp":20181110000000,"Source":"http:\/\/blog.camera.org\/2016\/12\/"},{"ID":801433098,"Actor1":"CIVILIAN","Actor1_Country":null,"Actor2":"ISRAEL","Actor2_Country":"ISR","Code":190,"Class":4,"Actor1_Location":"Jerusalem, Israel (general), Israel","Actor2_Location":"Joseph Tomb, West Bank (general), West Bank","Action_Location":"Joseph Tomb, West Bank (general), West Bank","Lat":32.2138,"Long":35.2867,"Timestamp":20181110000000,"Source":"http:\/\/blog.camera.org\/2015\/10\/"},{"ID":801433099,"Actor1":"CIVILIAN","Actor1_Country":null,"Actor2":"ISRAEL","Actor2_Country":"ISR","Code":190,"Class":4,"Actor1_Location":"Jerusalem, Israel (general), Israel","Actor2_Location":"Jerusalem, Israel (general), Israel","Action_Location":"Jerusalem, Israel (general), Israel","Lat":31.7667,"Long":35.2333,"Timestamp":20181110000000,"Source":"http:\/\/blog.camera.org\/2015\/10\/"},{"ID":801433100,"Actor1":"POPULATION","Actor1_Country":null,"Actor2":"ISRAELI","Actor2_Country":"ISR","Code":194,"Class":4,"Actor1_Location":"Jerusalem, Israel (general), Israel","Actor2_Location":"Jerusalem, Israel (general), Israel","Action_Location":"Jerusalem, Israel (general), Israel","Lat":31.7667,"Long":35.2333,"Timestamp":20181110000000,"Source":"http:\/\/blog.camera.org\/2006\/07\/"},{"ID":801433125,"Actor1":"CIVILIAN","Actor1_Country":null,"Actor2":"PALESTINIAN","Actor2_Country":"PSE","Code":190,"Class":4,"Actor1_Location":"Gaza, Israel (general), Israel","Actor2_Location":"Gaza, Israel (general), Israel","Action_Location":"Gaza, Israel (general), Israel","Lat":31.4167,"Long":34.3333,"Timestamp":20181110000000,"Source":"http:\/\/blog.camera.org\/2012\/11\/"},{"ID":801433131,"Actor1":"CIVILIAN","Actor1_Country":null,"Actor2":"MOGADISHU","Actor2_Country":"SOM","Code":195,"Class":4,"Actor1_Location":"Mogadishu, Banaadir, Somalia","Actor2_Location":"Mogadishu, Banaadir, Somalia","Action_Location":"Mogadishu, Banaadir, Somalia","Lat":2.06667,"Long":45.3667,"Timestamp":20181110000000,"Source":"https:\/\/japantoday.com\/category\/world\/somalia-blasts-leave-around-20-dead-dozens-wounded"},{"ID":801433158,"Actor1":"RESIDENTS","Actor1_Country":null,"Actor2":"UNITED STATES","Actor2_Country":"USA","Code":160,"Class":4,"Actor1_Location":"Butte County, California, United States","Actor2_Location":"Butte County, California, United States","Action_Location":"Butte County, California, United States","Lat":39.6499,"Long":-121.568,"Timestamp":20181110000000,"Source":"https:\/\/cbs4indy.com\/2018\/11\/09\/5-killed-as-3-california-wildfires-destroy-thousands-of-structures-force-evacuations\/"},{"ID":801433197,"Actor1":"GERMANY","Actor1_Country":"DEU","Actor2":"UNITED KINGDOM","Actor2_Country":"GBR","Code":190,"Class":4,"Actor1_Location":"Schwaben, Sachsen, Germany","Actor2_Location":"Harrogate, North Yorkshire, United Kingdom","Action_Location":"Schwaben, Sachsen, Germany","Lat":50.9,"Long":12.5833,"Timestamp":20181110000000,"Source":"https:\/\/www.harrogateadvertiser.co.uk\/news\/how-the-harrogate-terriers-our-heroes-of-the-first-world-war-fought-and-fell-for-our-freedom-1-9436851"},{"ID":801433198,"Actor1":"GERMANY","Actor1_Country":"DEU","Actor2":"UNITED KINGDOM","Actor2_Country":"GBR","Code":190,"Class":4,"Actor1_Location":"Harrogate, North Yorkshire, United Kingdom","Actor2_Location":"Harrogate, North Yorkshire, United Kingdom","Action_Location":"Harrogate, North Yorkshire, United Kingdom","Lat":53.9833,"Long":-1.53333,"Timestamp":20181110000000,"Source":"https:\/\/www.harrogateadvertiser.co.uk\/news\/how-the-harrogate-terriers-our-heroes-of-the-first-world-war-fought-and-fell-for-our-freedom-1-9436851"},{"ID":801433199,"Actor1":"GERMAN","Actor1_Country":"DEU","Actor2":"UNITED KINGDOM","Actor2_Country":"GBR","Code":193,"Class":4,"Actor1_Location":"Cambrai, Nord-Pas-de-Calais, France","Actor2_Location":"Cambrai, Nord-Pas-de-Calais, France","Action_Location":"Cambrai, Nord-Pas-de-Calais, France","Lat":50.1772,"Long":3.23383,"Timestamp":20181110000000,"Source":"https:\/\/www.harrogateadvertiser.co.uk\/news\/how-the-harrogate-terriers-our-heroes-of-the-first-world-war-fought-and-fell-for-our-freedom-1-9436851"},{"ID":801433201,"Actor1":"GERMANY","Actor1_Country":"DEU","Actor2":"FIREFIGHTER","Actor2_Country":null,"Code":180,"Class":4,"Actor1_Location":"Berlin, Berlin, Germany","Actor2_Location":"Berlin, Berlin, Germany","Action_Location":"Berlin, Berlin, Germany","Lat":52.5167,"Long":13.4,"Timestamp":20181110000000,"Source":"http:\/\/www.nashvillepublicradio.org\/post\/music-remembrance-80th-anniversary-kristallnacht"},{"ID":801433210,"Actor1":"GERMAN","Actor1_Country":"DEU","Actor2":"IRAN","Actor2_Country":"IRN","Code":173,"Class":4,"Actor1_Location":"Berlin, Berlin, Germany","Actor2_Location":"Qassem, Khuzestan, Iran","Action_Location":"Qassem, Khuzestan, Iran","Lat":32.6167,"Long":48.2833,"Timestamp":20181110000000,"Source":"http:\/\/blog.camera.org\/2015\/09\/"},{"ID":801433211,"Actor1":"GERMAN","Actor1_Country":"DEU","Actor2":"IRAN","Actor2_Country":"IRN","Code":173,"Class":4,"Actor1_Location":"Qassem, Khuzestan, Iran","Actor2_Location":"Qassem, Khuzestan, Iran","Action_Location":"Qassem, Khuzestan, Iran","Lat":32.6167,"Long":48.2833,"Timestamp":20181110000000,"Source":"http:\/\/blog.camera.org\/2015\/09\/"},{"ID":801433212,"Actor1":"BERLIN","Actor1_Country":"DEU","Actor2":"IRANIAN","Actor2_Country":"IRN","Code":186,"Class":4,"Actor1_Location":"Berlin, Berlin, Germany","Actor2_Location":"Qassem, Khuzestan, Iran","Action_Location":"Qassem, Khuzestan, Iran","Lat":32.6167,"Long":48.2833,"Timestamp":20181110000000,"Source":"http:\/\/blog.camera.org\/2015\/09\/"},{"ID":801433213,"Actor1":"BERLIN","Actor1_Country":"DEU","Actor2":"IRAN","Actor2_Country":"IRN","Code":186,"Class":4,"Actor1_Location":"Jerusalem, Israel (general), Israel","Actor2_Location":"Jerusalem, Israel (general), Israel","Action_Location":"Jerusalem, Israel (general), Israel","Lat":31.7667,"Long":35.2333,"Timestamp":20181110000000,"Source":"http:\/\/blog.camera.org\/2015\/09\/"},{"ID":801433218,"Actor1":"GERMAN","Actor1_Country":"DEU","Actor2":"JUDGE","Actor2_Country":null,"Code":180,"Class":4,"Actor1_Location":"Germany","Actor2_Location":"Germany","Action_Location":"Germany","Lat":51.5,"Long":10.5,"Timestamp":20181110000000,"Source":"http:\/\/1600kush.com\/wp\/2018\/11\/09\/stillwater-man-jailed-on-200000-bond-on-rape-charge\/"},{"ID":801433226,"Actor1":"GERMANY","Actor1_Country":"DEU","Actor2":"AMERICAN","Actor2_Country":"USA","Code":163,"Class":4,"Actor1_Location":"Germany","Actor2_Location":"Gaza, Israel (general), Israel","Action_Location":"Gaza, Israel (general), Israel","Lat":31.4167,"Long":34.3333,"Timestamp":20181110000000,"Source":"http:\/\/blog.camera.org\/2014\/02\/"},{"ID":801433227,"Actor1":"GERMANY","Actor1_Country":"DEU","Actor2":"AMERICAN","Actor2_Country":"USA","Code":163,"Class":4,"Actor1_Location":"Germany","Actor2_Location":"New York, United States","Action_Location":"Germany","Lat":51.5,"Long":10.5,"Timestamp":20181110000000,"Source":"http:\/\/blog.camera.org\/2014\/02\/"},{"ID":801433228,"Actor1":"GERMAN","Actor1_Country":"DEU","Actor2":"UNITED STATES","Actor2_Country":"USA","Code":172,"Class":4,"Actor1_Location":"Los Angeles, California, United States","Actor2_Location":"Los Angeles, California, United States","Action_Location":"Los Angeles, California, United States","Lat":34.0522,"Long":-118.244,"Timestamp":20181110000000,"Source":"http:\/\/www.nashvillepublicradio.org\/post\/music-remembrance-80th-anniversary-kristallnacht"},{"ID":801433230,"Actor1":"GERMAN","Actor1_Country":"DEU","Actor2":"IRAN","Actor2_Country":"IRN","Code":173,"Class":4,"Actor1_Location":"Berlin, Berlin, Germany","Actor2_Location":"Qassem, Khuzestan, Iran","Action_Location":"Berlin, Berlin, Germany","Lat":52.5167,"Long":13.4,"Timestamp":20181110000000,"Source":"http:\/\/blog.camera.org\/2015\/09\/"},{"ID":801433245,"Actor1":"ALGERIAN","Actor1_Country":"DZA","Actor2":"ALGERIA","Actor2_Country":"DZA","Code":172,"Class":4,"Actor1_Location":"Algiers, Alger, Algeria","Actor2_Location":"Algiers, Alger, Algeria","Action_Location":"Algiers, Alger, Algeria","Lat":36.7631,"Long":3.05056,"Timestamp":20181110000000,"Source":"http:\/\/humanitariannews.org\/20181110\/algerian-tv-network-director-files-defamation-case-against-independent-journalists"},{"ID":801433347,"Actor1":"COLLEGE","Actor1_Country":null,"Actor2":"POLICE OFFICER","Actor2_Country":null,"Code":193,"Class":4,"Actor1_Location":"Chicago, Illinois, United States","Actor2_Location":"Chicago, Illinois, United States","Action_Location":"Chicago, Illinois, United States","Lat":41.85,"Long":-87.6501,"Timestamp":20181110000000,"Source":"http:\/\/www.wrcbtv.com\/story\/39451546\/official-gunman-posted-about-mental-state-during-bar-attack"},{"ID":801433348,"Actor1":"COLLEGE","Actor1_Country":null,"Actor2":"POLICE OFFICER","Actor2_Country":null,"Code":193,"Class":4,"Actor1_Location":"Afghanistan","Actor2_Location":"Afghanistan","Action_Location":"Afghanistan","Lat":33.0,"Long":66.0,"Timestamp":20181110000000,"Source":"https:\/\/theanswersarasota.com\/news\/politics\/southern-california-city-mourns-in-wake-of-bar-massacre"},{"ID":801433383,"Actor1":"SCHOOL","Actor1_Country":null,"Actor2":"ISRAEL","Actor2_Country":"ISR","Code":180,"Class":4,"Actor1_Location":"Jerusalem, Israel (general), Israel","Actor2_Location":"Jerusalem, Israel (general), Israel","Action_Location":"Jerusalem, Israel (general), Israel","Lat":31.7667,"Long":35.2333,"Timestamp":20181110000000,"Source":"http:\/\/blog.camera.org\/2011\/04\/"},{"ID":801433384,"Actor1":"UNIVERSITY","Actor1_Country":null,"Actor2":"ISRAEL","Actor2_Country":"ISR","Code":190,"Class":4,"Actor1_Location":"Hebrew University, Yerushalayim, Israel","Actor2_Location":"Hebrew University, Yerushalayim, Israel","Action_Location":"Hebrew University, Yerushalayim, Israel","Lat":31.7734,"Long":35.1981,"Timestamp":20181110000000,"Source":"http:\/\/blog.camera.org\/2008\/10\/"},{"ID":801433385,"Actor1":"UNIVERSITY","Actor1_Country":null,"Actor2":"ISRAEL","Actor2_Country":"ISR","Code":190,"Class":4,"Actor1_Location":"Jerusalem, Israel (general), Israel","Actor2_Location":"Jerusalem, Israel (general), Israel","Action_Location":"Jerusalem, Israel (general), Israel","Lat":31.7667,"Long":35.2333,"Timestamp":20181110000000,"Source":"http:\/\/blog.camera.org\/2008\/10\/"},{"ID":801433386,"Actor1":"SCHOOL","Actor1_Country":null,"Actor2":"ISRAEL","Actor2_Country":"ISR","Code":202,"Class":4,"Actor1_Location":"Sderot, HaDarom, Israel","Actor2_Location":"Sderot, HaDarom, Israel","Action_Location":"Sderot, HaDarom, Israel","Lat":31.525,"Long":34.5969,"Timestamp":20181110000000,"Source":"http:\/\/blog.camera.org\/2008\/03\/"},{"ID":801433387,"Actor1":"SCHOOL","Actor1_Country":null,"Actor2":"ISRAEL","Actor2_Country":"ISR","Code":202,"Class":4,"Actor1_Location":"Jerusalem, Israel (general), Israel","Actor2_Location":"Jerusalem, Israel (general), Israel","Action_Location":"Jerusalem, Israel (general), Israel","Lat":31.7667,"Long":35.2333,"Timestamp":20181110000000,"Source":"http:\/\/blog.camera.org\/2008\/03\/"},{"ID":801433414,"Actor1":"SCHOOL","Actor1_Country":null,"Actor2":"GAZA","Actor2_Country":"PSE","Code":180,"Class":4,"Actor1_Location":"Jerusalem, Israel (general), Israel","Actor2_Location":"Jerusalem, Israel (general), Israel","Action_Location":"Jerusalem, Israel (general), Israel","Lat":31.7667,"Long":35.2333,"Timestamp":20181110000000,"Source":"http:\/\/blog.camera.org\/2011\/04\/"},{"ID":801433415,"Actor1":"SCHOOL","Actor1_Country":null,"Actor2":"PALESTINIAN","Actor2_Country":"PSE","Code":202,"Class":4,"Actor1_Location":"Sderot, HaDarom, Israel","Actor2_Location":"Sderot, HaDarom, Israel","Action_Location":"Sderot, HaDarom, Israel","Lat":31.525,"Long":34.5969,"Timestamp":20181110000000,"Source":"http:\/\/blog.camera.org\/2008\/03\/"},{"ID":801433416,"Actor1":"STUDENT","Actor1_Country":null,"Actor2":"PALESTINIAN","Actor2_Country":"PSE","Code":203,"Class":4,"Actor1_Location":"Gaza, Israel (general), Israel","Actor2_Location":"Gaza, Israel (general), Israel","Action_Location":"Gaza, Israel (general), Israel","Lat":31.4167,"Long":34.3333,"Timestamp":20181110000000,"Source":"http:\/\/blog.camera.org\/2011\/02\/"},{"ID":801433417,"Actor1":"SCHOOL","Actor1_Country":null,"Actor2":"HAMAS","Actor2_Country":"PSE","Code":180,"Class":4,"Actor1_Location":"Jerusalem, Israel (general), Israel","Actor2_Location":"Jerusalem, Israel (general), Israel","Action_Location":"Jerusalem, Israel (general), Israel","Lat":31.7667,"Long":35.2333,"Timestamp":20181110000000,"Source":"http:\/\/blog.camera.org\/2011\/04\/"},{"ID":801433418,"Actor1":"SCHOOL","Actor1_Country":null,"Actor2":"HAMAS","Actor2_Country":"PSE","Code":180,"Class":4,"Actor1_Location":"Jerusalem, Israel (general), Israel","Actor2_Location":"Jerusalem, Israel (general), Israel","Action_Location":"Washington, District of Columbia, United States","Lat":38.8951,"Long":-77.0364,"Timestamp":20181110000000,"Source":"http:\/\/blog.camera.org\/2011\/04\/"},{"ID":801433441,"Actor1":"SCHOOL","Actor1_Country":null,"Actor2":"KENTUCKY","Actor2_Country":"USA","Code":173,"Class":4,"Actor1_Location":"Kentucky, United States","Actor2_Location":"Kentucky, United States","Action_Location":"Kentucky, United States","Lat":37.669,"Long":-84.6514,"Timestamp":20181110000000,"Source":"https:\/\/www.whas11.com\/article\/news\/crime\/kentucky-man-arrested-after-accusations-of-inappropriate-relationship-with-16-year-old\/417-613111270"},{"ID":801433442,"Actor1":"SCHOOL","Actor1_Country":null,"Actor2":"NEW YORK","Actor2_Country":"USA","Code":182,"Class":4,"Actor1_Location":"Jerusalem, Israel (general), Israel","Actor2_Location":"Jerusalem, Israel (general), Israel","Action_Location":"Jerusalem, Israel (general), Israel","Lat":31.7667,"Long":35.2333,"Timestamp":20181110000000,"Source":"http:\/\/blog.camera.org\/2011\/04\/"},{"ID":801433443,"Actor1":"SCHOOL","Actor1_Country":null,"Actor2":"NEW YORK","Actor2_Country":"USA","Code":182,"Class":4,"Actor1_Location":"Jerusalem, Israel (general), Israel","Actor2_Location":"New York, United States","Action_Location":"New York, United States","Lat":42.1497,"Long":-74.9384,"Timestamp":20181110000000,"Source":"http:\/\/blog.camera.org\/2011\/04\/"},{"ID":801433444,"Actor1":"SCHOOL","Actor1_Country":null,"Actor2":"NEW YORK","Actor2_Country":"USA","Code":182,"Class":4,"Actor1_Location":"New York, United States","Actor2_Location":"New York, United States","Action_Location":"New York, United States","Lat":42.1497,"Long":-74.9384,"Timestamp":20181110000000,"Source":"http:\/\/blog.camera.org\/2011\/04\/"},{"ID":801433445,"Actor1":"STUDENTS AND TEACHER","Actor1_Country":null,"Actor2":"FLORIDA","Actor2_Country":"USA","Code":190,"Class":4,"Actor1_Location":"Thousand Oaks, California, United States","Actor2_Location":"Thousand Oaks, California, United States","Action_Location":"Thousand Oaks, California, United States","Lat":34.1706,"Long":-118.838,"Timestamp":20181110000000,"Source":"http:\/\/www.bastropenterprise.com\/zz\/news\/20181109\/official-gunman-went-on-social-media-during-bar-attack"},{"ID":801433446,"Actor1":"STUDENTS AND TEACHER","Actor1_Country":null,"Actor2":"UNITED STATES","Actor2_Country":"USA","Code":190,"Class":4,"Actor1_Location":"Thousand Oaks, California, United States","Actor2_Location":"Florida, United States","Action_Location":"Thousand Oaks, California, United States","Lat":34.1706,"Long":-118.838,"Timestamp":20181110000000,"Source":"http:\/\/www.bastropenterprise.com\/zz\/news\/20181109\/official-gunman-went-on-social-media-during-bar-attack"},{"ID":801433447,"Actor1":"STUDENTS AND TEACHER","Actor1_Country":null,"Actor2":"FLORIDA","Actor2_Country":"USA","Code":190,"Class":4,"Actor1_Location":"Florida, United States","Actor2_Location":"Florida, United States","Action_Location":"Thousand Oaks, California, United States","Lat":34.1706,"Long":-118.838,"Timestamp":20181110000000,"Source":"http:\/\/www.bastropenterprise.com\/zz\/news\/20181109\/official-gunman-went-on-social-media-during-bar-attack"},{"ID":801433448,"Actor1":"STUDENTS AND TEACHER","Actor1_Country":null,"Actor2":"FLORIDA","Actor2_Country":"USA","Code":190,"Class":4,"Actor1_Location":"Florida, United States","Actor2_Location":"Florida, United States","Action_Location":"Florida, United States","Lat":27.8333,"Long":-81.717,"Timestamp":20181110000000,"Source":"http:\/\/www.bastropenterprise.com\/zz\/news\/20181109\/official-gunman-went-on-social-media-during-bar-attack"},{"ID":801433449,"Actor1":"STUDENT","Actor1_Country":null,"Actor2":"UNITED STATES","Actor2_Country":"USA","Code":193,"Class":4,"Actor1_Location":"Capital University, Ohio, United States","Actor2_Location":"Capital University, Ohio, United States","Action_Location":"Capital University, Ohio, United States","Lat":39.9562,"Long":-82.9396,"Timestamp":20181110000000,"Source":"https:\/\/abc6onyourside.com\/news\/local\/prosecutor-son-charged-with-killing-father-is-the-sole-life-insurance-beneficiary"},{"ID":801433452,"Actor1":"SCHOOL","Actor1_Country":null,"Actor2":"UNITED STATES","Actor2_Country":"USA","Code":190,"Class":4,"Actor1_Location":"Lamar High School, Texas, United States","Actor2_Location":"Lamar High School, Texas, United States","Action_Location":"Lamar High School, Texas, United States","Lat":29.7413,"Long":-95.4272,"Timestamp":20181110000000,"Source":"https:\/\/www.mysanantonio.com\/news\/houston-texas\/houston\/article\/Lamar-High-School-student-involved-in-apparent-13378909.php"},{"ID":801433453,"Actor1":"SCHOOL","Actor1_Country":null,"Actor2":"UNITED STATES","Actor2_Country":"USA","Code":190,"Class":4,"Actor1_Location":"Houston, Texas, United States","Actor2_Location":"Houston, Texas, United States","Action_Location":"Houston, Texas, United States","Lat":29.7633,"Long":-95.3633,"Timestamp":20181110000000,"Source":"https:\/\/www.mysanantonio.com\/news\/houston-texas\/houston\/article\/Lamar-High-School-student-involved-in-apparent-13378909.php"},{"ID":801433464,"Actor1":"STUDENT","Actor1_Country":null,"Actor2":"INTELLECTUAL","Actor2_Country":null,"Code":190,"Class":4,"Actor1_Location":"Khaibar, North-West Frontier, Pakistan","Actor2_Location":"Khaibar, North-West Frontier, Pakistan","Action_Location":"Khaibar, North-West Frontier, Pakistan","Lat":34.9582,"Long":72.5533,"Timestamp":20181110000000,"Source":"http:\/\/blog.camera.org\/2015\/01\/"},{"ID":801433505,"Actor1":"EGYPTIAN","Actor1_Country":"EGY","Actor2":"SECURITY OFFICIAL","Actor2_Country":null,"Code":181,"Class":4,"Actor1_Location":"Egypt","Actor2_Location":"Libya","Action_Location":"Libya","Lat":25.0,"Long":17.0,"Timestamp":20181110000000,"Source":"http:\/\/blog.camera.org\/2014\/02\/"},{"ID":801433506,"Actor1":"EGYPTIAN","Actor1_Country":"EGY","Actor2":"SECURITY OFFICIAL","Actor2_Country":null,"Code":181,"Class":4,"Actor1_Location":"New York, United States","Actor2_Location":"New York, United States","Action_Location":"New York, United States","Lat":42.1497,"Long":-74.9384,"Timestamp":20181110000000,"Source":"http:\/\/blog.camera.org\/2014\/02\/"},{"ID":801433507,"Actor1":"EGYPT","Actor1_Country":"EGY","Actor2":"POLICEMEN","Actor2_Country":null,"Code":190,"Class":4,"Actor1_Location":"Beirut, Beyrouth, Lebanon","Actor2_Location":"Beirut, Beyrouth, Lebanon","Action_Location":"Beirut, Beyrouth, Lebanon","Lat":33.8719,"Long":35.5097,"Timestamp":20181110000000,"Source":"http:\/\/blog.camera.org\/2014\/05\/"},{"ID":801433508,"Actor1":"EGYPT","Actor1_Country":"EGY","Actor2":"POLICEMEN","Actor2_Country":null,"Code":190,"Class":4,"Actor1_Location":"Egypt","Actor2_Location":"Egypt","Action_Location":"Egypt","Lat":27.0,"Long":30.0,"Timestamp":20181110000000,"Source":"http:\/\/blog.camera.org\/2014\/05\/"},{"ID":801433512,"Actor1":"EGYPT","Actor1_Country":"EGY","Actor2":"CIVILIAN","Actor2_Country":null,"Code":190,"Class":4,"Actor1_Location":"Beirut, Beyrouth, Lebanon","Actor2_Location":"Beirut, Beyrouth, Lebanon","Action_Location":"Beirut, Beyrouth, Lebanon","Lat":33.8719,"Long":35.5097,"Timestamp":20181110000000,"Source":"http:\/\/blog.camera.org\/2014\/05\/"},{"ID":801433513,"Actor1":"EGYPT","Actor1_Country":"EGY","Actor2":"CIVILIAN","Actor2_Country":null,"Code":190,"Class":4,"Actor1_Location":"Egypt","Actor2_Location":"Egypt","Action_Location":"Egypt","Lat":27.0,"Long":30.0,"Timestamp":20181110000000,"Source":"http:\/\/blog.camera.org\/2014\/05\/"},{"ID":801433516,"Actor1":"EGYPTIAN","Actor1_Country":"EGY","Actor2":"EGYPT","Actor2_Country":"EGY","Code":181,"Class":4,"Actor1_Location":"Egypt","Actor2_Location":"Egypt","Action_Location":"Libya","Lat":25.0,"Long":17.0,"Timestamp":20181110000000,"Source":"http:\/\/blog.camera.org\/2014\/02\/"},{"ID":801433517,"Actor1":"EGYPTIAN","Actor1_Country":"EGY","Actor2":"EGYPT","Actor2_Country":"EGY","Code":181,"Class":4,"Actor1_Location":"New York, United States","Actor2_Location":"New York, United States","Action_Location":"New York, United States","Lat":42.1497,"Long":-74.9384,"Timestamp":20181110000000,"Source":"http:\/\/blog.camera.org\/2014\/02\/"},{"ID":801433520,"Actor1":"EGYPTIAN","Actor1_Country":"EGY","Actor2":"EGYPT","Actor2_Country":"EGY","Code":190,"Class":4,"Actor1_Location":"Minya, Al Minya, Egypt","Actor2_Location":"Minya, Al Minya, Egypt","Action_Location":"Minya, Al Minya, Egypt","Lat":28.1099,"Long":30.7503,"Timestamp":20181110000000,"Source":"http:\/\/blog.camera.org\/2011\/01\/"},{"ID":801433521,"Actor1":"EGYPTIAN","Actor1_Country":"EGY","Actor2":"EGYPT","Actor2_Country":"EGY","Code":190,"Class":4,"Actor1_Location":"Dimona, HaDarom, Israel","Actor2_Location":"Dimona, HaDarom, Israel","Action_Location":"Dimona, HaDarom, Israel","Lat":31.0667,"Long":35.0333,"Timestamp":20181110000000,"Source":"http:\/\/blog.camera.org\/2011\/01\/"},{"ID":801433522,"Actor1":"EGYPT","Actor1_Country":"EGY","Actor2":"EGYPT","Actor2_Country":"EGY","Code":180,"Class":4,"Actor1_Location":"Arab League, Al Qahirah, Egypt","Actor2_Location":"Arab League, Al Qahirah, Egypt","Action_Location":"Arab League, Al Qahirah, Egypt","Lat":30.0445,"Long":31.2332,"Timestamp":20181110000000,"Source":"http:\/\/blog.camera.org\/2011\/02\/"},{"ID":801433534,"Actor1":"EGYPT","Actor1_Country":"EGY","Actor2":"GOVERNMENT OFFICIAL","Actor2_Country":null,"Code":160,"Class":4,"Actor1_Location":"Cairo, Al Qahirah, Egypt","Actor2_Location":"Cairo, Al Qahirah, Egypt","Action_Location":"Cairo, Al Qahirah, Egypt","Lat":30.05,"Long":31.25,"Timestamp":20181110000000,"Source":"http:\/\/blog.camera.org\/2012\/04\/"},{"ID":801433535,"Actor1":"EGYPT","Actor1_Country":"EGY","Actor2":"GOVERNMENT OFFICIAL","Actor2_Country":null,"Code":160,"Class":4,"Actor1_Location":"Gaza, Israel (general), Israel","Actor2_Location":"Gaza, Israel (general), Israel","Action_Location":"Gaza, Israel (general), Israel","Lat":31.4167,"Long":34.3333,"Timestamp":20181110000000,"Source":"http:\/\/blog.camera.org\/2012\/04\/"},{"ID":801433536,"Actor1":"EGYPT","Actor1_Country":"EGY","Actor2":"MINISTRY","Actor2_Country":null,"Code":172,"Class":4,"Actor1_Location":"Cairo, Al Qahirah, Egypt","Actor2_Location":"Cairo, Al Qahirah, Egypt","Action_Location":"Cairo, Al Qahirah, Egypt","Lat":30.05,"Long":31.25,"Timestamp":20181110000000,"Source":"http:\/\/blog.camera.org\/2012\/04\/"},{"ID":801433537,"Actor1":"EGYPT","Actor1_Country":"EGY","Actor2":"MINISTRY","Actor2_Country":null,"Code":172,"Class":4,"Actor1_Location":"Gaza, Israel (general), Israel","Actor2_Location":"Gaza, Israel (general), Israel","Action_Location":"Gaza, Israel (general), Israel","Lat":31.4167,"Long":34.3333,"Timestamp":20181110000000,"Source":"http:\/\/blog.camera.org\/2012\/04\/"},{"ID":801433564,"Actor1":"EGYPT","Actor1_Country":"EGY","Actor2":"ISRAEL","Actor2_Country":"ISR","Code":151,"Class":4,"Actor1_Location":"Jerusalem, Israel (general), Israel","Actor2_Location":"Jerusalem, Israel (general), Israel","Action_Location":"Jerusalem, Israel (general), Israel","Lat":31.7667,"Long":35.2333,"Timestamp":20181110000000,"Source":"http:\/\/blog.camera.org\/2008\/08\/"},{"ID":801433565,"Actor1":"EGYPT","Actor1_Country":"EGY","Actor2":"ISRAEL","Actor2_Country":"ISR","Code":151,"Class":4,"Actor1_Location":"Arab League, Al Qahirah, Egypt","Actor2_Location":"Gaza, Israel (general), Israel","Action_Location":"Gaza, Israel (general), Israel","Lat":31.4167,"Long":34.3333,"Timestamp":20181110000000,"Source":"http:\/\/blog.camera.org\/2008\/08\/"},{"ID":801433566,"Actor1":"EGYPT","Actor1_Country":"EGY","Actor2":"ISRAEL","Actor2_Country":"ISR","Code":190,"Class":4,"Actor1_Location":"Alexandria, Al Iskandariyah, Egypt","Actor2_Location":"Jerusalem, Israel (general), Israel","Action_Location":"Jerusalem, Israel (general), Israel","Lat":31.7667,"Long":35.2333,"Timestamp":20181110000000,"Source":"http:\/\/blog.camera.org\/2011\/01\/"},{"ID":801433567,"Actor1":"ALEXANDRIA","Actor1_Country":"EGY","Actor2":"ISRAEL","Actor2_Country":"ISR","Code":190,"Class":4,"Actor1_Location":"Jerusalem, Israel (general), Israel","Actor2_Location":"Jerusalem, Israel (general), Israel","Action_Location":"Karni, Dahuk, Iraq","Lat":37.2118,"Long":42.6586,"Timestamp":20181110000000,"Source":"http:\/\/blog.camera.org\/2011\/01\/"},{"ID":801433568,"Actor1":"EGYPT","Actor1_Country":"EGY","Actor2":"ISRAEL","Actor2_Country":"ISR","Code":190,"Class":4,"Actor1_Location":"Jerusalem, Israel (general), Israel","Actor2_Location":"Jerusalem, Israel (general), Israel","Action_Location":"Jerusalem, Israel (general), Israel","Lat":31.7667,"Long":35.2333,"Timestamp":20181110000000,"Source":"http:\/\/blog.camera.org\/2011\/01\/"},{"ID":801433569,"Actor1":"EGYPTIAN","Actor1_Country":"EGY","Actor2":"ISRAEL","Actor2_Country":"ISR","Code":192,"Class":4,"Actor1_Location":"Tibet, Xizang, China","Actor2_Location":"Tibet, Xizang, China","Action_Location":"Tibet, Xizang, China","Lat":32.0,"Long":90.0,"Timestamp":20181110000000,"Source":"http:\/\/blog.camera.org\/2008\/03\/"},{"ID":801433570,"Actor1":"EGYPTIAN","Actor1_Country":"EGY","Actor2":"ISRAEL","Actor2_Country":"ISR","Code":192,"Class":4,"Actor1_Location":"Rafah, Shamal Sina', Egypt","Actor2_Location":"Jerusalem, Israel (general), Israel","Action_Location":"Jerusalem, Israel (general), Israel","Lat":31.7667,"Long":35.2333,"Timestamp":20181110000000,"Source":"http:\/\/blog.camera.org\/2008\/03\/"},