[{"ID":800060826,"Actor1":"PERTH","Actor1_Country":"AUS","Actor2":"SIERRA LEONE","Actor2_Country":"SLE","Code":43,"Class":1,"Action_Location":"Perth, Western Australia, Australia","Lat":-31.9333,"Long":115.833,"Timestamp":20181105053000,"Source":"https:\/\/www.news.com.au\/national\/breaking-news\/sierra-leone-meth-mules-blame-third-party\/news-story\/4400fa9fc023d4455f72865c6608d311"},{"ID":800060827,"Actor1":"CHINA","Actor1_Country":"CHN","Actor2":"AFRICA","Actor2_Country":"AFR","Code":71,"Class":2,"Action_Location":"China","Lat":35.0,"Long":105.0,"Timestamp":20181105053000,"Source":"https:\/\/www.dealstreetasia.com\/stories\/aavishkaar-south-asia-110497\/"},{"ID":800060828,"Actor1":"PRIME MINSTER","Actor1_Country":null,"Actor2":"CHINESE","Actor2_Country":"CHN","Code":841,"Class":2,"Action_Location":"Lu Kang, Anhui, China","Lat":31.2728,"Long":118.337,"Timestamp":20181105053000,"Source":"https:\/\/www.scnow.com\/news\/headlines\/article_f8dbd4f4-9bab-5b9f-ab9c-1a18aa738ca7.html"},{"ID":800060829,"Actor1":"PRIME MINSTER","Actor1_Country":null,"Actor2":"CHINESE","Actor2_Country":"CHN","Code":841,"Class":2,"Action_Location":"New Delhi, Delhi, India","Lat":28.6,"Long":77.2,"Timestamp":20181105053000,"Source":"https:\/\/www.chron.com\/news\/world\/article\/Rivals-China-India-cautiously-watch-Sri-Lankan-13362617.php"},{"ID":800060830,"Actor1":"PRIME MINSTER","Actor1_Country":null,"Actor2":"CHINESE","Actor2_Country":"CHN","Code":841,"Class":2,"Action_Location":"Lu Kang, Anhui, China","Lat":31.2728,"Long":118.337,"Timestamp":20181105053000,"Source":"https:\/\/www.chron.com\/news\/world\/article\/Rivals-China-India-cautiously-watch-Sri-Lankan-13362617.php"},{"ID":800060832,"Actor1":"SIERRA LEONE","Actor1_Country":"SLE","Actor2":"PERTH","Actor2_Country":"AUS","Code":42,"Class":1,"Action_Location":"Perth, Western Australia, Australia","Lat":-31.9333,"Long":115.833,"Timestamp":20181105053000,"Source":"https:\/\/www.news.com.au\/national\/breaking-news\/sierra-leone-meth-mules-blame-third-party\/news-story\/4400fa9fc023d4455f72865c6608d311"},{"ID":800060835,"Actor1":"SHANGHAI","Actor1_Country":"CHN","Actor2":"UNITED STATES","Actor2_Country":"USA","Code":43,"Class":1,"Action_Location":"Texas, United States","Lat":31.106,"Long":-97.6475,"Timestamp":20181105053000,"Source":"https:\/\/www.shippingtribune.com\/newsdetails.php?s_id=10188"},{"ID":800060836,"Actor1":"UNITED STATES","Actor1_Country":"USA","Actor2":"SHANGHAI","Actor2_Country":"CHN","Code":42,"Class":1,"Action_Location":"Texas, United States","Lat":31.106,"Long":-97.6475,"Timestamp":20181105053000,"Source":"https:\/\/www.shippingtribune.com\/newsdetails.php?s_id=10188"},{"ID":800060840,"Actor1":"AUSTRALIA","Actor1_Country":"AUS","Actor2":"GHANA","Actor2_Country":"GHA","Code":43,"Class":1,"Action_Location":"New Zealand","Lat":-42.0,"Long":174.0,"Timestamp":20181105053000,"Source":"https:\/\/www.traveldailynews.asia\/virtuoso-hits-the-road-across-australia-and-nz"},{"ID":800060842,"Actor1":"COMMUNITY","Actor1_Country":null,"Actor2":"INDIANA","Actor2_Country":"USA","Code":36,"Class":1,"Action_Location":"Indiana, United States","Lat":39.8647,"Long":-86.2604,"Timestamp":20181105053000,"Source":"http:\/\/www.therepublic.com\/2018\/11\/05\/university_news__november_5\/"},{"ID":800060843,"Actor1":"COMMUNITY","Actor1_Country":null,"Actor2":"INDIANA","Actor2_Country":"USA","Code":36,"Class":1,"Action_Location":"Indiana, United States","Lat":39.8647,"Long":-86.2604,"Timestamp":20181105053000,"Source":"http:\/\/www.therepublic.com\/2018\/11\/05\/university_news__november_5\/"},{"ID":800060845,"Actor1":"SCHOOL","Actor1_Country":null,"Actor2":"PRESIDENT","Actor2_Country":null,"Code":10,"Class":1,"Action_Location":"Wisconsin, United States","Lat":44.2563,"Long":-89.6385,"Timestamp":20181105053000,"Source":"https:\/\/www.leadertelegram.com\/news\/front-page\/school-board-to-continue-discussions-of-elementary-re-districting\/article_b3bb99d5-3d87-5928-807d-64194392aefb.html"},{"ID":800060846,"Actor1":"STUDENT","Actor1_Country":null,"Actor2":"WORKER","Actor2_Country":null,"Code":42,"Class":1,"Action_Location":"Boston, Massachusetts, United States","Lat":42.3584,"Long":-71.0598,"Timestamp":20181105053000,"Source":"https:\/\/www.thecrimson.com\/article\/2018\/11\/5\/students-back-marriott-strike\/"},{"ID":800060847,"Actor1":"SCHOOL","Actor1_Country":null,"Actor2":"UNITED STATES","Actor2_Country":"USA","Code":10,"Class":1,"Action_Location":"Wisconsin, United States","Lat":44.2563,"Long":-89.6385,"Timestamp":20181105053000,"Source":"https:\/\/www.leadertelegram.com\/news\/front-page\/school-board-to-continue-discussions-of-elementary-re-districting\/article_b3bb99d5-3d87-5928-807d-64194392aefb.html"},{"ID":800060848,"Actor1":"SCHOOL","Actor1_Country":null,"Actor2":"UNITED STATES","Actor2_Country":"USA","Code":10,"Class":1,"Action_Location":"Wisconsin, United States","Lat":44.2563,"Long":-89.6385,"Timestamp":20181105053000,"Source":"https:\/\/www.leadertelegram.com\/news\/front-page\/school-board-to-continue-discussions-of-elementary-re-districting\/article_b3bb99d5-3d87-5928-807d-64194392aefb.html"},{"ID":800060849,"Actor1":"GHANA","Actor1_Country":"GHA","Actor2":"AUSTRALIA","Actor2_Country":"AUS","Code":42,"Class":1,"Action_Location":"Melbourne, Victoria, Australia","Lat":-37.8167,"Long":144.967,"Timestamp":20181105053000,"Source":"https:\/\/www.traveldailynews.asia\/virtuoso-hits-the-road-across-australia-and-nz"},{"ID":800060850,"Actor1":"ISRAEL","Actor1_Country":"ISR","Actor2":"JEWISH","Actor2_Country":null,"Code":51,"Class":1,"Action_Location":"Chicago, Illinois, United States","Lat":41.85,"Long":-87.6501,"Timestamp":20181105053000,"Source":"http:\/\/www.jewishpress.com\/headline\/ice-cream-causes-brain-freeze\/2018\/11\/05\/"},{"ID":800060851,"Actor1":"ISRAEL","Actor1_Country":"ISR","Actor2":"PITTSBURGH","Actor2_Country":"USA","Code":110,"Class":3,"Action_Location":"Israel","Lat":31.5,"Long":34.75,"Timestamp":20181105053000,"Source":"http:\/\/www.jewishpress.com\/headline\/ice-cream-causes-brain-freeze\/2018\/11\/05\/"},{"ID":800060852,"Actor1":"WORKER","Actor1_Country":null,"Actor2":"STUDENT","Actor2_Country":null,"Code":43,"Class":1,"Action_Location":"Boston, Massachusetts, United States","Lat":42.3584,"Long":-71.0598,"Timestamp":20181105053000,"Source":"https:\/\/www.thecrimson.com\/article\/2018\/11\/5\/students-back-marriott-strike\/"},{"ID":800060853,"Actor1":"PENN NATIONAL GAMING INC","Actor1_Country":"USA","Actor2":"PENNSYLVANIA","Actor2_Country":"USA","Code":31,"Class":1,"Action_Location":"Berks County, Pennsylvania, United States","Lat":40.6254,"Long":-75.8749,"Timestamp":20181105053000,"Source":"https:\/\/www.readingeagle.com\/news\/article\/the-briefing-a-good-week-for-caernarvon-township"},{"ID":800060854,"Actor1":"UNITED STATES","Actor1_Country":"USA","Actor2":"ENGINEER","Actor2_Country":null,"Code":26,"Class":1,"Action_Location":"California, United States","Lat":36.17,"Long":-119.746,"Timestamp":20181105053000,"Source":"https:\/\/www.newcivilengineer.com\/latest\/major-milestone-hit-on-oroville-dam-repairs\/10036837.article"},{"ID":800060855,"Actor1":"INDIANA","Actor1_Country":"USA","Actor2":"COMMUNITY","Actor2_Country":null,"Code":36,"Class":1,"Action_Location":"Indiana, United States","Lat":39.8647,"Long":-86.2604,"Timestamp":20181105053000,"Source":"http:\/\/www.therepublic.com\/2018\/11\/05\/university_news__november_5\/"},{"ID":800060856,"Actor1":"PITTSBURGH","Actor1_Country":"USA","Actor2":"JEWISH","Actor2_Country":null,"Code":51,"Class":1,"Action_Location":"Israel","Lat":31.5,"Long":34.75,"Timestamp":20181105053000,"Source":"http:\/\/www.jewishpress.com\/headline\/ice-cream-causes-brain-freeze\/2018\/11\/05\/"},{"ID":800060857,"Actor1":"INDIANA","Actor1_Country":"USA","Actor2":"COMMUNITY","Actor2_Country":null,"Code":36,"Class":1,"Action_Location":"Indiana, United States","Lat":39.8647,"Long":-86.2604,"Timestamp":20181105053000,"Source":"http:\/\/www.therepublic.com\/2018\/11\/05\/university_news__november_5\/"},{"ID":800060992,"Actor1":"AFGHAN","Actor1_Country":"AFG","Actor2":"AFGHANISTAN","Actor2_Country":"AFG","Code":193,"Class":4,"Action_Location":"Afghanistan","Lat":33.0,"Long":66.0,"Timestamp":20181105053000,"Source":"https:\/\/www.weau.com\/content\/news\/Funeral-plans-are-pending-for-Utah-Guard-major-499597711.html"},{"ID":800060993,"Actor1":"AFGHANISTAN","Actor1_Country":"AFG","Actor2":"MAYOR","Actor2_Country":null,"Code":43,"Class":1,"Action_Location":"Afghanistan","Lat":33.0,"Long":66.0,"Timestamp":20181105053000,"Source":"https:\/\/www.weau.com\/content\/news\/Funeral-plans-are-pending-for-Utah-Guard-major-499597711.html"},{"ID":800060994,"Actor1":"AFGHANISTAN","Actor1_Country":"AFG","Actor2":"MAYOR","Actor2_Country":null,"Code":43,"Class":1,"Action_Location":"Utah, United States","Lat":40.1135,"Long":-111.854,"Timestamp":20181105053000,"Source":"https:\/\/www.weau.com\/content\/news\/Funeral-plans-are-pending-for-Utah-Guard-major-499597711.html"},{"ID":800060995,"Actor1":"AFGHAN","Actor1_Country":"AFG","Actor2":"RUSSIA","Actor2_Country":"RUS","Code":42,"Class":1,"Action_Location":"Moscow, Moskva, Russia","Lat":55.7522,"Long":37.6156,"Timestamp":20181105053000,"Source":"https:\/\/southasiamonitor.org\/news\/russia-to-host-talks-with-afghan-leaders-taliban\/inthenews\/28387"},{"ID":800060996,"Actor1":"AFGHANISTAN","Actor1_Country":"AFG","Actor2":"RUSSIA","Actor2_Country":"RUS","Code":46,"Class":1,"Action_Location":"Moscow, Moskva, Russia","Lat":55.7522,"Long":37.6156,"Timestamp":20181105053000,"Source":"https:\/\/southasiamonitor.org\/news\/russia-to-host-talks-with-afghan-leaders-taliban\/inthenews\/28387"},{"ID":800060997,"Actor1":"AFGHAN","Actor1_Country":"AFG","Actor2":"RUSSIA","Actor2_Country":"RUS","Code":46,"Class":1,"Action_Location":"Afghanistan","Lat":33.0,"Long":66.0,"Timestamp":20181105053000,"Source":"https:\/\/southasiamonitor.org\/news\/russia-to-host-talks-with-afghan-leaders-taliban\/inthenews\/28387"},{"ID":800060998,"Actor1":"AFGHANISTAN","Actor1_Country":"AFG","Actor2":"UNITED STATES","Actor2_Country":"USA","Code":42,"Class":1,"Action_Location":"Afghanistan","Lat":33.0,"Long":66.0,"Timestamp":20181105053000,"Source":"https:\/\/www.weau.com\/content\/news\/Funeral-plans-are-pending-for-Utah-Guard-major-499597711.html"},{"ID":800060999,"Actor1":"AFGHANISTAN","Actor1_Country":"AFG","Actor2":"DELAWARE","Actor2_Country":"USA","Code":42,"Class":1,"Action_Location":"Afghanistan","Lat":33.0,"Long":66.0,"Timestamp":20181105053000,"Source":"https:\/\/www.weau.com\/content\/news\/Funeral-plans-are-pending-for-Utah-Guard-major-499597711.html"},{"ID":800061000,"Actor1":"AFGHANISTAN","Actor1_Country":"AFG","Actor2":"UNITED STATES","Actor2_Country":"USA","Code":43,"Class":1,"Action_Location":"Utah, United States","Lat":40.1135,"Long":-111.854,"Timestamp":20181105053000,"Source":"http:\/\/www.rep-am.com\/news\/national\/2018\/11\/04\/utah-mayor-guard-member-killed-by-trainee-in-afghanistan\/"},{"ID":800061001,"Actor1":"AFGHANISTAN","Actor1_Country":"AFG","Actor2":"UTAH","Actor2_Country":"USA","Code":154,"Class":4,"Action_Location":"Afghanistan","Lat":33.0,"Long":66.0,"Timestamp":20181105053000,"Source":"http:\/\/www.rep-am.com\/news\/national\/2018\/11\/04\/utah-mayor-guard-member-killed-by-trainee-in-afghanistan\/"},{"ID":800061002,"Actor1":"AFGHANISTAN","Actor1_Country":"AFG","Actor2":"UTAH","Actor2_Country":"USA","Code":154,"Class":4,"Action_Location":"Utah, United States","Lat":40.1135,"Long":-111.854,"Timestamp":20181105053000,"Source":"http:\/\/www.rep-am.com\/news\/national\/2018\/11\/04\/utah-mayor-guard-member-killed-by-trainee-in-afghanistan\/"},{"ID":800061003,"Actor1":"AFGHANISTAN","Actor1_Country":"AFG","Actor2":"UTAH","Actor2_Country":"USA","Code":154,"Class":4,"Action_Location":"Kabul, Kabol, Afghanistan","Lat":34.5167,"Long":69.1833,"Timestamp":20181105053000,"Source":"https:\/\/southasiamonitor.org\/news\/us-officer-killed-in-afghanistan-insider-attack-\/inthenews\/28390"},{"ID":800061004,"Actor1":"AFGHANISTAN","Actor1_Country":"AFG","Actor2":"UTAH","Actor2_Country":"USA","Code":154,"Class":4,"Action_Location":"Afghanistan","Lat":33.0,"Long":66.0,"Timestamp":20181105053000,"Source":"http:\/\/www.rep-am.com\/news\/national\/2018\/11\/04\/utah-mayor-guard-member-killed-by-trainee-in-afghanistan\/"},{"ID":800061006,"Actor1":"TALIBAN","Actor1_Country":"AFG","Actor2":"FOREIGN MINIST","Actor2_Country":null,"Code":36,"Class":1,"Action_Location":"Doha, Ad Daw?ah, Qatar","Lat":25.2867,"Long":51.5333,"Timestamp":20181105053000,"Source":"https:\/\/southasiamonitor.org\/news\/russia-to-host-talks-with-afghan-leaders-taliban\/inthenews\/28387"},{"ID":800061007,"Actor1":"TALIBAN","Actor1_Country":"AFG","Actor2":"DOHA","Actor2_Country":"QAT","Code":36,"Class":1,"Action_Location":"Doha, Ad Daw?ah, Qatar","Lat":25.2867,"Long":51.5333,"Timestamp":20181105053000,"Source":"https:\/\/southasiamonitor.org\/news\/russia-to-host-talks-with-afghan-leaders-taliban\/inthenews\/28387"},{"ID":800061015,"Actor1":"AFRICA","Actor1_Country":"AFR","Actor2":"INVESTOR","Actor2_Country":null,"Code":71,"Class":2,"Action_Location":"Gauteng, Gauteng, South Africa","Lat":-26.0833,"Long":28.25,"Timestamp":20181105053000,"Source":"https:\/\/www.gov.za\/speeches\/gauteng-government-and-african-development-bank-brief-media-africa-investment-forum-2018-5"},{"ID":800061016,"Actor1":"AFRICA","Actor1_Country":"AFR","Actor2":"GOVERNMENT","Actor2_Country":null,"Code":36,"Class":1,"Action_Location":"Gauteng, Gauteng, South Africa","Lat":-26.0833,"Long":28.25,"Timestamp":20181105053000,"Source":"https:\/\/www.gov.za\/speeches\/gauteng-government-and-african-development-bank-brief-media-africa-investment-forum-2018-5"},{"ID":800061017,"Actor1":"AFRICA","Actor1_Country":"AFR","Actor2":"JOURNALIST","Actor2_Country":null,"Code":36,"Class":1,"Action_Location":"Gauteng, Gauteng, South Africa","Lat":-26.0833,"Long":28.25,"Timestamp":20181105053000,"Source":"https:\/\/www.gov.za\/speeches\/gauteng-government-and-african-development-bank-brief-media-africa-investment-forum-2018-5"},{"ID":800061018,"Actor1":"AFRICA","Actor1_Country":"AFR","Actor2":"JOURNALIST","Actor2_Country":null,"Code":42,"Class":1,"Action_Location":"Gauteng, Gauteng, South Africa","Lat":-26.0833,"Long":28.25,"Timestamp":20181105053000,"Source":"https:\/\/www.gov.za\/speeches\/gauteng-government-and-african-development-bank-brief-media-africa-investment-forum-2018-5"},{"ID":800061020,"Actor1":"DUBAI","Actor1_Country":"ARE","Actor2":"UNITED STATES","Actor2_Country":"USA","Code":111,"Class":3,"Action_Location":"Tehran, Tehran, Iran","Lat":35.75,"Long":51.5148,"Timestamp":20181105053000,"Source":"https:\/\/www.thenews.com.pk\/print\/389812-iranian-marchers-chant-death-to-america-on-eve-of-us-sanctions"},{"ID":800061021,"Actor1":"DUBAI","Actor1_Country":"ARE","Actor2":"THE US","Actor2_Country":"USA","Code":17,"Class":1,"Action_Location":"Washington, District of Columbia, United States","Lat":38.8951,"Long":-77.0364,"Timestamp":20181105053000,"Source":"https:\/\/www.thenews.com.pk\/print\/389812-iranian-marchers-chant-death-to-america-on-eve-of-us-sanctions"},{"ID":800061022,"Actor1":"DUBAI","Actor1_Country":"ARE","Actor2":"THE US","Actor2_Country":"USA","Code":17,"Class":1,"Action_Location":"Washington, District of Columbia, United States","Lat":38.8951,"Long":-77.0364,"Timestamp":20181105053000,"Source":"https:\/\/www.thenews.com.pk\/print\/389812-iranian-marchers-chant-death-to-america-on-eve-of-us-sanctions"},{"ID":800061023,"Actor1":"DUBAI","Actor1_Country":"ARE","Actor2":"THE US","Actor2_Country":"USA","Code":17,"Class":1,"Action_Location":"Tehran, Tehran, Iran","Lat":35.75,"Long":51.5148,"Timestamp":20181105053000,"Source":"https:\/\/www.thenews.com.pk\/print\/389812-iranian-marchers-chant-death-to-america-on-eve-of-us-sanctions"},{"ID":800061024,"Actor1":"DUBAI","Actor1_Country":"ARE","Actor2":"THE US","Actor2_Country":"USA","Code":17,"Class":1,"Action_Location":"Tehran, Tehran, Iran","Lat":35.75,"Long":51.5148,"Timestamp":20181105053000,"Source":"https:\/\/www.thenews.com.pk\/print\/389963-iranian-marchers-protest-against-us-oil-sanctions"},{"ID":800061025,"Actor1":"DUBAI","Actor1_Country":"ARE","Actor2":"THE US","Actor2_Country":"USA","Code":17,"Class":1,"Action_Location":"Tehran, Tehran, Iran","Lat":35.75,"Long":51.5148,"Timestamp":20181105053000,"Source":"https:\/\/www.thenews.com.pk\/print\/389963-iranian-marchers-protest-against-us-oil-sanctions"},{"ID":800061026,"Actor1":"DUBAI","Actor1_Country":"ARE","Actor2":"THE US","Actor2_Country":"USA","Code":111,"Class":3,"Action_Location":"Tehran, Tehran, Iran","Lat":35.75,"Long":51.5148,"Timestamp":20181105053000,"Source":"https:\/\/www.thenews.com.pk\/print\/389963-iranian-marchers-protest-against-us-oil-sanctions"},{"ID":800061027,"Actor1":"DUBAI","Actor1_Country":"ARE","Actor2":"THE US","Actor2_Country":"USA","Code":111,"Class":3,"Action_Location":"Tehran, Tehran, Iran","Lat":35.75,"Long":51.5148,"Timestamp":20181105053000,"Source":"https:\/\/www.thenews.com.pk\/print\/389812-iranian-marchers-chant-death-to-america-on-eve-of-us-sanctions"},{"ID":800061034,"Actor1":"ARGENTINA","Actor1_Country":"ARG","Actor2":"ARGENTINA","Actor2_Country":"ARG","Code":141,"Class":3,"Action_Location":"Buenos Aires, Distrito Federal, Argentina","Lat":-34.5875,"Long":-58.6725,"Timestamp":20181105053000,"Source":"https:\/\/www.greenwichtime.com\/news\/crime\/article\/Argentina-s-Fernandez-still-inspires-loyalty-13362626.php"},{"ID":800061035,"Actor1":"ARGENTINA","Actor1_Country":"ARG","Actor2":"ARGENTINA","Actor2_Country":"ARG","Code":141,"Class":3,"Action_Location":"Buenos Aires, Distrito Federal, Argentina","Lat":-34.5875,"Long":-58.6725,"Timestamp":20181105053000,"Source":"https:\/\/www.sfgate.com\/news\/crime\/article\/Argentina-s-Fernandez-still-inspires-loyalty-13362626.php"},{"ID":800061036,"Actor1":"ARGENTINA","Actor1_Country":"ARG","Actor2":"ARGENTINA","Actor2_Country":"ARG","Code":141,"Class":3,"Action_Location":"La Nacion, Chaco, Argentina","Lat":-24.6,"Long":-62.1333,"Timestamp":20181105053000,"Source":"https:\/\/www.greenwichtime.com\/news\/crime\/article\/Argentina-s-Fernandez-still-inspires-loyalty-13362626.php"},{"ID":800061037,"Actor1":"ARGENTINA","Actor1_Country":"ARG","Actor2":"PRISON","Actor2_Country":null,"Code":25,"Class":1,"Action_Location":"Buenos Aires, Distrito Federal, Argentina","Lat":-34.5875,"Long":-58.6725,"Timestamp":20181105053000,"Source":"https:\/\/www.sfgate.com\/news\/crime\/article\/Argentina-s-Fernandez-still-inspires-loyalty-13362626.php"},{"ID":800061038,"Actor1":"ARGENTINA","Actor1_Country":"ARG","Actor2":"PRISON","Actor2_Country":null,"Code":25,"Class":1,"Action_Location":"La Nacion, Chaco, Argentina","Lat":-24.6,"Long":-62.1333,"Timestamp":20181105053000,"Source":"https:\/\/www.greenwichtime.com\/news\/crime\/article\/Argentina-s-Fernandez-still-inspires-loyalty-13362626.php"},{"ID":800061039,"Actor1":"ARGENTINE","Actor1_Country":"ARG","Actor2":"PRESIDENT","Actor2_Country":null,"Code":173,"Class":4,"Action_Location":"Buenos Aires, Distrito Federal, Argentina","Lat":-34.5875,"Long":-58.6725,"Timestamp":20181105053000,"Source":"https:\/\/www.greenwichtime.com\/news\/crime\/article\/Argentina-s-Fernandez-still-inspires-loyalty-13362626.php"},{"ID":800061040,"Actor1":"ARGENTINE","Actor1_Country":"ARG","Actor2":"PROSECUTOR","Actor2_Country":null,"Code":112,"Class":3,"Action_Location":"Buenos Aires, Distrito Federal, Argentina","Lat":-34.5875,"Long":-58.6725,"Timestamp":20181105053000,"Source":"https:\/\/www.greenwichtime.com\/news\/crime\/article\/Argentina-s-Fernandez-still-inspires-loyalty-13362626.php"},{"ID":800061041,"Actor1":"ARMENIA","Actor1_Country":"ARM","Actor2":"FRESNO","Actor2_Country":"USA","Code":43,"Class":1,"Action_Location":"Gyumri, Shirak, Armenia","Lat":40.7942,"Long":43.8453,"Timestamp":20181105053000,"Source":"https:\/\/www.yourcentralvalley.com\/news\/the-valley-s-armenia-families-serving-on-the-mission-together\/1573374891"},{"ID":800061050,"Actor1":"MELBOURNE","Actor1_Country":"AUS","Actor2":"BRIDGETOWN","Actor2_Country":"BRB","Code":141,"Class":3,"Action_Location":"Melbourne, Victoria, Australia","Lat":-37.8167,"Long":144.967,"Timestamp":20181105053000,"Source":"https:\/\/www.donnybrookmail.com.au\/story\/5740707\/the-billionaire-the-melbourne-cup-and-that-g-string\/?cs=2996"},{"ID":800061051,"Actor1":"AUSTRALIA","Actor1_Country":"AUS","Actor2":"COMPANY","Actor2_Country":null,"Code":46,"Class":1,"Action_Location":"Sydney, New South Wales, Australia","Lat":-33.8833,"Long":151.217,"Timestamp":20181105053000,"Source":"https:\/\/markets.businessinsider.com\/news\/stocks\/collinson-appoints-todd-handcock-to-lead-the-company-s-asia-pacific-operations-1027688300"},{"ID":800061052,"Actor1":"AUSTRALIA","Actor1_Country":"AUS","Actor2":"COMPANY","Actor2_Country":null,"Code":46,"Class":1,"Action_Location":"United States","Lat":39.828175,"Long":-98.5795,"Timestamp":20181105053000,"Source":"https:\/\/markets.businessinsider.com\/news\/stocks\/collinson-appoints-todd-handcock-to-lead-the-company-s-asia-pacific-operations-1027688300"},{"ID":800061053,"Actor1":"AUSTRALIAN","Actor1_Country":"AUS","Actor2":"CHINA","Actor2_Country":"CHN","Code":192,"Class":4,"Action_Location":"Australia","Lat":-25.0,"Long":135.0,"Timestamp":20181105053000,"Source":"https:\/\/www.dealstreetasia.com\/stories\/webjet-destinations-of-the-world-acquisition-110507\/"},{"ID":800061054,"Actor1":"AUSTRALIAN","Actor1_Country":"AUS","Actor2":"CHINA","Actor2_Country":"CHN","Code":192,"Class":4,"Action_Location":"Japan","Lat":36.0,"Long":138.0,"Timestamp":20181105053000,"Source":"https:\/\/www.dealstreetasia.com\/stories\/webjet-destinations-of-the-world-acquisition-110507\/"},{"ID":800061055,"Actor1":"AUSTRALIA","Actor1_Country":"AUS","Actor2":"TOURIST","Actor2_Country":null,"Code":14,"Class":1,"Action_Location":"Bridgetown, Saint Michael, Barbados","Lat":13.1,"Long":-59.6167,"Timestamp":20181105053000,"Source":"https:\/\/www.donnybrookmail.com.au\/story\/5740665\/winx-and-hugh-bowman-set-for-silo-art-honour\/"},{"ID":800061056,"Actor1":"AUSTRALIA","Actor1_Country":"AUS","Actor2":"RESIDENTS","Actor2_Country":null,"Code":20,"Class":1,"Action_Location":"Melbourne, Victoria, Australia","Lat":-37.8167,"Long":144.967,"Timestamp":20181105053000,"Source":"https:\/\/www.abc.net.au\/news\/2018-11-05\/victorian-election-coalition-labor-woo-train-travellers\/10464810"},{"ID":800061057,"Actor1":"AUSTRALIA","Actor1_Country":"AUS","Actor2":"RESIDENTS","Actor2_Country":null,"Code":20,"Class":1,"Action_Location":"Melbourne, Victoria, Australia","Lat":-37.8167,"Long":144.967,"Timestamp":20181105053000,"Source":"https:\/\/www.abc.net.au\/news\/2018-11-05\/victorian-election-coalition-labor-woo-train-travellers\/10464810"},{"ID":800061058,"Actor1":"AUSTRALIAN","Actor1_Country":"AUS","Actor2":"HUNTER","Actor2_Country":null,"Code":51,"Class":1,"Action_Location":"Lake Macquarie, New South Wales, Australia","Lat":-33.0652,"Long":151.601,"Timestamp":20181105053000,"Source":"https:\/\/www.lakesmail.com.au\/story\/5740921\/labor-pitches-team-game-in-announcing-lake-candidate\/"},{"ID":800061059,"Actor1":"AUSTRALIA","Actor1_Country":"AUS","Actor2":"HUNTER","Actor2_Country":null,"Code":84,"Class":2,"Action_Location":"Lake Macquarie, New South Wales, Australia","Lat":-33.0652,"Long":151.601,"Timestamp":20181105053000,"Source":"https:\/\/www.lakesmail.com.au\/story\/5740921\/labor-pitches-team-game-in-announcing-lake-candidate\/"},{"ID":800061060,"Actor1":"AUSTRALIA","Actor1_Country":"AUS","Actor2":"RESIDENTS","Actor2_Country":null,"Code":172,"Class":4,"Action_Location":"Melbourne, Victoria, Australia","Lat":-37.8167,"Long":144.967,"Timestamp":20181105053000,"Source":"https:\/\/www.abc.net.au\/news\/2018-11-05\/victorian-election-coalition-labor-woo-train-travellers\/10464810"},{"ID":800061061,"Actor1":"AUSTRALIA","Actor1_Country":"AUS","Actor2":"RESIDENTS","Actor2_Country":null,"Code":172,"Class":4,"Action_Location":"Melbourne, Victoria, Australia","Lat":-37.8167,"Long":144.967,"Timestamp":20181105053000,"Source":"https:\/\/www.abc.net.au\/news\/2018-11-05\/victorian-election-coalition-labor-woo-train-travellers\/10464810"},{"ID":800061062,"Actor1":"AUSTRALIA","Actor1_Country":"AUS","Actor2":"NEW CALEDONIA","Actor2_Country":"FRA","Code":20,"Class":1,"Action_Location":"Sydney, New South Wales, Australia","Lat":-33.8833,"Long":151.217,"Timestamp":20181105053000,"Source":"http:\/\/babescapes.gallery\/2018\/11\/05\/new-caledonia-likely-to-reject-independence\/"},{"ID":800061063,"Actor1":"AUSTRALIA","Actor1_Country":"AUS","Actor2":"NEW CALEDONIA","Actor2_Country":"FRA","Code":20,"Class":1,"Action_Location":"Sydney, New South Wales, Australia","Lat":-33.8833,"Long":151.217,"Timestamp":20181105053000,"Source":"http:\/\/badmintonhq.net\/2018\/11\/new-caledonia-votes-to-stay-french-in-referendum-results\/"},{"ID":800061064,"Actor1":"AUSTRALIA","Actor1_Country":"AUS","Actor2":"PRIME MINISTER","Actor2_Country":null,"Code":43,"Class":1,"Action_Location":"Rockhampton, Queensland, Australia","Lat":-23.3803,"Long":150.506,"Timestamp":20181105053000,"Source":"https:\/\/www.sbs.com.au\/news\/sunshine-and-strawberries-on-qld-bus-tour"},{"ID":800061065,"Actor1":"AUSTRALIA","Actor1_Country":"AUS","Actor2":"PRIME MINISTER","Actor2_Country":null,"Code":43,"Class":1,"Action_Location":"Rockhampton, Queensland, Australia","Lat":-23.3803,"Long":150.506,"Timestamp":20181105053000,"Source":"https:\/\/www.sbs.com.au\/news\/sunshine-and-strawberries-on-qld-bus-tour"},{"ID":800061066,"Actor1":"AUSTRALIAN","Actor1_Country":"AUS","Actor2":"JAPAN","Actor2_Country":"JPN","Code":192,"Class":4,"Action_Location":"China","Lat":35.0,"Long":105.0,"Timestamp":20181105053000,"Source":"https:\/\/www.dealstreetasia.com\/stories\/webjet-destinations-of-the-world-acquisition-110507\/"},{"ID":800061067,"Actor1":"AUSTRALIAN","Actor1_Country":"AUS","Actor2":"JAPAN","Actor2_Country":"JPN","Code":192,"Class":4,"Action_Location":"China","Lat":35.0,"Long":105.0,"Timestamp":20181105053000,"Source":"https:\/\/www.dealstreetasia.com\/stories\/webjet-destinations-of-the-world-acquisition-110507\/"},{"ID":800061068,"Actor1":"AUSTRALIAN","Actor1_Country":"AUS","Actor2":"SOUTH KOREA","Actor2_Country":"KOR","Code":192,"Class":4,"Action_Location":"China","Lat":35.0,"Long":105.0,"Timestamp":20181105053000,"Source":"https:\/\/www.dealstreetasia.com\/stories\/webjet-destinations-of-the-world-acquisition-110507\/"},{"ID":800061069,"Actor1":"AUSTRALIA","Actor1_Country":"AUS","Actor2":"SOUTH KOREA","Actor2_Country":"KOR","Code":192,"Class":4,"Action_Location":"China","Lat":35.0,"Long":105.0,"Timestamp":20181105053000,"Source":"https:\/\/www.dealstreetasia.com\/stories\/webjet-destinations-of-the-world-acquisition-110507\/"},{"ID":800061070,"Actor1":"AUSTRALIAN","Actor1_Country":"AUS","Actor2":"SOUTH KOREA","Actor2_Country":"KOR","Code":192,"Class":4,"Action_Location":"China","Lat":35.0,"Long":105.0,"Timestamp":20181105053000,"Source":"https:\/\/www.dealstreetasia.com\/stories\/webjet-destinations-of-the-world-acquisition-110507\/"},{"ID":800061071,"Actor1":"AUSTRALIA","Actor1_Country":"AUS","Actor2":"SENATOR","Actor2_Country":null,"Code":51,"Class":1,"Action_Location":"Lake Macquarie, New South Wales, Australia","Lat":-33.0652,"Long":151.601,"Timestamp":20181105053000,"Source":"https:\/\/www.lakesmail.com.au\/story\/5740921\/labor-pitches-team-game-in-announcing-lake-candidate\/"},{"ID":800061072,"Actor1":"AUSTRALIA","Actor1_Country":"AUS","Actor2":"NEW ZEALAND","Actor2_Country":"NZL","Code":40,"Class":1,"Action_Location":"Sydney, New South Wales, Australia","Lat":-33.8833,"Long":151.217,"Timestamp":20181105053000,"Source":"https:\/\/www.traveldailynews.asia\/virtuoso-hits-the-road-across-australia-and-nz"},{"ID":800061073,"Actor1":"AUSTRALIA","Actor1_Country":"AUS","Actor2":"NEW ZEALAND","Actor2_Country":"NZL","Code":40,"Class":1,"Action_Location":"Sydney, New South Wales, Australia","Lat":-33.8833,"Long":151.217,"Timestamp":20181105053000,"Source":"https:\/\/www.traveldailynews.asia\/virtuoso-hits-the-road-across-australia-and-nz"},{"ID":800061074,"Actor1":"AUSTRALIA","Actor1_Country":"AUS","Actor2":"OPPOSITION LEADER","Actor2_Country":null,"Code":42,"Class":1,"Action_Location":"Melbourne, Victoria, Australia","Lat":-37.8167,"Long":144.967,"Timestamp":20181105053000,"Source":"https:\/\/www.abc.net.au\/news\/2018-11-05\/victorian-election-coalition-labor-woo-train-travellers\/10464810"},{"ID":800061075,"Actor1":"AUSTRALIA","Actor1_Country":"AUS","Actor2":"OPPOSITION LEADER","Actor2_Country":null,"Code":42,"Class":1,"Action_Location":"Melbourne, Victoria, Australia","Lat":-37.8167,"Long":144.967,"Timestamp":20181105053000,"Source":"https:\/\/www.abc.net.au\/news\/2018-11-05\/victorian-election-coalition-labor-woo-train-travellers\/10464810"},{"ID":800061076,"Actor1":"PERTH","Actor1_Country":"AUS","Actor2":"SIERRA LEONE","Actor2_Country":"SLE","Code":43,"Class":1,"Action_Location":"Perth, Western Australia, Australia","Lat":-31.9333,"Long":115.833,"Timestamp":20181105053000,"Source":"https:\/\/www.news.com.au\/national\/breaking-news\/sierra-leone-meth-mules-blame-third-party\/news-story\/4400fa9fc023d4455f72865c6608d311"},{"ID":800061077,"Actor1":"AUSTRALIA","Actor1_Country":"AUS","Actor2":"THAI","Actor2_Country":"THA","Code":10,"Class":1,"Action_Location":"New Zealand","Lat":-42.0,"Long":174.0,"Timestamp":20181105053000,"Source":"https:\/\/www.theweek.in\/wire-updates\/business\/2018\/11\/05\/pwr2--discovery.html"},{"ID":800061078,"Actor1":"AUSTRALIA","Actor1_Country":"AUS","Actor2":"THAI","Actor2_Country":"THA","Code":10,"Class":1,"Action_Location":"Thailand","Lat":15.0,"Long":100.0,"Timestamp":20181105053000,"Source":"https:\/\/www.theweek.in\/wire-updates\/business\/2018\/11\/05\/pwr2--discovery.html"},{"ID":800061079,"Actor1":"MELBOURNE","Actor1_Country":"AUS","Actor2":"ARARAT","Actor2_Country":"TUR","Code":141,"Class":3,"Action_Location":"Melbourne, Victoria, Australia","Lat":-37.8167,"Long":144.967,"Timestamp":20181105053000,"Source":"https:\/\/www.araratadvertiser.com.au\/story\/5740707\/the-billionaire-the-melbourne-cup-and-that-g-string\/?cs=2766"},{"ID":800061080,"Actor1":"AUSTRALIA","Actor1_Country":"AUS","Actor2":"UNITED STATES","Actor2_Country":"USA","Code":10,"Class":1,"Action_Location":"Russia","Lat":60.0,"Long":100.0,"Timestamp":20181105053000,"Source":"http:\/\/citynews.com.au\/2018\/arts-film-veterans-awarded-as-festival-closes\/"},{"ID":800061081,"Actor1":"AUSTRALIA","Actor1_Country":"AUS","Actor2":"UNITED STATES","Actor2_Country":"USA","Code":10,"Class":1,"Action_Location":"Russia","Lat":60.0,"Long":100.0,"Timestamp":20181105053000,"Source":"http:\/\/citynews.com.au\/2018\/arts-film-veterans-awarded-as-festival-closes\/"},{"ID":800061082,"Actor1":"AUSTRALIA","Actor1_Country":"AUS","Actor2":"UNITED STATES","Actor2_Country":"USA","Code":42,"Class":1,"Action_Location":"Canberra, Australian Capital Territory, Australia","Lat":-35.2833,"Long":149.217,"Timestamp":20181105053000,"Source":"http:\/\/citynews.com.au\/2018\/arts-film-veterans-awarded-as-festival-closes\/"},{"ID":800061083,"Actor1":"AUSTRALIA","Actor1_Country":"AUS","Actor2":"UNITED STATES","Actor2_Country":"USA","Code":42,"Class":1,"Action_Location":"United States","Lat":39.828175,"Long":-98.5795,"Timestamp":20181105053000,"Source":"http:\/\/citynews.com.au\/2018\/arts-film-veterans-awarded-as-festival-closes\/"},{"ID":800061084,"Actor1":"AUSTRALIA","Actor1_Country":"AUS","Actor2":"HUNTER","Actor2_Country":null,"Code":51,"Class":1,"Action_Location":"Lake Macquarie, New South Wales, Australia","Lat":-33.0652,"Long":151.601,"Timestamp":20181105053000,"Source":"https:\/\/www.lakesmail.com.au\/story\/5740921\/labor-pitches-team-game-in-announcing-lake-candidate\/"},{"ID":800061085,"Actor1":"AUSTRALIA","Actor1_Country":"AUS","Actor2":"BACKPACKER","Actor2_Country":null,"Code":120,"Class":3,"Action_Location":"Melbourne, Victoria, Australia","Lat":-37.8167,"Long":144.967,"Timestamp":20181105053000,"Source":"https:\/\/www.perthnow.com.au\/politics\/working-holiday-visa-restrictions-relaxed-ng-s-1903602"},{"ID":800061086,"Actor1":"BANGLADESH","Actor1_Country":"BGD","Actor2":"ILLEGAL IMMIGRANT","Actor2_Country":null,"Code":80,"Class":2,"Action_Location":"Ayodhya, Uttar Pradesh, India","Lat":26.8,"Long":82.2,"Timestamp":20181105053000,"Source":"http:\/\/indianewengland.com\/2018\/11\/hindu-seers-push-for-law-on-ram-temple-to-hold-meetings-across-nation\/"},{"ID":800061087,"Actor1":"BANGLADESH","Actor1_Country":"BGD","Actor2":"ILLEGAL IMMIGRANT","Actor2_Country":null,"Code":80,"Class":2,"Action_Location":"Bangladesh","Lat":24.0,"Long":90.0,"Timestamp":20181105053000,"Source":"http:\/\/indianewengland.com\/2018\/11\/hindu-seers-push-for-law-on-ram-temple-to-hold-meetings-across-nation\/"},{"ID":800061089,"Actor1":"BULGARIA","Actor1_Country":"BGR","Actor2":"ROMANIA","Actor2_Country":null,"Code":40,"Class":1,"Action_Location":"Craiova, Dolj, Romania","Lat":44.3167,"Long":23.8,"Timestamp":20181105053000,"Source":"http:\/\/matzav.com\/israeli-pm-netanyahu-asks-romania-to-help-significantly-change-the-eus-position-on-israel\/"},{"ID":800061090,"Actor1":"BULGARIA","Actor1_Country":"BGR","Actor2":"ROMANIAN","Actor2_Country":null,"Code":40,"Class":1,"Action_Location":"Viorica, Romania (general), Romania","Lat":43.9333,"Long":24.9167,"Timestamp":20181105053000,"Source":"http:\/\/matzav.com\/israeli-pm-netanyahu-asks-romania-to-help-significantly-change-the-eus-position-on-israel\/"},{"ID":800061091,"Actor1":"BULGARIA","Actor1_Country":"BGR","Actor2":"ROMANIA","Actor2_Country":null,"Code":40,"Class":1,"Action_Location":"Craiova, Dolj, Romania","Lat":44.3167,"Long":23.8,"Timestamp":20181105053000,"Source":"http:\/\/matzav.com\/israeli-pm-netanyahu-asks-romania-to-help-significantly-change-the-eus-position-on-israel\/"},{"ID":800061092,"Actor1":"BULGARIA","Actor1_Country":"BGR","Actor2":"ROMANIAN","Actor2_Country":null,"Code":40,"Class":1,"Action_Location":"Craiova, Dolj, Romania","Lat":44.3167,"Long":23.8,"Timestamp":20181105053000,"Source":"http:\/\/matzav.com\/israeli-pm-netanyahu-asks-romania-to-help-significantly-change-the-eus-position-on-israel\/"},{"ID":800061093,"Actor1":"VARNA","Actor1_Country":"BGR","Actor2":"ROMANIAN","Actor2_Country":null,"Code":40,"Class":1,"Action_Location":"Craiova, Dolj, Romania","Lat":44.3167,"Long":23.8,"Timestamp":20181105053000,"Source":"http:\/\/matzav.com\/israeli-pm-netanyahu-asks-romania-to-help-significantly-change-the-eus-position-on-israel\/"},{"ID":800061094,"Actor1":"LUBAVITCH","Actor1_Country":"BLR","Actor2":"NEIGHBORHOOD","Actor2_Country":null,"Code":44,"Class":1,"Action_Location":"Mumbai, Maharashtra, India","Lat":18.975,"Long":72.8258,"Timestamp":20181105053000,"Source":"https:\/\/www.chabad.org\/news\/article_cdo\/aid\/4186904\/jewish\/5600-Rabbis-and-Guests-Reflect-and-Celebrate-at-International-Banquet.htm"},{"ID":800061095,"Actor1":"LUBAVITCH","Actor1_Country":"BLR","Actor2":"UNITED STATES","Actor2_Country":"USA","Code":44,"Class":1,"Action_Location":"Jerusalem, Israel (general), Israel","Lat":31.7667,"Long":35.2333,"Timestamp":20181105053000,"Source":"https:\/\/www.chabad.org\/news\/article_cdo\/aid\/4186904\/jewish\/5600-Rabbis-and-Guests-Reflect-and-Celebrate-at-International-Banquet.htm"},{"ID":800061096,"Actor1":"LUBAVITCH","Actor1_Country":"BLR","Actor2":"UNITED STATES","Actor2_Country":"USA","Code":44,"Class":1,"Action_Location":"Mumbai, Maharashtra, India","Lat":18.975,"Long":72.8258,"Timestamp":20181105053000,"Source":"https:\/\/www.chabad.org\/news\/article_cdo\/aid\/4186904\/jewish\/5600-Rabbis-and-Guests-Reflect-and-Celebrate-at-International-Banquet.htm"},{"ID":800061122,"Actor1":"COMPANY","Actor1_Country":null,"Actor2":"UNITED ARAB EMIRATES","Actor2_Country":"ARE","Code":17,"Class":1,"Action_Location":"Dubai, Dubayy, United Arab Emirates","Lat":25.2522,"Long":55.28,"Timestamp":20181105053000,"Source":"https:\/\/www.theweek.in\/wire-updates\/international\/2018\/11\/05\/fes15-dubai-super30-award.html"},{"ID":800061123,"Actor1":"COMPANY","Actor1_Country":null,"Actor2":"AUSTRALIA","Actor2_Country":"AUS","Code":46,"Class":1,"Action_Location":"Sydney, New South Wales, Australia","Lat":-33.8833,"Long":151.217,"Timestamp":20181105053000,"Source":"https:\/\/markets.businessinsider.com\/news\/stocks\/collinson-appoints-todd-handcock-to-lead-the-company-s-asia-pacific-operations-1027688300"},{"ID":800061124,"Actor1":"COMPANY","Actor1_Country":null,"Actor2":"CHINA","Actor2_Country":"CHN","Code":10,"Class":1,"Action_Location":"Indonesia","Lat":-5.0,"Long":120.0,"Timestamp":20181105053000,"Source":"http:\/\/www.sharechat.co.nz\/article\/8bcdf7f4\/market-close-nz-stocks-fall-as-global-investors-grow-wary-z-energy-slides-further.html"},{"ID":800061125,"Actor1":"BUSINESS","Actor1_Country":null,"Actor2":"POLICE","Actor2_Country":null,"Code":193,"Class":4,"Action_Location":"Haverhill, Ohio, United States","Lat":38.5848,"Long":-82.8321,"Timestamp":20181105053000,"Source":"https:\/\/www.eagletribune.com\/project-search-student-shoots-for-career-in-photography\/article_5c8adf29-dea8-5288-bc32-89df869470e3.html"},{"ID":800061126,"Actor1":"COMPANY","Actor1_Country":null,"Actor2":"CUBA","Actor2_Country":"CUB","Code":10,"Class":1,"Action_Location":"Cuba","Lat":22.0,"Long":-79.5,"Timestamp":20181105053000,"Source":"https:\/\/southasiamonitor.org\/news\/us-embargo-stopped-indian-company-from-sending-medicine-to-cuba-un-told\/un-watch\/28383"},{"ID":800061127,"Actor1":"COMPANY","Actor1_Country":null,"Actor2":"CUBA","Actor2_Country":"CUB","Code":10,"Class":1,"Action_Location":"United States","Lat":39.828175,"Long":-98.5795,"Timestamp":20181105053000,"Source":"https:\/\/southasiamonitor.org\/news\/us-embargo-stopped-indian-company-from-sending-medicine-to-cuba-un-told\/un-watch\/28383"},{"ID":800061128,"Actor1":"COMPANY","Actor1_Country":null,"Actor2":"ENGINEER","Actor2_Country":null,"Code":10,"Class":1,"Action_Location":"Canada","Lat":60.0,"Long":-96.0,"Timestamp":20181105053000,"Source":"https:\/\/www.dailymail.co.uk\/news\/article-6353187\/General-Motors-begin-selling-electric-bicycles-beginning-2019.html"},{"ID":800061129,"Actor1":"COMPANIES","Actor1_Country":null,"Actor2":"GOVERNOR","Actor2_Country":null,"Code":46,"Class":1,"Action_Location":"Wisconsin, United States","Lat":44.2563,"Long":-89.6385,"Timestamp":20181105053000,"Source":"https:\/\/fox6now.com\/2018\/11\/04\/health-care-dominates-governors-race-during-final-weekend-of-campaigning\/"},{"ID":800061130,"Actor1":"COMPANIES","Actor1_Country":null,"Actor2":"INDONESIA","Actor2_Country":"IDN","Code":43,"Class":1,"Action_Location":"Indonesia","Lat":-5.0,"Long":120.0,"Timestamp":20181105053000,"Source":"https:\/\/www.theguardian.com\/commentisfree\/2018\/nov\/05\/for-us-to-tackle-climate-change-companies-need-to-pay-their-tax"},{"ID":800061131,"Actor1":"TANKER","Actor1_Country":null,"Actor2":"IRANIAN","Actor2_Country":"IRN","Code":20,"Class":1,"Action_Location":"Iran","Lat":32.0,"Long":53.0,"Timestamp":20181105053000,"Source":"https:\/\/www.shippingtribune.com\/newsdetails.php?s_id=10185"},{"ID":800061132,"Actor1":"BUSINESS","Actor1_Country":null,"Actor2":"IRAN","Actor2_Country":"IRN","Code":110,"Class":3,"Action_Location":"Tehran, Tehran, Iran","Lat":35.75,"Long":51.5148,"Timestamp":20181105053000,"Source":"https:\/\/www.jpost.com\/Middle-East\/Iran-News\/Why-is-the-US-letting-so-many-countries-get-Iran-sanctions-waivers-571085"},{"ID":800061133,"Actor1":"BUSINESS","Actor1_Country":null,"Actor2":"IRAN","Actor2_Country":"IRN","Code":110,"Class":3,"Action_Location":"Tehran, Tehran, Iran","Lat":35.75,"Long":51.5148,"Timestamp":20181105053000,"Source":"https:\/\/www.jpost.com\/Middle-East\/Iran-News\/Why-is-the-US-letting-so-many-countries-get-Iran-sanctions-waivers-571085"},{"ID":800061134,"Actor1":"COMPANY","Actor1_Country":null,"Actor2":"IRAN","Actor2_Country":"IRN","Code":163,"Class":4,"Action_Location":"Tehran, Tehran, Iran","Lat":35.75,"Long":51.5148,"Timestamp":20181105053000,"Source":"https:\/\/sputniknews.com\/middleeast\/201811051069507088-usa-iran-sanctions-take-effect-monday\/"},{"ID":800061135,"Actor1":"COMPANY","Actor1_Country":null,"Actor2":"IRAN","Actor2_Country":"IRN","Code":163,"Class":4,"Action_Location":"France","Lat":46.0,"Long":2.0,"Timestamp":20181105053000,"Source":"https:\/\/sputniknews.com\/middleeast\/201811051069507088-usa-iran-sanctions-take-effect-monday\/"},{"ID":800061136,"Actor1":"TANKER","Actor1_Country":null,"Actor2":"IRANIAN","Actor2_Country":"IRN","Code":20,"Class":1,"Action_Location":"Iran","Lat":32.0,"Long":53.0,"Timestamp":20181105053000,"Source":"https:\/\/www.shippingtribune.com\/newsdetails.php?s_id=10185"},{"ID":800061137,"Actor1":"BUSINESS","Actor1_Country":null,"Actor2":"ITALY","Actor2_Country":"ITA","Code":10,"Class":1,"Action_Location":"Italy","Lat":42.833333,"Long":12.833333,"Timestamp":20181105053000,"Source":"http:\/\/www.vulture.com\/2018\/11\/you-recap-season-1-episode-9-candace.html"},{"ID":800061138,"Actor1":"CORPORATION","Actor1_Country":null,"Actor2":"SOUTH KOREA","Actor2_Country":"KOR","Code":90,"Class":2,"Action_Location":"Seongnam, Kyonggi-do, South Korea","Lat":37.4386,"Long":127.138,"Timestamp":20181105053000,"Source":"https:\/\/www.dealstreetasia.com\/stories\/naver-corporation-dynamic-yield-series-d-110499\/"},{"ID":800061139,"Actor1":"EMPLOYER","Actor1_Country":null,"Actor2":"WORKER","Actor2_Country":null,"Code":42,"Class":1,"Action_Location":"Manila, Manila, Philippines","Lat":14.6042,"Long":120.982,"Timestamp":20181105053000,"Source":"https:\/\/www.manilatimes.net\/4m-metro-workers-to-get-p25-wage-hike-bello\/462574\/"},{"ID":800061140,"Actor1":"EMPLOYER","Actor1_Country":null,"Actor2":"WORKER","Actor2_Country":null,"Code":43,"Class":1,"Action_Location":"Manila, Manila, Philippines","Lat":14.6042,"Long":120.982,"Timestamp":20181105053000,"Source":"https:\/\/www.manilatimes.net\/4m-metro-workers-to-get-p25-wage-hike-bello\/462574\/"},{"ID":800061141,"Actor1":"BOSS","Actor1_Country":null,"Actor2":"MEXICO","Actor2_Country":"MEX","Code":36,"Class":1,"Action_Location":"Manchester, Manchester, United Kingdom","Lat":53.5,"Long":-2.21667,"Timestamp":20181105053000,"Source":"https:\/\/www.georgefm.co.nz\/home\/culture\/news\/here-s-all-the-netflix-shows-we-reckon-you-need-to-get-stuck-int.html"},{"ID":800061142,"Actor1":"COMPANIES","Actor1_Country":null,"Actor2":"THE GAP INC","Actor2_Country":"USA","Code":71,"Class":2,"Action_Location":"Haiti","Lat":19.0,"Long":-72.416667,"Timestamp":20181105053000,"Source":"http:\/\/www.brownpoliticalreview.org\/2018\/11\/the-problem-with-ngos-culture-and-inequality-in-haiti\/"},{"ID":800061143,"Actor1":"EMPLOYER","Actor1_Country":null,"Actor2":"PHILIPPINE","Actor2_Country":"PHL","Code":43,"Class":1,"Action_Location":"Manila, Manila, Philippines","Lat":14.6042,"Long":120.982,"Timestamp":20181105053000,"Source":"https:\/\/www.manilatimes.net\/4m-metro-workers-to-get-p25-wage-hike-bello\/462574\/"},{"ID":800061144,"Actor1":"COMPANY","Actor1_Country":null,"Actor2":"THAILAND","Actor2_Country":"THA","Code":40,"Class":1,"Action_Location":"Bangkok, Krung Thep Mahanakhon, Thailand","Lat":13.75,"Long":100.517,"Timestamp":20181105053000,"Source":"https:\/\/www.worldfinance.com\/wealth-management\/uob-asset-management-thailand-is-setting-the-standard-by-prioritising-sustainability"},{"ID":800061145,"Actor1":"BUSINESS","Actor1_Country":null,"Actor2":"UNITED STATES","Actor2_Country":"USA","Code":43,"Class":1,"Action_Location":"Bishop Leblond High School, Missouri, United States","Lat":39.7776,"Long":-94.8069,"Timestamp":20181105053000,"Source":"http:\/\/www.newspressnow.com\/news\/local_news\/business-owner-offers-practical-lessons-to-students\/article_0c13abed-2860-536c-9ac0-d2b95fe17386.html"},{"ID":800061146,"Actor1":"BUSINESS","Actor1_Country":null,"Actor2":"UNITED ARAB EMIRATES","Actor2_Country":"ARE","Code":17,"Class":1,"Action_Location":"Dubai, Dubayy, United Arab Emirates","Lat":25.2522,"Long":55.28,"Timestamp":20181105053000,"Source":"https:\/\/www.theweek.in\/wire-updates\/international\/2018\/11\/05\/fes15-dubai-super30-award.html"},{"ID":800061148,"Actor1":"BOTSWANA","Actor1_Country":"BWA","Actor2":"CHINA","Actor2_Country":"CHN","Code":10,"Class":1,"Action_Location":"Botswana","Lat":-22.0,"Long":24.0,"Timestamp":20181105053000,"Source":"http:\/\/www.mmegi.bw\/index.php?aid=78244&dir=2018\/november\/02"},{"ID":800061149,"Actor1":"BOTSWANA","Actor1_Country":"BWA","Actor2":"CHINA","Actor2_Country":"CHN","Code":10,"Class":1,"Action_Location":"China","Lat":35.0,"Long":105.0,"Timestamp":20181105053000,"Source":"http:\/\/www.mmegi.bw\/index.php?aid=78244&dir=2018\/november\/02"},{"ID":800061152,"Actor1":"CANADA","Actor1_Country":"CAN","Actor2":"UNIVERSITY","Actor2_Country":null,"Code":42,"Class":1,"Action_Location":"Canada","Lat":60.0,"Long":-96.0,"Timestamp":20181105053000,"Source":"http:\/\/www.jamaicaobserver.com\/all-woman\/alesha-foster-_148528?profile=1606"},{"ID":800061153,"Actor1":"CANADA","Actor1_Country":"CAN","Actor2":"FRANCE","Actor2_Country":"FRA","Code":42,"Class":1,"Action_Location":"Canada","Lat":60.0,"Long":-96.0,"Timestamp":20181105053000,"Source":"https:\/\/www.ghanavisions.com\/news\/world\/225421-how-the-great-war-s-battle-of-amiens-might-have-been-reported-today.html"},{"ID":800061154,"Actor1":"OTTAWA","Actor1_Country":"CAN","Actor2":"MEDIA","Actor2_Country":null,"Code":112,"Class":3,"Action_Location":"Ottawa, Ontario, Canada","Lat":45.4167,"Long":-75.7,"Timestamp":20181105053000,"Source":"https:\/\/www.thespec.com\/opinion-story\/9004041-editorial-conservatives-should-stop-the-media-bashing\/"},{"ID":800061155,"Actor1":"CANADIAN","Actor1_Country":"CAN","Actor2":"UNITED STATES","Actor2_Country":"USA","Code":43,"Class":1,"Action_Location":"United States","Lat":39.828175,"Long":-98.5795,"Timestamp":20181105053000,"Source":"https:\/\/www.kansascity.com\/opinion\/letters-to-the-editor\/article221094890.html"},{"ID":800061168,"Actor1":"CHINA","Actor1_Country":"CHN","Actor2":"AUSTRALIA","Actor2_Country":"AUS","Code":182,"Class":4,"Action_Location":"Australia","Lat":-25.0,"Long":135.0,"Timestamp":20181105053000,"Source":"http:\/\/www.sharechat.co.nz\/article\/8bcdf7f4\/market-close-nz-stocks-fall-as-global-investors-grow-wary-z-energy-slides-further.html"},{"ID":800061169,"Actor1":"CHINA","Actor1_Country":"CHN","Actor2":"AUSTRALIA","Actor2_Country":"AUS","Code":182,"Class":4,"Action_Location":"Australia","Lat":-25.0,"Long":135.0,"Timestamp":20181105053000,"Source":"http:\/\/www.sharechat.co.nz\/article\/8bcdf7f4\/market-close-nz-stocks-fall-as-global-investors-grow-wary-z-energy-slides-further.html"},{"ID":800061170,"Actor1":"CHINA","Actor1_Country":"CHN","Actor2":"COMPANY","Actor2_Country":null,"Code":13,"Class":1,"Action_Location":"China","Lat":35.0,"Long":105.0,"Timestamp":20181105053000,"Source":"http:\/\/www.sharechat.co.nz\/article\/8bcdf7f4\/market-close-nz-stocks-fall-as-global-investors-grow-wary-z-energy-slides-further.html"},{"ID":800061171,"Actor1":"CHINESE","Actor1_Country":"CHN","Actor2":"XI JINPING","Actor2_Country":"CHN","Code":42,"Class":1,"Action_Location":"Yangtze, China (general), China","Lat":31.7867,"Long":121.141,"Timestamp":20181105053000,"Source":"https:\/\/www.scmp.com\/tech\/article\/2171685\/chinese-memory-chip-maker-fujian-jinhua-says-theres-been-no-stealing-technology"},{"ID":800061172,"Actor1":"CHINESE","Actor1_Country":"CHN","Actor2":"XI JINPING","Actor2_Country":"CHN","Code":42,"Class":1,"Action_Location":"Zhongtai, Sichuan, China","Lat":31.3849,"Long":104.969,"Timestamp":20181105053000,"Source":"https:\/\/www.scmp.com\/tech\/article\/2171685\/chinese-memory-chip-maker-fujian-jinhua-says-theres-been-no-stealing-technology"},{"ID":800061173,"Actor1":"CHINA","Actor1_Country":"CHN","Actor2":"CHINA","Actor2_Country":"CHN","Code":43,"Class":1,"Action_Location":"Yangtze, China (general), China","Lat":31.7867,"Long":121.141,"Timestamp":20181105053000,"Source":"https:\/\/www.scmp.com\/tech\/article\/2171685\/chinese-memory-chip-maker-fujian-jinhua-says-theres-been-no-stealing-technology"},{"ID":800061174,"Actor1":"WUHAN","Actor1_Country":"CHN","Actor2":"CHINESE","Actor2_Country":"CHN","Code":43,"Class":1,"Action_Location":"Yangtze, China (general), China","Lat":31.7867,"Long":121.141,"Timestamp":20181105053000,"Source":"https:\/\/www.scmp.com\/tech\/article\/2171685\/chinese-memory-chip-maker-fujian-jinhua-says-theres-been-no-stealing-technology"},{"ID":800061175,"Actor1":"CHINESE","Actor1_Country":"CHN","Actor2":"TOURIST","Actor2_Country":null,"Code":42,"Class":1,"Action_Location":"Mount Everest, Nepal (general), Nepal","Lat":27.9884,"Long":86.9245,"Timestamp":20181105053000,"Source":"https:\/\/www.traveldailynews.asia\/tibets-pristine-mountain-top-environment-faces-tourism-boom"},{"ID":800061176,"Actor1":"CHINESE","Actor1_Country":"CHN","Actor2":"TOURIST","Actor2_Country":null,"Code":42,"Class":1,"Action_Location":"Tibet, Xizang, China","Lat":32.0,"Long":90.0,"Timestamp":20181105053000,"Source":"https:\/\/www.traveldailynews.asia\/tibets-pristine-mountain-top-environment-faces-tourism-boom"},{"ID":800061177,"Actor1":"CHINA","Actor1_Country":"CHN","Actor2":"DIPLOMAT","Actor2_Country":null,"Code":161,"Class":4,"Action_Location":"New Delhi, Delhi, India","Lat":28.6,"Long":77.2,"Timestamp":20181105053000,"Source":"https:\/\/www.scnow.com\/news\/headlines\/article_f8dbd4f4-9bab-5b9f-ab9c-1a18aa738ca7.html"},{"ID":800061178,"Actor1":"CHINA","Actor1_Country":"CHN","Actor2":"DIPLOMAT","Actor2_Country":null,"Code":161,"Class":4,"Action_Location":"Colombo, Western, Sri Lanka","Lat":6.93194,"Long":79.8478,"Timestamp":20181105053000,"Source":"https:\/\/www.chron.com\/news\/world\/article\/Rivals-China-India-cautiously-watch-Sri-Lankan-13362617.php"},{"ID":800061179,"Actor1":"CHINA","Actor1_Country":"CHN","Actor2":"DIPLOMAT","Actor2_Country":null,"Code":161,"Class":4,"Action_Location":"Beijing, Beijing, China","Lat":39.9289,"Long":116.388,"Timestamp":20181105053000,"Source":"https:\/\/www.chron.com\/news\/world\/article\/Rivals-China-India-cautiously-watch-Sri-Lankan-13362617.php"},{"ID":800061180,"Actor1":"CHINA","Actor1_Country":"CHN","Actor2":"SOVEREIGN","Actor2_Country":null,"Code":311,"Class":1,"Action_Location":"China","Lat":35.0,"Long":105.0,"Timestamp":20181105053000,"Source":"https:\/\/www.dealstreetasia.com\/stories\/aavishkaar-south-asia-110497\/"},{"ID":800061181,"Actor1":"CHINA","Actor1_Country":"CHN","Actor2":"SOVEREIGN","Actor2_Country":null,"Code":311,"Class":1,"Action_Location":"China","Lat":35.0,"Long":105.0,"Timestamp":20181105053000,"Source":"https:\/\/www.dealstreetasia.com\/stories\/aavishkaar-south-asia-110497\/"},{"ID":800061182,"Actor1":"CHINA","Actor1_Country":"CHN","Actor2":"JUDGE","Actor2_Country":null,"Code":10,"Class":1,"Action_Location":"Botswana","Lat":-22.0,"Long":24.0,"Timestamp":20181105053000,"Source":"http:\/\/www.mmegi.bw\/index.php?aid=78244&dir=2018\/november\/02"},{"ID":800061183,"Actor1":"BEIJING","Actor1_Country":"CHN","Actor2":"WORKER","Actor2_Country":null,"Code":42,"Class":1,"Action_Location":"Beijing, Beijing, China","Lat":39.9289,"Long":116.388,"Timestamp":20181105053000,"Source":"https:\/\/technode.com\/2018\/11\/05\/ofo-beijing-headquarters\/"},{"ID":800061184,"Actor1":"CHINA","Actor1_Country":"CHN","Actor2":"COLOMBO","Actor2_Country":"LKA","Code":40,"Class":1,"Action_Location":"Beijing, Beijing, China","Lat":39.9289,"Long":116.388,"Timestamp":20181105053000,"Source":"https:\/\/www.scnow.com\/news\/headlines\/article_f8dbd4f4-9bab-5b9f-ab9c-1a18aa738ca7.html"},{"ID":800061185,"Actor1":"CHINA","Actor1_Country":"CHN","Actor2":"COLOMBO","Actor2_Country":"LKA","Code":40,"Class":1,"Action_Location":"Colombo, Western, Sri Lanka","Lat":6.93194,"Long":79.8478,"Timestamp":20181105053000,"Source":"https:\/\/www.chron.com\/news\/world\/article\/Rivals-China-India-cautiously-watch-Sri-Lankan-13362617.php"},{"ID":800061186,"Actor1":"CHINA","Actor1_Country":"CHN","Actor2":"COLOMBO","Actor2_Country":"LKA","Code":40,"Class":1,"Action_Location":"Lu Kang, Anhui, China","Lat":31.2728,"Long":118.337,"Timestamp":20181105053000,"Source":"https:\/\/www.chron.com\/news\/world\/article\/Rivals-China-India-cautiously-watch-Sri-Lankan-13362617.php"},{"ID":800061187,"Actor1":"CHINESE","Actor1_Country":"CHN","Actor2":"COLOMBO","Actor2_Country":"LKA","Code":71,"Class":2,"Action_Location":"Lu Kang, Anhui, China","Lat":31.2728,"Long":118.337,"Timestamp":20181105053000,"Source":"https:\/\/www.chron.com\/news\/world\/article\/Rivals-China-India-cautiously-watch-Sri-Lankan-13362617.php"},{"ID":800061188,"Actor1":"CHINESE","Actor1_Country":"CHN","Actor2":"COLOMBO","Actor2_Country":"LKA","Code":71,"Class":2,"Action_Location":"Lu Kang, Anhui, China","Lat":31.2728,"Long":118.337,"Timestamp":20181105053000,"Source":"https:\/\/www.chron.com\/news\/world\/article\/Rivals-China-India-cautiously-watch-Sri-Lankan-13362617.php"},{"ID":800061189,"Actor1":"CHINA","Actor1_Country":"CHN","Actor2":"SRI LANKAN","Actor2_Country":"LKA","Code":90,"Class":2,"Action_Location":"Lu Kang, Anhui, China","Lat":31.2728,"Long":118.337,"Timestamp":20181105053000,"Source":"https:\/\/www.chron.com\/news\/world\/article\/Rivals-China-India-cautiously-watch-Sri-Lankan-13362617.php"},{"ID":800061190,"Actor1":"CHINA","Actor1_Country":"CHN","Actor2":"SRI LANKAN","Actor2_Country":"LKA","Code":90,"Class":2,"Action_Location":"New Delhi, Delhi, India","Lat":28.6,"Long":77.2,"Timestamp":20181105053000,"Source":"https:\/\/www.scnow.com\/news\/headlines\/article_f8dbd4f4-9bab-5b9f-ab9c-1a18aa738ca7.html"},{"ID":800061191,"Actor1":"CHINA","Actor1_Country":"CHN","Actor2":"SRI LANKAN","Actor2_Country":"LKA","Code":90,"Class":2,"Action_Location":"Colombo, Western, Sri Lanka","Lat":6.93194,"Long":79.8478,"Timestamp":20181105053000,"Source":"https:\/\/www.chron.com\/news\/world\/article\/Rivals-China-India-cautiously-watch-Sri-Lankan-13362617.php"},{"ID":800061192,"Actor1":"CHINA","Actor1_Country":"CHN","Actor2":"SRI LANKAN","Actor2_Country":"LKA","Code":1014,"Class":3,"Action_Location":"Colombo, Western, Sri Lanka","Lat":6.93194,"Long":79.8478,"Timestamp":20181105053000,"Source":"https:\/\/www.chron.com\/news\/world\/article\/Rivals-China-India-cautiously-watch-Sri-Lankan-13362617.php"},{"ID":800061193,"Actor1":"CHINA","Actor1_Country":"CHN","Actor2":"SRI LANKAN","Actor2_Country":"LKA","Code":1014,"Class":3,"Action_Location":"Lu Kang, Anhui, China","Lat":31.2728,"Long":118.337,"Timestamp":20181105053000,"Source":"https:\/\/www.scnow.com\/news\/headlines\/article_f8dbd4f4-9bab-5b9f-ab9c-1a18aa738ca7.html"},{"ID":800061194,"Actor1":"CHINA","Actor1_Country":"CHN","Actor2":"SRI LANKAN","Actor2_Country":"LKA","Code":1014,"Class":3,"Action_Location":"Lu Kang, Anhui, China","Lat":31.2728,"Long":118.337,"Timestamp":20181105053000,"Source":"https:\/\/www.chron.com\/news\/world\/article\/Rivals-China-India-cautiously-watch-Sri-Lankan-13362617.php"},{"ID":800061195,"Actor1":"CHINA","Actor1_Country":"CHN","Actor2":"SRI LANKAN","Actor2_Country":"LKA","Code":129,"Class":3,"Action_Location":"Lu Kang, Anhui, China","Lat":31.2728,"Long":118.337,"Timestamp":20181105053000,"Source":"https:\/\/www.chron.com\/news\/world\/article\/Rivals-China-India-cautiously-watch-Sri-Lankan-13362617.php"},{"ID":800061196,"Actor1":"CHINA","Actor1_Country":"CHN","Actor2":"SRI LANKAN","Actor2_Country":"LKA","Code":129,"Class":3,"Action_Location":"New Delhi, Delhi, India","Lat":28.6,"Long":77.2,"Timestamp":20181105053000,"Source":"https:\/\/www.scnow.com\/news\/headlines\/article_f8dbd4f4-9bab-5b9f-ab9c-1a18aa738ca7.html"},{"ID":800061197,"Actor1":"CHINA","Actor1_Country":"CHN","Actor2":"SRI LANKAN","Actor2_Country":"LKA","Code":129,"Class":3,"Action_Location":"Colombo, Western, Sri Lanka","Lat":6.93194,"Long":79.8478,"Timestamp":20181105053000,"Source":"https:\/\/www.chron.com\/news\/world\/article\/Rivals-China-India-cautiously-watch-Sri-Lankan-13362617.php"},{"ID":800061198,"Actor1":"CHINA","Actor1_Country":"CHN","Actor2":"SRI LANKAN","Actor2_Country":"LKA","Code":90,"Class":2,"Action_Location":"Lu Kang, Anhui, China","Lat":31.2728,"Long":118.337,"Timestamp":20181105053000,"Source":"https:\/\/www.chron.com\/news\/world\/article\/Rivals-China-India-cautiously-watch-Sri-Lankan-13362617.php"},{"ID":800061199,"Actor1":"CHINA","Actor1_Country":"CHN","Actor2":"SRI LANKAN","Actor2_Country":"LKA","Code":94,"Class":2,"Action_Location":"Colombo, Western, Sri Lanka","Lat":6.93194,"Long":79.8478,"Timestamp":20181105053000,"Source":"https:\/\/www.chron.com\/news\/world\/article\/Rivals-China-India-cautiously-watch-Sri-Lankan-13362617.php"},{"ID":800061200,"Actor1":"CHINA","Actor1_Country":"CHN","Actor2":"SRI LANKA","Actor2_Country":"LKA","Code":94,"Class":2,"Action_Location":"Lu Kang, Anhui, China","Lat":31.2728,"Long":118.337,"Timestamp":20181105053000,"Source":"https:\/\/www.scnow.com\/news\/headlines\/article_f8dbd4f4-9bab-5b9f-ab9c-1a18aa738ca7.html"},{"ID":800061201,"Actor1":"CHINA","Actor1_Country":"CHN","Actor2":"SRI LANKA","Actor2_Country":"LKA","Code":94,"Class":2,"Action_Location":"Lu Kang, Anhui, China","Lat":31.2728,"Long":118.337,"Timestamp":20181105053000,"Source":"https:\/\/www.chron.com\/news\/world\/article\/Rivals-China-India-cautiously-watch-Sri-Lankan-13362617.php"},{"ID":800061202,"Actor1":"CHINA","Actor1_Country":"CHN","Actor2":"SRI LANKAN","Actor2_Country":"LKA","Code":1014,"Class":3,"Action_Location":"Colombo, Western, Sri Lanka","Lat":6.93194,"Long":79.8478,"Timestamp":20181105053000,"Source":"https:\/\/www.chron.com\/news\/world\/article\/Rivals-China-India-cautiously-watch-Sri-Lankan-13362617.php"},{"ID":800061203,"Actor1":"CHINA","Actor1_Country":"CHN","Actor2":"SRI LANKAN","Actor2_Country":"LKA","Code":129,"Class":3,"Action_Location":"Lu Kang, Anhui, China","Lat":31.2728,"Long":118.337,"Timestamp":20181105053000,"Source":"https:\/\/www.chron.com\/news\/world\/article\/Rivals-China-India-cautiously-watch-Sri-Lankan-13362617.php"},{"ID":800061204,"Actor1":"CHINESE","Actor1_Country":"CHN","Actor2":"SPOKESMAN","Actor2_Country":null,"Code":40,"Class":1,"Action_Location":"Lu Kang, Anhui, China","Lat":31.2728,"Long":118.337,"Timestamp":20181105053000,"Source":"https:\/\/www.chron.com\/news\/world\/article\/Rivals-China-India-cautiously-watch-Sri-Lankan-13362617.php"},{"ID":800061205,"Actor1":"CHINESE","Actor1_Country":"CHN","Actor2":"SPOKESMAN","Actor2_Country":null,"Code":40,"Class":1,"Action_Location":"Temple Trees, Western, Sri Lanka","Lat":6.9149,"Long":79.8477,"Timestamp":20181105053000,"Source":"https:\/\/www.chron.com\/news\/world\/article\/Rivals-China-India-cautiously-watch-Sri-Lankan-13362617.php"},{"ID":800061206,"Actor1":"CHINA","Actor1_Country":"CHN","Actor2":"PAKISTAN","Actor2_Country":"PAK","Code":30,"Class":1,"Action_Location":"Pakistan","Lat":30.0,"Long":70.0,"Timestamp":20181105053000,"Source":"https:\/\/southasiamonitor.org\/news\/khan-s-visit-boosts-china-pak-ties\/inthenews\/28385"},{"ID":800061207,"Actor1":"CHINA","Actor1_Country":"CHN","Actor2":"PAKISTAN","Actor2_Country":"PAK","Code":30,"Class":1,"Action_Location":"Pakistan","Lat":30.0,"Long":70.0,"Timestamp":20181105053000,"Source":"https:\/\/southasiamonitor.org\/news\/khan-s-visit-boosts-china-pak-ties\/inthenews\/28385"},{"ID":800061208,"Actor1":"CHINA","Actor1_Country":"CHN","Actor2":"PAKISTAN","Actor2_Country":"PAK","Code":42,"Class":1,"Action_Location":"Shanghai, Shanghai, China","Lat":31.2222,"Long":121.458,"Timestamp":20181105053000,"Source":"https:\/\/www.thenews.com.pk\/latest\/389991-imran-khans-visit-infuses-momentum-in-pak-china-ties-global-times"},{"ID":800061209,"Actor1":"CHINA","Actor1_Country":"CHN","Actor2":"PAKISTAN","Actor2_Country":"PAK","Code":42,"Class":1,"Action_Location":"Islamabad, Islamabad, Pakistan","Lat":33.7,"Long":73.1667,"Timestamp":20181105053000,"Source":"https:\/\/www.thenews.com.pk\/latest\/389991-imran-khans-visit-infuses-momentum-in-pak-china-ties-global-times"},{"ID":800061210,"Actor1":"CHINA","Actor1_Country":"CHN","Actor2":"PAKISTAN","Actor2_Country":"PAK","Code":43,"Class":1,"Action_Location":"Beijing, Beijing, China","Lat":39.9289,"Long":116.388,"Timestamp":20181105053000,"Source":"https:\/\/southasiamonitor.org\/news\/khan-s-visit-boosts-china-pak-ties\/inthenews\/28385"},{"ID":800061211,"Actor1":"CHINA","Actor1_Country":"CHN","Actor2":"PAKISTAN","Actor2_Country":"PAK","Code":43,"Class":1,"Action_Location":"Beijing, Beijing, China","Lat":39.9289,"Long":116.388,"Timestamp":20181105053000,"Source":"https:\/\/southasiamonitor.org\/news\/khan-s-visit-boosts-china-pak-ties\/inthenews\/28385"},{"ID":800061212,"Actor1":"BEIJING","Actor1_Country":"CHN","Actor2":"PAKISTAN","Actor2_Country":"PAK","Code":50,"Class":1,"Action_Location":"Pakistan","Lat":30.0,"Long":70.0,"Timestamp":20181105053000,"Source":"https:\/\/southasiamonitor.org\/news\/khan-s-visit-boosts-china-pak-ties\/inthenews\/28385"},{"ID":800061213,"Actor1":"BEIJING","Actor1_Country":"CHN","Actor2":"PAKISTAN","Actor2_Country":"PAK","Code":50,"Class":1,"Action_Location":"Pakistan","Lat":30.0,"Long":70.0,"Timestamp":20181105053000,"Source":"https:\/\/southasiamonitor.org\/news\/khan-s-visit-boosts-china-pak-ties\/inthenews\/28385"},{"ID":800061214,"Actor1":"CHINA","Actor1_Country":"CHN","Actor2":"PAKISTAN","Actor2_Country":"PAK","Code":57,"Class":1,"Action_Location":"Beijing, Beijing, China","Lat":39.9289,"Long":116.388,"Timestamp":20181105053000,"Source":"https:\/\/southasiamonitor.org\/news\/khan-s-visit-boosts-china-pak-ties\/inthenews\/28385"},{"ID":800061215,"Actor1":"CHINA","Actor1_Country":"CHN","Actor2":"PAKISTAN","Actor2_Country":"PAK","Code":57,"Class":1,"Action_Location":"Pakistan","Lat":30.0,"Long":70.0,"Timestamp":20181105053000,"Source":"https:\/\/southasiamonitor.org\/news\/khan-s-visit-boosts-china-pak-ties\/inthenews\/28385"},{"ID":800061216,"Actor1":"CHINA","Actor1_Country":"CHN","Actor2":"PAKISTAN","Actor2_Country":"PAK","Code":57,"Class":1,"Action_Location":"Pakistan","Lat":30.0,"Long":70.0,"Timestamp":20181105053000,"Source":"https:\/\/southasiamonitor.org\/news\/khan-s-visit-boosts-china-pak-ties\/inthenews\/28385"},{"ID":800061217,"Actor1":"CHINESE","Actor1_Country":"CHN","Actor2":"PAKISTAN","Actor2_Country":"PAK","Code":46,"Class":1,"Action_Location":"Beijing, Beijing, China","Lat":39.9289,"Long":116.388,"Timestamp":20181105053000,"Source":"https:\/\/southasiamonitor.org\/news\/khan-s-visit-boosts-china-pak-ties\/inthenews\/28385"},{"ID":800061218,"Actor1":"CHINESE","Actor1_Country":"CHN","Actor2":"PAKISTAN","Actor2_Country":"PAK","Code":46,"Class":1,"Action_Location":"Pakistan","Lat":30.0,"Long":70.0,"Timestamp":20181105053000,"Source":"https:\/\/southasiamonitor.org\/news\/khan-s-visit-boosts-china-pak-ties\/inthenews\/28385"},{"ID":800061219,"Actor1":"CHINA","Actor1_Country":"CHN","Actor2":"RUSSIA","Actor2_Country":"RUS","Code":50,"Class":1,"Action_Location":"Russia","Lat":60.0,"Long":100.0,"Timestamp":20181105053000,"Source":"https:\/\/www.jpost.com\/Middle-East\/Iran-News\/Why-is-the-US-letting-so-many-countries-get-Iran-sanctions-waivers-571085"},{"ID":800061220,"Actor1":"CHINA","Actor1_Country":"CHN","Actor2":"RUSSIA","Actor2_Country":"RUS","Code":50,"Class":1,"Action_Location":"Russia","Lat":60.0,"Long":100.0,"Timestamp":20181105053000,"Source":"https:\/\/www.jpost.com\/Middle-East\/Iran-News\/Why-is-the-US-letting-so-many-countries-get-Iran-sanctions-waivers-571085"},{"ID":800061221,"Actor1":"SHANGHAI","Actor1_Country":"CHN","Actor2":"UNITED STATES","Actor2_Country":"USA","Code":43,"Class":1,"Action_Location":"Texas, United States","Lat":31.106,"Long":-97.6475,"Timestamp":20181105053000,"Source":"https:\/\/www.shippingtribune.com\/newsdetails.php?s_id=10188"},{"ID":800061222,"Actor1":"CHINA","Actor1_Country":"CHN","Actor2":"CHINESE","Actor2_Country":"CHN","Code":51,"Class":1,"Action_Location":"China","Lat":35.0,"Long":105.0,"Timestamp":20181105053000,"Source":"https:\/\/www.gizmochina.com\/2018\/11\/05\/honor-v20-and-mysterious-huawei-vce-al00-tl00-phone-spotted-on-cmiit-and-3c\/"},{"ID":800061225,"Actor1":"CHINA","Actor1_Country":"CHN","Actor2":"CHINA","Actor2_Country":"CHN","Code":42,"Class":1,"Action_Location":"Yangtze, China (general), China","Lat":31.7867,"Long":121.141,"Timestamp":20181105053000,"Source":"https:\/\/www.scmp.com\/tech\/article\/2171685\/chinese-memory-chip-maker-fujian-jinhua-says-theres-been-no-stealing-technology"},{"ID":800061226,"Actor1":"CHINESE","Actor1_Country":"CHN","Actor2":"WUHAN","Actor2_Country":"CHN","Code":42,"Class":1,"Action_Location":"Yangtze, China (general), China","Lat":31.7867,"Long":121.141,"Timestamp":20181105053000,"Source":"https:\/\/www.scmp.com\/tech\/article\/2171685\/chinese-memory-chip-maker-fujian-jinhua-says-theres-been-no-stealing-technology"},{"ID":800061227,"Actor1":"XI JINPING","Actor1_Country":"CHN","Actor2":"CHINESE","Actor2_Country":"CHN","Code":43,"Class":1,"Action_Location":"Yangtze, China (general), China","Lat":31.7867,"Long":121.141,"Timestamp":20181105053000,"Source":"https:\/\/www.scmp.com\/tech\/article\/2171685\/chinese-memory-chip-maker-fujian-jinhua-says-theres-been-no-stealing-technology"},{"ID":800061228,"Actor1":"XI JINPING","Actor1_Country":"CHN","Actor2":"CHINESE","Actor2_Country":"CHN","Code":43,"Class":1,"Action_Location":"Zhongtai, Sichuan, China","Lat":31.3849,"Long":104.969,"Timestamp":20181105053000,"Source":"https:\/\/www.scmp.com\/tech\/article\/2171685\/chinese-memory-chip-maker-fujian-jinhua-says-theres-been-no-stealing-technology"},{"ID":800061229,"Actor1":"XI JINPING","Actor1_Country":"CHN","Actor2":"CHINA","Actor2_Country":"CHN","Code":190,"Class":4,"Action_Location":"Shanghai, Shanghai, China","Lat":31.2222,"Long":121.458,"Timestamp":20181105053000,"Source":"https:\/\/www.thenews.com.pk\/latest\/389991-imran-khans-visit-infuses-momentum-in-pak-china-ties-global-times"},{"ID":800061230,"Actor1":"CHINESE","Actor1_Country":"CHN","Actor2":"XI JINPING","Actor2_Country":"CHN","Code":40,"Class":1,"Action_Location":"Shanghai, Shanghai, China","Lat":31.2222,"Long":121.458,"Timestamp":20181105053000,"Source":"https:\/\/www.thenews.com.pk\/latest\/389991-imran-khans-visit-infuses-momentum-in-pak-china-ties-global-times"},{"ID":800061231,"Actor1":"CHINA","Actor1_Country":"CHN","Actor2":"GOVERNMENT OFFICIAL","Actor2_Country":null,"Code":122,"Class":3,"Action_Location":"Shanghai, Shanghai, China","Lat":31.2222,"Long":121.458,"Timestamp":20181105053000,"Source":"https:\/\/newsline.com\/2018\/11\/05\/chinas-xi-again-talks-up-commitment-to-free-trade\/"},{"ID":800061232,"Actor1":"CHINA","Actor1_Country":"CHN","Actor2":"SRI LANKA","Actor2_Country":"LKA","Code":51,"Class":1,"Action_Location":"Temple Trees, Western, Sri Lanka","Lat":6.9149,"Long":79.8477,"Timestamp":20181105053000,"Source":"https:\/\/www.chron.com\/news\/world\/article\/Rivals-China-India-cautiously-watch-Sri-Lankan-13362617.php"},{"ID":800061233,"Actor1":"CHINA","Actor1_Country":"CHN","Actor2":"SRI LANKA","Actor2_Country":"LKA","Code":51,"Class":1,"Action_Location":"Temple Trees, Western, Sri Lanka","Lat":6.9149,"Long":79.8477,"Timestamp":20181105053000,"Source":"https:\/\/www.chron.com\/news\/world\/article\/Rivals-China-India-cautiously-watch-Sri-Lankan-13362617.php"},{"ID":800061234,"Actor1":"ROMAN CATHOLIC","Actor1_Country":null,"Actor2":"SAINT","Actor2_Country":null,"Code":42,"Class":1,"Action_Location":"Port-Au-Prince, Ouest, Haiti","Lat":18.5392,"Long":-72.335,"Timestamp":20181105053000,"Source":"https:\/\/www.sfgate.com\/news\/world\/article\/AP-PHOTOS-Haitians-celebrate-Festival-of-the-Dead-13362630.php"},{"ID":800061235,"Actor1":"ROMAN CATHOLIC","Actor1_Country":null,"Actor2":"SAINT","Actor2_Country":null,"Code":42,"Class":1,"Action_Location":"Port-Au-Prince, Ouest, Haiti","Lat":18.5392,"Long":-72.335,"Timestamp":20181105053000,"Source":"https:\/\/www.sfgate.com\/news\/world\/article\/AP-PHOTOS-Haitians-celebrate-Festival-of-the-Dead-13362630.php"},{"ID":800061236,"Actor1":"ROMAN CATHOLIC","Actor1_Country":null,"Actor2":"SAINT","Actor2_Country":null,"Code":42,"Class":1,"Action_Location":"Cite Soleil, Ouest, Haiti","Lat":18.5803,"Long":-72.3381,"Timestamp":20181105053000,"Source":"https:\/\/www.sfgate.com\/news\/world\/article\/AP-PHOTOS-Haitians-celebrate-Festival-of-the-Dead-13362630.php"},{"ID":800061237,"Actor1":"PROTESTANT","Actor1_Country":null,"Actor2":"CATHOLIC","Actor2_Country":null,"Code":40,"Class":1,"Action_Location":"White House, District of Columbia, United States","Lat":38.8951,"Long":-77.0364,"Timestamp":20181105053000,"Source":"https:\/\/www.law360.com\/articles\/1098098"},{"ID":800061238,"Actor1":"PROTESTANT","Actor1_Country":null,"Actor2":"CATHOLIC","Actor2_Country":null,"Code":40,"Class":1,"Action_Location":"Saudi Arabia","Lat":25.0,"Long":45.0,"Timestamp":20181105053000,"Source":"https:\/\/www.law360.com\/articles\/1098098"},{"ID":800061239,"Actor1":"METHODIST","Actor1_Country":null,"Actor2":"UNITED STATES","Actor2_Country":"USA","Code":110,"Class":3,"Action_Location":"Georgia, United States","Lat":32.9866,"Long":-83.6487,"Timestamp":20181105053000,"Source":"https:\/\/www.theintelligencer.com\/news\/politics\/article\/In-Georgia-Stacey-Abrams-faces-balancing-act-on-13353383.php"},{"ID":800061240,"Actor1":"METHODIST","Actor1_Country":null,"Actor2":"MISSISSIPPI","Actor2_Country":"USA","Code":110,"Class":3,"Action_Location":"Atlanta, Georgia, United States","Lat":33.749,"Long":-84.388,"Timestamp":20181105053000,"Source":"https:\/\/www.theintelligencer.com\/news\/politics\/article\/In-Georgia-Stacey-Abrams-faces-balancing-act-on-13353383.php"},{"ID":800061241,"Actor1":"METHODIST","Actor1_Country":null,"Actor2":"UNITED STATES","Actor2_Country":"USA","Code":110,"Class":3,"Action_Location":"Mississippi, United States","Lat":32.7673,"Long":-89.6812,"Timestamp":20181105053000,"Source":"https:\/\/www.theintelligencer.com\/news\/politics\/article\/In-Georgia-Stacey-Abrams-faces-balancing-act-on-13353383.php"},{"ID":800061260,"Actor1":"POLICE","Actor1_Country":null,"Actor2":"AUSTRALIA","Actor2_Country":"AUS","Code":190,"Class":4,"Action_Location":"Carlingford, New South Wales, Australia","Lat":-33.7833,"Long":151.05,"Timestamp":20181105053000,"Source":"https:\/\/www.news.com.au\/national\/breaking-news\/alleged-baby-formula-gang-member-charged\/news-story\/9bc15a362b51202174660e86ad727bec"},{"ID":800061262,"Actor1":"POLICE","Actor1_Country":null,"Actor2":"PRESIDENT","Actor2_Country":null,"Code":20,"Class":1,"Action_Location":"University School, Illinois, United States","Lat":37.7181,"Long":-89.2204,"Timestamp":20181105053000,"Source":"https:\/\/www.law360.com\/articles\/1093850"},{"ID":800061263,"Actor1":"POLICE OFFICER","Actor1_Country":null,"Actor2":"NORTH AMERICA","Actor2_Country":"NMR","Code":17,"Class":1,"Action_Location":"United States","Lat":39.828175,"Long":-98.5795,"Timestamp":20181105053000,"Source":"https:\/\/windsorstar.com\/news\/local-news\/every-important-windsor-story-part-of-star-history"},{"ID":800061264,"Actor1":"POLICE OFFICER","Actor1_Country":null,"Actor2":"NORTH AMERICA","Actor2_Country":"NMR","Code":193,"Class":4,"Action_Location":"United States","Lat":39.828175,"Long":-98.5795,"Timestamp":20181105053000,"Source":"https:\/\/windsorstar.com\/news\/local-news\/every-important-windsor-story-part-of-star-history"},{"ID":800061266,"Actor1":"POLICE OFFICER","Actor1_Country":null,"Actor2":"UNITED STATES","Actor2_Country":"USA","Code":17,"Class":1,"Action_Location":"United States","Lat":39.828175,"Long":-98.5795,"Timestamp":20181105053000,"Source":"https:\/\/windsorstar.com\/news\/local-news\/every-important-windsor-story-part-of-star-history"},{"ID":800061267,"Actor1":"POLICE","Actor1_Country":null,"Actor2":"UNITED STATES","Actor2_Country":"USA","Code":20,"Class":1,"Action_Location":"Chicago, Illinois, United States","Lat":41.85,"Long":-87.6501,"Timestamp":20181105053000,"Source":"https:\/\/www.law360.com\/articles\/1093850"},{"ID":800061268,"Actor1":"POLICE","Actor1_Country":null,"Actor2":"UNITED STATES","Actor2_Country":"USA","Code":42,"Class":1,"Action_Location":"Atlanta, Georgia, United States","Lat":33.749,"Long":-84.388,"Timestamp":20181105053000,"Source":"https:\/\/www.fox10tv.com\/news\/us_world_news\/dna-of-suspect-s-family-member-used-to-solve-murder\/article_8e4545b5-b9e2-589e-b782-715b36a7908f.html"},{"ID":800061269,"Actor1":"POLICE","Actor1_Country":null,"Actor2":"UNITED STATES","Actor2_Country":"USA","Code":42,"Class":1,"Action_Location":"Atlanta, Georgia, United States","Lat":33.749,"Long":-84.388,"Timestamp":20181105053000,"Source":"https:\/\/www.fox10tv.com\/news\/us_world_news\/dna-of-suspect-s-family-member-used-to-solve-murder\/article_8e4545b5-b9e2-589e-b782-715b36a7908f.html"},{"ID":800061270,"Actor1":"POLICE","Actor1_Country":null,"Actor2":"ALABAMA","Actor2_Country":"USA","Code":42,"Class":1,"Action_Location":"Alabama, United States","Lat":32.799,"Long":-86.8073,"Timestamp":20181105053000,"Source":"https:\/\/www.fox10tv.com\/news\/us_world_news\/dna-of-suspect-s-family-member-used-to-solve-murder\/article_8e4545b5-b9e2-589e-b782-715b36a7908f.html"},{"ID":800061271,"Actor1":"PRISON","Actor1_Country":null,"Actor2":"UNITED STATES","Actor2_Country":"USA","Code":42,"Class":1,"Action_Location":"North Carolina, United States","Lat":35.6411,"Long":-79.8431,"Timestamp":20181105053000,"Source":"https:\/\/www.geekgirlauthority.com\/outlander-season-premiere-recap-s04e01-america-beautiful\/"},{"ID":800061272,"Actor1":"PRISON","Actor1_Country":null,"Actor2":"UNITED STATES","Actor2_Country":"USA","Code":43,"Class":1,"Action_Location":"North Carolina, United States","Lat":35.6411,"Long":-79.8431,"Timestamp":20181105053000,"Source":"https:\/\/www.geekgirlauthority.com\/outlander-season-premiere-recap-s04e01-america-beautiful\/"},{"ID":800061273,"Actor1":"POLICE CHIEF","Actor1_Country":null,"Actor2":"UNITED STATES","Actor2_Country":"USA","Code":51,"Class":1,"Action_Location":"Barnesville, Ohio, United States","Lat":39.9881,"Long":-81.1765,"Timestamp":20181105053000,"Source":"http:\/\/www.timesleaderonline.com\/news\/local-news\/2018\/11\/first-responders-recognized\/"},{"ID":800061274,"Actor1":"POLICE OFFICER","Actor1_Country":null,"Actor2":"UNITED STATES","Actor2_Country":"USA","Code":190,"Class":4,"Action_Location":"Miami, Florida, United States","Lat":25.7743,"Long":-80.1937,"Timestamp":20181105053000,"Source":"http:\/\/www.vulture.com\/2018\/11\/theater-review-the-good-intentions-of-american-son.html"},{"ID":800061275,"Actor1":"POLICE","Actor1_Country":null,"Actor2":"UNITED STATES","Actor2_Country":"USA","Code":190,"Class":4,"Action_Location":"Atlanta, Georgia, United States","Lat":33.749,"Long":-84.388,"Timestamp":20181105053000,"Source":"https:\/\/www.fox10tv.com\/news\/us_world_news\/dna-of-suspect-s-family-member-used-to-solve-murder\/article_8e4545b5-b9e2-589e-b782-715b36a7908f.html"},{"ID":800061276,"Actor1":"POLICE","Actor1_Country":null,"Actor2":"UNITED STATES","Actor2_Country":"USA","Code":190,"Class":4,"Action_Location":"Alabama, United States","Lat":32.799,"Long":-86.8073,"Timestamp":20181105053000,"Source":"https:\/\/www.fox10tv.com\/news\/us_world_news\/dna-of-suspect-s-family-member-used-to-solve-murder\/article_8e4545b5-b9e2-589e-b782-715b36a7908f.html"},{"ID":800061277,"Actor1":"POLICE OFFICER","Actor1_Country":null,"Actor2":"UNITED STATES","Actor2_Country":"USA","Code":190,"Class":4,"Action_Location":"West Point, New York, United States","Lat":41.3915,"Long":-73.956,"Timestamp":20181105053000,"Source":"http:\/\/www.vulture.com\/2018\/11\/theater-review-the-good-intentions-of-american-son.html"},{"ID":800061278,"Actor1":"POLICE OFFICER","Actor1_Country":null,"Actor2":"UNITED STATES","Actor2_Country":"USA","Code":193,"Class":4,"Action_Location":"United States","Lat":39.828175,"Long":-98.5795,"Timestamp":20181105053000,"Source":"https:\/\/windsorstar.com\/news\/local-news\/every-important-windsor-story-part-of-star-history"},{"ID":800061279,"Actor1":"POLICE","Actor1_Country":null,"Actor2":"UNITED STATES","Actor2_Country":"USA","Code":20,"Class":1,"Action_Location":"Chicago, Illinois, United States","Lat":41.85,"Long":-87.6501,"Timestamp":20181105053000,"Source":"https:\/\/www.law360.com\/articles\/1093850"},{"ID":800061282,"Actor1":"DRUG DEALER","Actor1_Country":null,"Actor2":"UNITED STATES","Actor2_Country":"USA","Code":193,"Class":4,"Action_Location":"United States","Lat":39.828175,"Long":-98.5795,"Timestamp":20181105053000,"Source":"https:\/\/windsorstar.com\/news\/local-news\/every-important-windsor-story-part-of-star-history"},{"ID":800061284,"Actor1":"CUBAN","Actor1_Country":"CUB","Actor2":"ENVOY","Actor2_Country":null,"Code":190,"Class":4,"Action_Location":"Cuba","Lat":22.0,"Long":-79.5,"Timestamp":20181105053000,"Source":"https:\/\/tremontherald.com\/world\/un-overwhelmingly-supports-lifting-us-embargo-against-cuba\/259296\/"},{"ID":800061285,"Actor1":"CUBAN","Actor1_Country":"CUB","Actor2":"MOLDOVA","Actor2_Country":"MDA","Code":190,"Class":4,"Action_Location":"Cuba","Lat":22.0,"Long":-79.5,"Timestamp":20181105053000,"Source":"https:\/\/tremontherald.com\/world\/un-overwhelmingly-supports-lifting-us-embargo-against-cuba\/259296\/"},{"ID":800061286,"Actor1":"CUBAN","Actor1_Country":"CUB","Actor2":"MOLDOVA","Actor2_Country":"MDA","Code":190,"Class":4,"Action_Location":"Cuba","Lat":22.0,"Long":-79.5,"Timestamp":20181105053000,"Source":"https:\/\/tremontherald.com\/world\/un-overwhelmingly-supports-lifting-us-embargo-against-cuba\/259296\/"},{"ID":800061287,"Actor1":"CUBAN","Actor1_Country":"CUB","Actor2":"DPRK","Actor2_Country":"PRK","Code":46,"Class":1,"Action_Location":"Cuba","Lat":22.0,"Long":-79.5,"Timestamp":20181105053000,"Source":"http:\/\/www.xinhuanet.com\/english\/2018-11\/05\/c_137582787.htm"},{"ID":800061303,"Actor1":"HUNTER","Actor1_Country":null,"Actor2":"AUSTRALIA","Actor2_Country":"AUS","Code":84,"Class":2,"Action_Location":"Lake Macquarie, New South Wales, Australia","Lat":-33.0652,"Long":151.601,"Timestamp":20181105053000,"Source":"https:\/\/www.lakesmail.com.au\/story\/5740921\/labor-pitches-team-game-in-announcing-lake-candidate\/"},{"ID":800061304,"Actor1":"TOURIST","Actor1_Country":null,"Actor2":"CHINESE","Actor2_Country":"CHN","Code":43,"Class":1,"Action_Location":"Tibet, Xizang, China","Lat":32.0,"Long":90.0,"Timestamp":20181105053000,"Source":"https:\/\/www.traveldailynews.asia\/tibets-pristine-mountain-top-environment-faces-tourism-boom"},{"ID":800061305,"Actor1":"TOURIST","Actor1_Country":null,"Actor2":"CHINA","Actor2_Country":"CHN","Code":43,"Class":1,"Action_Location":"Tibet, Xizang, China","Lat":32.0,"Long":90.0,"Timestamp":20181105053000,"Source":"https:\/\/www.traveldailynews.asia\/tibets-pristine-mountain-top-environment-faces-tourism-boom"},{"ID":800061306,"Actor1":"VOTER","Actor1_Country":null,"Actor2":"PRESIDENT","Actor2_Country":null,"Code":60,"Class":2,"Action_Location":"Washington, District of Columbia, United States","Lat":38.8951,"Long":-77.0364,"Timestamp":20181105053000,"Source":"https:\/\/www.washingtonpost.com\/world\/2018\/11\/05\/what-are-midterm-elections\/"},{"ID":800061309,"Actor1":"VOTER","Actor1_Country":null,"Actor2":"CONGRESS","Actor2_Country":null,"Code":190,"Class":4,"Action_Location":"Berks County, Pennsylvania, United States","Lat":40.6254,"Long":-75.8749,"Timestamp":20181105053000,"Source":"https:\/\/www.readingeagle.com\/news\/article\/trump-motivates-enthusiasm-over-election"},{"ID":800061310,"Actor1":"VOTER","Actor1_Country":null,"Actor2":"CONGRESS","Actor2_Country":null,"Code":190,"Class":4,"Action_Location":"Pennsylvania, United States","Lat":40.5773,"Long":-77.264,"Timestamp":20181105053000,"Source":"https:\/\/www.readingeagle.com\/news\/article\/trump-motivates-enthusiasm-over-election"},{"ID":800061311,"Actor1":"MIGRANT","Actor1_Country":null,"Actor2":"SALVADORAN","Actor2_Country":"SLV","Code":43,"Class":1,"Action_Location":"La Hachadura, Ahuachap\u00e1ES, El Salvador","Lat":13.8442,"Long":-90.0922,"Timestamp":20181105053000,"Source":"https:\/\/www.michigansthumb.com\/news\/texas\/article\/Migrant-caravan-must-walk-as-Mexico-ignores-13353305.php"},{"ID":800061312,"Actor1":"MIGRANT","Actor1_Country":null,"Actor2":"SALVADORAN","Actor2_Country":"SLV","Code":43,"Class":1,"Action_Location":"Mexico City, Distrito Federal, Mexico","Lat":19.4342,"Long":-99.1386,"Timestamp":20181105053000,"Source":"https:\/\/www.michigansthumb.com\/news\/texas\/article\/Migrant-caravan-must-walk-as-Mexico-ignores-13353305.php"},{"ID":800061313,"Actor1":"MIGRANT","Actor1_Country":null,"Actor2":"SALVADORAN","Actor2_Country":"SLV","Code":43,"Class":1,"Action_Location":"Texas, United States","Lat":31.106,"Long":-97.6475,"Timestamp":20181105053000,"Source":"https:\/\/www.michigansthumb.com\/news\/texas\/article\/Migrant-caravan-must-walk-as-Mexico-ignores-13353305.php"},{"ID":800061314,"Actor1":"COMMUNITY","Actor1_Country":null,"Actor2":"UNITED STATES","Actor2_Country":"USA","Code":36,"Class":1,"Action_Location":"Waco, Texas, United States","Lat":31.5493,"Long":-97.1467,"Timestamp":20181105053000,"Source":"https:\/\/www.wacotrib.com\/news\/briefly\/waco-area-news-briefs-nov\/article_c0dc6f79-d862-59be-91a9-5eeeb707a490.html"},{"ID":800061315,"Actor1":"VILLAGE","Actor1_Country":null,"Actor2":"UNITED STATES","Actor2_Country":"USA","Code":40,"Class":1,"Action_Location":"Barnesville, Ohio, United States","Lat":39.9881,"Long":-81.1765,"Timestamp":20181105053000,"Source":"http:\/\/www.timesleaderonline.com\/news\/local-news\/2018\/11\/first-responders-recognized\/"},{"ID":800061316,"Actor1":"MIGRANT","Actor1_Country":null,"Actor2":"UNITED STATES","Actor2_Country":"USA","Code":42,"Class":1,"Action_Location":"Chattanooga, Tennessee, United States","Lat":35.0456,"Long":-85.3097,"Timestamp":20181105053000,"Source":"https:\/\/q107.com\/news\/4629244\/obama-trump-midterm-elections\/"},{"ID":800061317,"Actor1":"NEIGHBORHOOD","Actor1_Country":null,"Actor2":"UNITED STATES","Actor2_Country":"USA","Code":43,"Class":1,"Action_Location":"Philadelphia, Pennsylvania, United States","Lat":39.9523,"Long":-75.1638,"Timestamp":20181105053000,"Source":"https:\/\/scallywagandvagabond.com\/2018\/11\/connie-mella-philadephia-hate-letter\/"},{"ID":800061318,"Actor1":"MIGRANT","Actor1_Country":null,"Actor2":"UNITED STATES","Actor2_Country":"USA","Code":43,"Class":1,"Action_Location":"Chattanooga, Tennessee, United States","Lat":35.0456,"Long":-85.3097,"Timestamp":20181105053000,"Source":"https:\/\/q107.com\/news\/4629244\/obama-trump-midterm-elections\/"},{"ID":800061319,"Actor1":"HIKER","Actor1_Country":null,"Actor2":"UNITED STATES","Actor2_Country":"USA","Code":831,"Class":2,"Action_Location":"Alaska, United States","Lat":61.385,"Long":-152.268,"Timestamp":20181105053000,"Source":"http:\/\/www.medina-gazette.com\/Medina-County\/2018\/11\/04\/All-eyes-are-on-eagles.html"},{"ID":800061320,"Actor1":"COMMUNITY","Actor1_Country":null,"Actor2":"STUDENT","Actor2_Country":null,"Code":231,"Class":1,"Action_Location":"Bartholomew County, Indiana, United States","Lat":39.2014,"Long":-85.9214,"Timestamp":20181105053000,"Source":"http:\/\/www.therepublic.com\/2018\/11\/05\/university_news__november_5\/"},{"ID":800061321,"Actor1":"CZECH REPUBLIC","Actor1_Country":"CZE","Actor2":"SLOVAKIA","Actor2_Country":"SVK","Code":57,"Class":1,"Action_Location":"Netherlands","Lat":52.5,"Long":5.75,"Timestamp":20181105053000,"Source":"https:\/\/www.irishtimes.com\/business\/economy\/call-for-eu-bailout-to-have-additional-powers-1.3686074"},{"ID":800061322,"Actor1":"GERMAN","Actor1_Country":"DEU","Actor2":"GOVERNMENT","Actor2_Country":null,"Code":30,"Class":1,"Action_Location":"Germany","Lat":51.5,"Long":10.5,"Timestamp":20181105053000,"Source":"https:\/\/www.shippingtribune.com\/newsdetails.php?s_id=10186"},{"ID":800061323,"Actor1":"GERMANY","Actor1_Country":"DEU","Actor2":"GOVERNMENT","Actor2_Country":null,"Code":40,"Class":1,"Action_Location":"London, London, City of, United Kingdom","Lat":51.5,"Long":-0.116667,"Timestamp":20181105053000,"Source":"https:\/\/www.reuters.com\/article\/britain-press-business\/press-digest-british-business-nov-5-idUSL4N1XG1GW"},{"ID":800061324,"Actor1":"GERMAN","Actor1_Country":"DEU","Actor2":"GOVERNMENT","Actor2_Country":null,"Code":30,"Class":1,"Action_Location":"Germany","Lat":51.5,"Long":10.5,"Timestamp":20181105053000,"Source":"https:\/\/www.shippingtribune.com\/newsdetails.php?s_id=10186"},{"ID":800061325,"Actor1":"DJIBOUTI","Actor1_Country":"DJI","Actor2":"YEMEN","Actor2_Country":"YEM","Code":190,"Class":4,"Action_Location":"Hodeida, Al ?udaydah, Yemen","Lat":14.7978,"Long":42.9545,"Timestamp":20181105053000,"Source":"https:\/\/www.thenews.com.pk\/print\/389966-dozens-of-yemeni-rebels-killed-in-red-sea-port-city-medics"},{"ID":800061337,"Actor1":"UNIVERSITY","Actor1_Country":null,"Actor2":"CANADA","Actor2_Country":"CAN","Code":43,"Class":1,"Action_Location":"Canada","Lat":60.0,"Long":-96.0,"Timestamp":20181105053000,"Source":"http:\/\/www.jamaicaobserver.com\/all-woman\/alesha-foster-_148528?profile=1606"},{"ID":800061338,"Actor1":"INTELLECTUAL","Actor1_Country":null,"Actor2":"CHINA","Actor2_Country":"CHN","Code":10,"Class":1,"Action_Location":"Tokyo, Tokyo, Japan","Lat":35.685,"Long":139.751,"Timestamp":20181105053000,"Source":"https:\/\/asia.nikkei.com\/Economy\/China-s-new-law-set-to-tame-wild-online-marketplace"},{"ID":800061339,"Actor1":"STUDENT","Actor1_Country":null,"Actor2":"COMMUNITY","Actor2_Country":null,"Code":193,"Class":4,"Action_Location":"Florida, United States","Lat":27.8333,"Long":-81.717,"Timestamp":20181105053000,"Source":"https:\/\/www.wjhg.com\/content\/news\/Students-and-community-members-mourn-the-loss-of-Tallahassee-shooting-victims-499597671.html"},{"ID":800061340,"Actor1":"STUDENT","Actor1_Country":null,"Actor2":"HOSPITAL","Actor2_Country":null,"Code":13,"Class":1,"Action_Location":"Kurnool, Andhra Pradesh, India","Lat":15.8333,"Long":78.05,"Timestamp":20181105053000,"Source":"https:\/\/www.albuquerqueexpress.com\/news\/258244621\/rejected-teacher-slashes-throat-of-schoolgirl"},{"ID":800061341,"Actor1":"STUDENT","Actor1_Country":null,"Actor2":"HOSPITAL","Actor2_Country":null,"Code":120,"Class":3,"Action_Location":"Kurnool, Andhra Pradesh, India","Lat":15.8333,"Long":78.05,"Timestamp":20181105053000,"Source":"https:\/\/www.albuquerqueexpress.com\/news\/258244621\/rejected-teacher-slashes-throat-of-schoolgirl"},{"ID":800061342,"Actor1":"STUDENT","Actor1_Country":null,"Actor2":"STRIKING WORKER","Actor2_Country":null,"Code":51,"Class":1,"Action_Location":"Boston, Massachusetts, United States","Lat":42.3584,"Long":-71.0598,"Timestamp":20181105053000,"Source":"https:\/\/www.thecrimson.com\/article\/2018\/11\/5\/students-back-marriott-strike\/"},{"ID":800061343,"Actor1":"STUDENT","Actor1_Country":null,"Actor2":"STRIKING WORKER","Actor2_Country":null,"Code":51,"Class":1,"Action_Location":"Harvard University, Massachusetts, United States","Lat":42.3784,"Long":-71.1164,"Timestamp":20181105053000,"Source":"https:\/\/www.thecrimson.com\/article\/2018\/11\/5\/students-back-marriott-strike\/"},{"ID":800061344,"Actor1":"UNIVERSITY","Actor1_Country":null,"Actor2":"TEXAS","Actor2_Country":"USA","Code":36,"Class":1,"Action_Location":"Waco, Texas, United States","Lat":31.5493,"Long":-97.1467,"Timestamp":20181105053000,"Source":"https:\/\/www.wacotrib.com\/news\/briefly\/waco-area-news-briefs-nov\/article_c0dc6f79-d862-59be-91a9-5eeeb707a490.html"},{"ID":800061345,"Actor1":"STUDENT","Actor1_Country":null,"Actor2":"UNITED STATES","Actor2_Country":"USA","Code":141,"Class":3,"Action_Location":"Boston, Massachusetts, United States","Lat":42.3584,"Long":-71.0598,"Timestamp":20181105053000,"Source":"https:\/\/www.thecrimson.com\/article\/2018\/11\/5\/students-back-marriott-strike\/"},{"ID":800061346,"Actor1":"COLLEGE","Actor1_Country":null,"Actor2":"UNITED STATES","Actor2_Country":"USA","Code":43,"Class":1,"Action_Location":"United States","Lat":39.828175,"Long":-98.5795,"Timestamp":20181105053000,"Source":"https:\/\/www.mccormick.northwestern.edu\/news\/articles\/2018\/10\/professor-emeritus-johannes-weertman-passes-away.html"},{"ID":800061347,"Actor1":"UNIVERSITY","Actor1_Country":null,"Actor2":"NEW YORK","Actor2_Country":"USA","Code":42,"Class":1,"Action_Location":"Calcutta, West Bengal, India","Lat":22.5697,"Long":88.3697,"Timestamp":20181105053000,"Source":"https:\/\/www.telegraphindia.com\/science\/nobel-laureate-harold-varmus-is-a-free-radical\/cid\/1673831"},{"ID":800061348,"Actor1":"UNIVERSITY","Actor1_Country":null,"Actor2":"NEW YORK","Actor2_Country":"USA","Code":42,"Class":1,"Action_Location":"New York, United States","Lat":42.1497,"Long":-74.9384,"Timestamp":20181105053000,"Source":"https:\/\/www.telegraphindia.com\/science\/nobel-laureate-harold-varmus-is-a-free-radical\/cid\/1673831"},{"ID":800061349,"Actor1":"COLLEGE","Actor1_Country":null,"Actor2":"UNITED STATES","Actor2_Country":"USA","Code":42,"Class":1,"Action_Location":"United States","Lat":39.828175,"Long":-98.5795,"Timestamp":20181105053000,"Source":"https:\/\/www.castleton.edu\/calendars\/event\/first-generation-college-student-celebration\/2018-11-08\/"},{"ID":800061354,"Actor1":"EGYPT","Actor1_Country":"EGY","Actor2":"PALESTINIAN","Actor2_Country":"PSE","Code":18,"Class":1,"Action_Location":"Cairo, Al Qahirah, Egypt","Lat":30.05,"Long":31.25,"Timestamp":20181105053000,"Source":"http:\/\/matzav.com\/many-countries-planning-to-move-embassies-to-yerushalayim-official-says\/"},{"ID":800061355,"Actor1":"ACTOR","Actor1_Country":null,"Actor2":"RUSSIA","Actor2_Country":"RUS","Code":42,"Class":1,"Action_Location":"Russia","Lat":60.0,"Long":100.0,"Timestamp":20181105053000,"Source":"http:\/\/citynews.com.au\/2018\/arts-film-veterans-awarded-as-festival-closes\/"},{"ID":800061356,"Actor1":"ACTOR","Actor1_Country":null,"Actor2":"RUSSIA","Actor2_Country":"RUS","Code":42,"Class":1,"Action_Location":"United Kingdom","Lat":54.0,"Long":-4.0,"Timestamp":20181105053000,"Source":"http:\/\/citynews.com.au\/2018\/arts-film-veterans-awarded-as-festival-closes\/"},{"ID":800061357,"Actor1":"RETIRED","Actor1_Country":null,"Actor2":"AMERICAN","Actor2_Country":"USA","Code":13,"Class":1,"Action_Location":"Ohio, United States","Lat":40.3736,"Long":-82.7755,"Timestamp":20181105053000,"Source":"https:\/\/www.chron.com\/news\/article\/Museum-offers-free-admission-to-veterans-after-13362632.php"},{"ID":800061358,"Actor1":"RETIRED","Actor1_Country":null,"Actor2":"AMERICAN","Actor2_Country":"USA","Code":13,"Class":1,"Action_Location":"Ohio, United States","Lat":40.3736,"Long":-82.7755,"Timestamp":20181105053000,"Source":"https:\/\/www.chron.com\/news\/article\/Museum-offers-free-admission-to-veterans-after-13362632.php"},{"ID":800061360,"Actor1":"EUROPE","Actor1_Country":"EUR","Actor2":"REPATRIATE","Actor2_Country":null,"Code":181,"Class":4,"Action_Location":"Riyadh, Ar Riya?, Saudi Arabia","Lat":24.6408,"Long":46.7728,"Timestamp":20181105053000,"Source":"http:\/\/www.msn.com\/en-us\/news\/world\/saudi-campaign-to-abduct-and-silence-rivals-abroad-goes-back-decades\/ar-BBPl1yf"},{"ID":800061361,"Actor1":"EUROPEAN","Actor1_Country":"EUR","Actor2":"IRAN","Actor2_Country":"IRN","Code":874,"Class":2,"Action_Location":"Moscow, Moskva, Russia","Lat":55.7522,"Long":37.6156,"Timestamp":20181105053000,"Source":"https:\/\/www.shippingtribune.com\/newsdetails.php?s_id=10188"},{"ID":800061362,"Actor1":"EUROPEAN","Actor1_Country":"EUR","Actor2":"IRAN","Actor2_Country":"IRN","Code":874,"Class":2,"Action_Location":"Tehran, Tehran, Iran","Lat":35.75,"Long":51.5148,"Timestamp":20181105053000,"Source":"https:\/\/www.shippingtribune.com\/newsdetails.php?s_id=10188"},{"ID":800061363,"Actor1":"EUROPEAN","Actor1_Country":"EUR","Actor2":"IRAN","Actor2_Country":"IRN","Code":874,"Class":2,"Action_Location":"Moscow, Moskva, Russia","Lat":55.7522,"Long":37.6156,"Timestamp":20181105053000,"Source":"https:\/\/www.shippingtribune.com\/newsdetails.php?s_id=10188"},{"ID":800061366,"Actor1":"FIJIAN","Actor1_Country":"FJI","Actor2":"TRADER","Actor2_Country":null,"Code":90,"Class":2,"Action_Location":"Labasa, Northern, Fiji","Lat":-16.4167,"Long":179.383,"Timestamp":20181105053000,"Source":"http:\/\/www.fbc.com.fj\/fiji\/70520\/8-traders-under-investigation-as-diwali-prep-continues"},{"ID":800061367,"Actor1":"FIJI","Actor1_Country":"FJI","Actor2":"POLICE","Actor2_Country":null,"Code":10,"Class":1,"Action_Location":"Suva, Central, Fiji","Lat":-18.1333,"Long":178.417,"Timestamp":20181105053000,"Source":"http:\/\/www.fbc.com.fj\/fiji\/70516\/couple-facing-drug-charges-further-remanded-in-custody-"},{"ID":800061368,"Actor1":"SUVA","Actor1_Country":"FJI","Actor2":"FIJI","Actor2_Country":"FJI","Code":43,"Class":1,"Action_Location":"Suva, Central, Fiji","Lat":-18.1333,"Long":178.417,"Timestamp":20181105053000,"Source":"http:\/\/www.fbc.com.fj\/fiji\/70516\/couple-facing-drug-charges-further-remanded-in-custody-"},{"ID":800061370,"Actor1":"FIJI","Actor1_Country":"FJI","Actor2":"SUVA","Actor2_Country":"FJI","Code":42,"Class":1,"Action_Location":"Suva, Central, Fiji","Lat":-18.1333,"Long":178.417,"Timestamp":20181105053000,"Source":"http:\/\/www.fbc.com.fj\/fiji\/70516\/couple-facing-drug-charges-further-remanded-in-custody-"},{"ID":800061374,"Actor1":"FRANCE","Actor1_Country":"FRA","Actor2":"CANADA","Actor2_Country":"CAN","Code":43,"Class":1,"Action_Location":"Canada","Lat":60.0,"Long":-96.0,"Timestamp":20181105053000,"Source":"https:\/\/www.ghanavisions.com\/news\/world\/225421-how-the-great-war-s-battle-of-amiens-might-have-been-reported-today.html"},{"ID":800061375,"Actor1":"FRANCE","Actor1_Country":"FRA","Actor2":"NEW CALEDONIA","Actor2_Country":"FRA","Code":120,"Class":3,"Action_Location":"Noumea, New Caledonia (general), New Caledonia","Lat":-22.2667,"Long":166.45,"Timestamp":20181105053000,"Source":"https:\/\/www.thenews.com.pk\/print\/389815-france-s-pacific-pebble-new-caledonia-rejects-independence"},{"ID":800061383,"Actor1":"UNITED KINGDOM","Actor1_Country":"GBR","Actor2":"IRISH","Actor2_Country":"IRL","Code":172,"Class":4,"Action_Location":"London, London, City of, United Kingdom","Lat":51.5,"Long":-0.116667,"Timestamp":20181105053000,"Source":"https:\/\/www.arabianbusiness.com\/politics-economics\/407378-uk-eu-close-to-brexit-deal-over-irish-border-report"},{"ID":800061384,"Actor1":"UNITED KINGDOM","Actor1_Country":"GBR","Actor2":"MALE","Actor2_Country":"MDV","Code":43,"Class":1,"Action_Location":"Russia","Lat":60.0,"Long":100.0,"Timestamp":20181105053000,"Source":"http:\/\/citynews.com.au\/2018\/arts-film-veterans-awarded-as-festival-closes\/"},{"ID":800061385,"Actor1":"UNITED KINGDOM","Actor1_Country":"GBR","Actor2":"MALE","Actor2_Country":"MDV","Code":43,"Class":1,"Action_Location":"United Kingdom","Lat":54.0,"Long":-4.0,"Timestamp":20181105053000,"Source":"http:\/\/citynews.com.au\/2018\/arts-film-veterans-awarded-as-festival-closes\/"},{"ID":800061386,"Actor1":"UNITED KINGDOM","Actor1_Country":"GBR","Actor2":"MALE","Actor2_Country":"MDV","Code":43,"Class":1,"Action_Location":"United Kingdom","Lat":54.0,"Long":-4.0,"Timestamp":20181105053000,"Source":"http:\/\/citynews.com.au\/2018\/arts-film-veterans-awarded-as-festival-closes\/"},{"ID":800061387,"Actor1":"UNITED KINGDOM","Actor1_Country":"GBR","Actor2":"THAILAND","Actor2_Country":"THA","Code":43,"Class":1,"Action_Location":"Pimai, Nakhon Ratchasima, Thailand","Lat":15.2232,"Long":102.495,"Timestamp":20181105053000,"Source":"https:\/\/sootinclaimon.wordpress.com\/2018\/11\/05\/thailand-hopefully-to-get-back-over-60-looted-thai-artworks-from-overseas-2\/"},{"ID":800061388,"Actor1":"UNITED KINGDOM","Actor1_Country":"GBR","Actor2":"THAILAND","Actor2_Country":"THA","Code":43,"Class":1,"Action_Location":"Lopburi, Lop Buri, Thailand","Lat":14.7981,"Long":100.654,"Timestamp":20181105053000,"Source":"https:\/\/sootinclaimon.wordpress.com\/2018\/11\/05\/thailand-hopefully-to-get-back-over-60-looted-thai-artworks-from-overseas-2\/"},{"ID":800061389,"Actor1":"UNITED KINGDOM","Actor1_Country":"GBR","Actor2":"THAILAND","Actor2_Country":"THA","Code":43,"Class":1,"Action_Location":"United Kingdom","Lat":54.0,"Long":-4.0,"Timestamp":20181105053000,"Source":"https:\/\/sootinclaimon.wordpress.com\/2018\/11\/05\/thailand-hopefully-to-get-back-over-60-looted-thai-artworks-from-overseas-2\/"},{"ID":800061390,"Actor1":"UNITED KINGDOM","Actor1_Country":"GBR","Actor2":"NORTH CAROLINA","Actor2_Country":"USA","Code":36,"Class":1,"Action_Location":"North Carolina, United States","Lat":35.6411,"Long":-79.8431,"Timestamp":20181105053000,"Source":"https:\/\/www.geekgirlauthority.com\/outlander-season-premiere-recap-s04e01-america-beautiful\/"},{"ID":800061391,"Actor1":"UNITED KINGDOM","Actor1_Country":"GBR","Actor2":"THE US","Actor2_Country":"USA","Code":36,"Class":1,"Action_Location":"United Kingdom","Lat":54.0,"Long":-4.0,"Timestamp":20181105053000,"Source":"https:\/\/www.forexcrunch.com\/gbp-usd-weakening-from-1-3000-as-brexit-headlines-fail-to-keep-bulls-on-track\/"},{"ID":800061394,"Actor1":"GAMBIAN","Actor1_Country":"GMB","Actor2":"REBEL","Actor2_Country":null,"Code":20,"Class":1,"Action_Location":"Gambia","Lat":13.5,"Long":-15.5,"Timestamp":20181105053000,"Source":"https:\/\/www.msn.com\/en-us\/news\/world\/can-one-catholic-priest-put-an-end-to-36-years-of-war\/ar-BBPlFRY"},{"ID":800061421,"Actor1":"MAYOR","Actor1_Country":null,"Actor2":"AFGHANISTAN","Actor2_Country":"AFG","Code":42,"Class":1,"Action_Location":"Afghanistan","Lat":33.0,"Long":66.0,"Timestamp":20181105053000,"Source":"https:\/\/www.weau.com\/content\/news\/Funeral-plans-are-pending-for-Utah-Guard-major-499597711.html"},{"ID":800061422,"Actor1":"MAYOR","Actor1_Country":null,"Actor2":"AFGHANISTAN","Actor2_Country":"AFG","Code":42,"Class":1,"Action_Location":"Utah, United States","Lat":40.1135,"Long":-111.854,"Timestamp":20181105053000,"Source":"https:\/\/www.weau.com\/content\/news\/Funeral-plans-are-pending-for-Utah-Guard-major-499597711.html"},{"ID":800061423,"Actor1":"FOREIGN MINIST","Actor1_Country":null,"Actor2":"TALIBAN","Actor2_Country":"AFG","Code":36,"Class":1,"Action_Location":"Doha, Ad Daw?ah, Qatar","Lat":25.2867,"Long":51.5333,"Timestamp":20181105053000,"Source":"https:\/\/southasiamonitor.org\/news\/russia-to-host-talks-with-afghan-leaders-taliban\/inthenews\/28387"},{"ID":800061424,"Actor1":"PRESIDENT","Actor1_Country":null,"Actor2":"ARGENTINA","Actor2_Country":"ARG","Code":51,"Class":1,"Action_Location":"Buenos Aires, Distrito Federal, Argentina","Lat":-34.5875,"Long":-58.6725,"Timestamp":20181105053000,"Source":"https:\/\/www.greenwichtime.com\/news\/crime\/article\/Argentina-s-Fernandez-still-inspires-loyalty-13362626.php"},{"ID":800061425,"Actor1":"PRESIDENT","Actor1_Country":null,"Actor2":"ARGENTINA","Actor2_Country":"ARG","Code":141,"Class":3,"Action_Location":"Buenos Aires, Distrito Federal, Argentina","Lat":-34.5875,"Long":-58.6725,"Timestamp":20181105053000,"Source":"https:\/\/www.greenwichtime.com\/news\/crime\/article\/Argentina-s-Fernandez-still-inspires-loyalty-13362626.php"},{"ID":800061426,"Actor1":"GOVERNMENT","Actor1_Country":null,"Actor2":"AUSTRALIA","Actor2_Country":"AUS","Code":20,"Class":1,"Action_Location":"San Francisco, California, United States","Lat":37.7749,"Long":-122.419,"Timestamp":20181105053000,"Source":"https:\/\/sootinclaimon.wordpress.com\/2018\/11\/05\/thailand-hopefully-to-get-back-over-60-looted-thai-artworks-from-overseas-2\/"},{"ID":800061427,"Actor1":"PRIME MINISTER","Actor1_Country":null,"Actor2":"AUSTRALIA","Actor2_Country":"AUS","Code":42,"Class":1,"Action_Location":"Rockhampton, Queensland, Australia","Lat":-23.3803,"Long":150.506,"Timestamp":20181105053000,"Source":"https:\/\/www.sbs.com.au\/news\/sunshine-and-strawberries-on-qld-bus-tour"},