[{"ID": 800046622, "Actor1": "POLICE", "Actor1_Country": null, "Actor2": "MEDIA", "Actor2_Country": null, "Code": 111, "Class": 3, "Action_Location": "Kerala, Kerala, India", "Lat": 10.0, "Long": 76.5, "Timestamp": 20181105033000, "Source": "https://www.firstpost.com/india/sabarimala-temple-will-open-at-5-pm-for-special-puja-over-2300-kerala-cops-to-watch-over-protesters-prohibitory-orders-issued-5503431.html"}, {"ID": 800046624, "Actor1": "MEDIA", "Actor1_Country": null, "Actor2": "POLICE", "Actor2_Country": null, "Code": 111, "Class": 3, "Action_Location": "Kerala, Kerala, India", "Lat": 10.0, "Long": 76.5, "Timestamp": 20181105033000, "Source": "https://www.firstpost.com/india/sabarimala-temple-will-open-at-5-pm-for-special-puja-over-2300-kerala-cops-to-watch-over-protesters-prohibitory-orders-issued-5503431.html"}, {"ID": 800046626, "Actor1": "PROTESTER", "Actor1_Country": null, "Actor2": "MEDIA", "Actor2_Country": null, "Code": 111, "Class": 3, "Action_Location": "Kerala, Kerala, India", "Lat": 10.0, "Long": 76.5, "Timestamp": 20181105033000, "Source": "https://www.firstpost.com/india/sabarimala-temple-will-open-at-5-pm-for-special-puja-over-2300-kerala-cops-to-watch-over-protesters-prohibitory-orders-issued-5503431.html"}, {"ID": 800046633, "Actor1": "SWITZERLAND", "Actor1_Country": "CHE", "Actor2": "SWITZERLAND", "Actor2_Country": "CHE", "Code": 13, "Class": 1, "Action_Location": "Geneva, Gen\u00e8, Switzerland", "Lat": 46.1956, "Long": 6.14811, "Timestamp": 20181105033000, "Source": "https://www.businessinsider.com/r-saudi-backed-forces-advance-towards-yemens-hodeidah-as-un-warns-of-famine-2018-11"}, {"ID": 800046634, "Actor1": "SWITZERLAND", "Actor1_Country": "CHE", "Actor2": "SWITZERLAND", "Actor2_Country": "CHE", "Code": 14, "Class": 1, "Action_Location": "Geneva, Gen\u00e8, Switzerland", "Lat": 46.1956, "Long": 6.14811, "Timestamp": 20181105033000, "Source": "https://www.businessinsider.com/r-saudi-backed-forces-advance-towards-yemens-hodeidah-as-un-warns-of-famine-2018-11"}, {"ID": 800046635, "Actor1": "SWITZERLAND", "Actor1_Country": "CHE", "Actor2": "SWITZERLAND", "Actor2_Country": "CHE", "Code": 40, "Class": 1, "Action_Location": "Geneva, Gen\u00e8, Switzerland", "Lat": 46.1956, "Long": 6.14811, "Timestamp": 20181105033000, "Source": "https://www.businessinsider.com/r-saudi-backed-forces-advance-towards-yemens-hodeidah-as-un-warns-of-famine-2018-11"}, {"ID": 800046636, "Actor1": "SWITZERLAND", "Actor1_Country": "CHE", "Actor2": "SPECIAL ENVOY", "Actor2_Country": null, "Code": 13, "Class": 1, "Action_Location": "Geneva, Gen\u00e8, Switzerland", "Lat": 46.1956, "Long": 6.14811, "Timestamp": 20181105033000, "Source": "https://www.businessinsider.com/r-saudi-backed-forces-advance-towards-yemens-hodeidah-as-un-warns-of-famine-2018-11"}, {"ID": 800046637, "Actor1": "SWITZERLAND", "Actor1_Country": "CHE", "Actor2": "SPECIAL ENVOY", "Actor2_Country": null, "Code": 14, "Class": 1, "Action_Location": "Geneva, Gen\u00e8, Switzerland", "Lat": 46.1956, "Long": 6.14811, "Timestamp": 20181105033000, "Source": "https://www.businessinsider.com/r-saudi-backed-forces-advance-towards-yemens-hodeidah-as-un-warns-of-famine-2018-11"}, {"ID": 800046638, "Actor1": "SWITZERLAND", "Actor1_Country": "CHE", "Actor2": "SWITZERLAND", "Actor2_Country": "CHE", "Code": 40, "Class": 1, "Action_Location": "Geneva, Gen\u00e8, Switzerland", "Lat": 46.1956, "Long": 6.14811, "Timestamp": 20181105033000, "Source": "https://www.businessinsider.com/r-saudi-backed-forces-advance-towards-yemens-hodeidah-as-un-warns-of-famine-2018-11"}, {"ID": 800046650, "Actor1": "WASHINGTON", "Actor1_Country": "USA", "Actor2": "SAUDI", "Actor2_Country": "SAU", "Code": 20, "Class": 1, "Action_Location": "Riyadh, Ar Riya?, Saudi Arabia", "Lat": 24.6408, "Long": 46.7728, "Timestamp": 20181105033000, "Source": "https://www.yahoo.com/news/saudi-rights-record-un-spotlight-020445872.html"}, {"ID": 800046841, "Actor1": "AUSTRALIA", "Actor1_Country": "AUS", "Actor2": "REPRESENTATIVES", "Actor2_Country": null, "Code": 43, "Class": 1, "Action_Location": "Melbourne, Victoria, Australia", "Lat": -37.8167, "Long": 144.967, "Timestamp": 20181105033000, "Source": "https://www.mailtimes.com.au/story/5740564/imagine-a-15yo-jockey-riding-a-melbourne-cup-winner-it-happened/"}, {"ID": 800046843, "Actor1": "AUSTRALIA", "Actor1_Country": "AUS", "Actor2": "NEWS CORP", "Actor2_Country": "USA", "Code": 13, "Class": 1, "Action_Location": "Canberra, Australian Capital Territory, Australia", "Lat": -35.2833, "Long": 149.217, "Timestamp": 20181105033000, "Source": "http://www.xinhuanet.com/english/2018-11/05/c_137583007.htm"}, {"ID": 800046846, "Actor1": "BANGLADESH", "Actor1_Country": "BGD", "Actor2": "REFUGEE", "Actor2_Country": null, "Code": 182, "Class": 4, "Action_Location": "Bangladesh", "Lat": 24.0, "Long": 90.0, "Timestamp": 20181105033000, "Source": "https://aecnewstoday.com/2018/myanmar-morning-news-for-november-5/"}, {"ID": 800046848, "Actor1": "BANGLADESH", "Actor1_Country": "BGD", "Actor2": "REFUGEE", "Actor2_Country": null, "Code": 193, "Class": 4, "Action_Location": "Bangladesh", "Lat": 24.0, "Long": 90.0, "Timestamp": 20181105033000, "Source": "https://aecnewstoday.com/2018/myanmar-morning-news-for-november-5/"}, {"ID": 800046850, "Actor1": "BRAZIL", "Actor1_Country": "BRA", "Actor2": "GOVERNMENT", "Actor2_Country": null, "Code": 90, "Class": 2, "Action_Location": "Canada", "Lat": 60.0, "Long": -96.0, "Timestamp": 20181105033000, "Source": "https://www.japantimes.co.jp/?post_type=news&p=1563416"}, {"ID": 800046851, "Actor1": "BRAZIL", "Actor1_Country": "BRA", "Actor2": "GOVERNMENT", "Actor2_Country": null, "Code": 90, "Class": 2, "Action_Location": "United States", "Lat": 39.828175, "Long": -98.5795, "Timestamp": 20181105033000, "Source": "https://www.japantimes.co.jp/?post_type=news&p=1563416"}, {"ID": 800046862, "Actor1": "COMPANIES", "Actor1_Country": null, "Actor2": "SHANGHAI", "Actor2_Country": "CHN", "Code": 42, "Class": 1, "Action_Location": "Japan", "Lat": 36.0, "Long": 138.0, "Timestamp": 20181105033000, "Source": "https://www.sfgate.com/news/world/article/China-s-Xi-promises-market-opening-as-import-fair-13362424.php"}, {"ID": 800046863, "Actor1": "COMPANIES", "Actor1_Country": null, "Actor2": "SHANGHAI", "Actor2_Country": "CHN", "Code": 42, "Class": 1, "Action_Location": "Germany", "Lat": 51.5, "Long": 10.5, "Timestamp": 20181105033000, "Source": "http://www.startribune.com/china-s-xi-promises-market-opening-as-import-fair-begins/499591571/"}, {"ID": 800046864, "Actor1": "COMPANIES", "Actor1_Country": null, "Actor2": "SHANGHAI", "Actor2_Country": "CHN", "Code": 42, "Class": 1, "Action_Location": "Germany", "Lat": 51.5, "Long": 10.5, "Timestamp": 20181105033000, "Source": "http://www.startribune.com/china-s-xi-promises-market-opening-as-import-fair-begins/499591571/"}, {"ID": 800046865, "Actor1": "COMPANIES", "Actor1_Country": null, "Actor2": "GERMAN", "Actor2_Country": "DEU", "Code": 61, "Class": 2, "Action_Location": "Beijing, Beijing, China", "Lat": 39.9289, "Long": 116.388, "Timestamp": 20181105033000, "Source": "http://www.startribune.com/china-s-xi-promises-market-opening-as-import-fair-begins/499591571/"}, {"ID": 800046866, "Actor1": "COMPANIES", "Actor1_Country": null, "Actor2": "GERMAN", "Actor2_Country": "DEU", "Code": 61, "Class": 2, "Action_Location": "Washington, District of Columbia, United States", "Lat": 38.8951, "Long": -77.0364, "Timestamp": 20181105033000, "Source": "http://www.startribune.com/china-s-xi-promises-market-opening-as-import-fair-begins/499591571/"}, {"ID": 800046871, "Actor1": "BANK", "Actor1_Country": null, "Actor2": "ELECTORAL COMMISSION", "Actor2_Country": null, "Code": 71, "Class": 2, "Action_Location": "United Kingdom", "Lat": 54.0, "Long": -4.0, "Timestamp": 20181105033000, "Source": "https://www.dailymail.co.uk/news/article-6352953/DOMINIC-LAWSON-Arron-Banks-chancer-Lords-look-ridiculous-demanding-Peoples-Vote.html"}, {"ID": 800046893, "Actor1": "GENEVA", "Actor1_Country": "CHE", "Actor2": "SWITZERLAND", "Actor2_Country": "CHE", "Code": 51, "Class": 1, "Action_Location": "Geneva, Gen\u00e8, Switzerland", "Lat": 46.1956, "Long": 6.14811, "Timestamp": 20181105033000, "Source": "https://www.yahoo.com/news/saudi-rights-record-un-spotlight-020445872.html"}, {"ID": 800046894, "Actor1": "GENEVA", "Actor1_Country": "CHE", "Actor2": "SWITZERLAND", "Actor2_Country": "CHE", "Code": 51, "Class": 1, "Action_Location": "Riyadh, Ar Riya?, Saudi Arabia", "Lat": 24.6408, "Long": 46.7728, "Timestamp": 20181105033000, "Source": "https://www.yahoo.com/news/saudi-rights-record-un-spotlight-020445872.html"}, {"ID": 800046895, "Actor1": "GENEVA", "Actor1_Country": "CHE", "Actor2": "CHINA", "Actor2_Country": "CHN", "Code": 20, "Class": 1, "Action_Location": "Geneva, Gen\u00e8, Switzerland", "Lat": 46.1956, "Long": 6.14811, "Timestamp": 20181105033000, "Source": "https://www.japantimes.co.jp/?post_type=news&p=1563335"}, {"ID": 800046897, "Actor1": "GENEVA", "Actor1_Country": "CHE", "Actor2": "THE UN", "Actor2_Country": null, "Code": 43, "Class": 1, "Action_Location": "Geneva, Gen\u00e8, Switzerland", "Lat": 46.1956, "Long": 6.14811, "Timestamp": 20181105033000, "Source": "https://www.yahoo.com/news/saudi-rights-record-un-spotlight-020445872.html"}, {"ID": 800046898, "Actor1": "GENEVA", "Actor1_Country": "CHE", "Actor2": "JOURNALIST", "Actor2_Country": null, "Code": 51, "Class": 1, "Action_Location": "Geneva, Gen\u00e8, Switzerland", "Lat": 46.1956, "Long": 6.14811, "Timestamp": 20181105033000, "Source": "https://www.yahoo.com/news/saudi-rights-record-un-spotlight-020445872.html"}, {"ID": 800046899, "Actor1": "SWITZERLAND", "Actor1_Country": "CHE", "Actor2": "JOURNALIST", "Actor2_Country": null, "Code": 51, "Class": 1, "Action_Location": "Riyadh, Ar Riya?, Saudi Arabia", "Lat": 24.6408, "Long": 46.7728, "Timestamp": 20181105033000, "Source": "https://www.yahoo.com/news/saudi-rights-record-un-spotlight-020445872.html"}, {"ID": 800046900, "Actor1": "GENEVA", "Actor1_Country": "CHE", "Actor2": "JOURNALIST", "Actor2_Country": null, "Code": 51, "Class": 1, "Action_Location": "Riyadh, Ar Riya?, Saudi Arabia", "Lat": 24.6408, "Long": 46.7728, "Timestamp": 20181105033000, "Source": "https://www.yahoo.com/news/saudi-rights-record-un-spotlight-020445872.html"}, {"ID": 800046901, "Actor1": "GENEVA", "Actor1_Country": "CHE", "Actor2": "JOURNALIST", "Actor2_Country": null, "Code": 51, "Class": 1, "Action_Location": "Riyadh, Ar Riya?, Saudi Arabia", "Lat": 24.6408, "Long": 46.7728, "Timestamp": 20181105033000, "Source": "https://www.yahoo.com/news/saudi-rights-record-un-spotlight-020445872.html"}, {"ID": 800046908, "Actor1": "SHANGHAI", "Actor1_Country": "CHN", "Actor2": "COMPANIES", "Actor2_Country": null, "Code": 43, "Class": 1, "Action_Location": "Japan", "Lat": 36.0, "Long": 138.0, "Timestamp": 20181105033000, "Source": "https://www.sfgate.com/news/world/article/China-s-Xi-promises-market-opening-as-import-fair-13362424.php"}, {"ID": 800046909, "Actor1": "SHANGHAI", "Actor1_Country": "CHN", "Actor2": "COMPANIES", "Actor2_Country": null, "Code": 43, "Class": 1, "Action_Location": "Germany", "Lat": 51.5, "Long": 10.5, "Timestamp": 20181105033000, "Source": "http://www.startribune.com/china-s-xi-promises-market-opening-as-import-fair-begins/499591571/"}, {"ID": 800046910, "Actor1": "SHANGHAI", "Actor1_Country": "CHN", "Actor2": "COMPANIES", "Actor2_Country": null, "Code": 43, "Class": 1, "Action_Location": "Germany", "Lat": 51.5, "Long": 10.5, "Timestamp": 20181105033000, "Source": "http://www.startribune.com/china-s-xi-promises-market-opening-as-import-fair-begins/499591571/"}, {"ID": 800046916, "Actor1": "CHINA", "Actor1_Country": "CHN", "Actor2": "MINORITIES", "Actor2_Country": null, "Code": 90, "Class": 2, "Action_Location": "Xinjiang, Jiangxi, China", "Lat": 27.7481, "Long": 116.274, "Timestamp": 20181105033000, "Source": "https://www.japantimes.co.jp/?post_type=news&p=1563335"}, {"ID": 800046917, "Actor1": "SHANGHAI", "Actor1_Country": "CHN", "Actor2": "EGYPT", "Actor2_Country": "EGY", "Code": 43, "Class": 1, "Action_Location": "Japan", "Lat": 36.0, "Long": 138.0, "Timestamp": 20181105033000, "Source": "https://www.sfgate.com/news/world/article/China-s-Xi-promises-market-opening-as-import-fair-13362424.php"}, {"ID": 800046918, "Actor1": "SHANGHAI", "Actor1_Country": "CHN", "Actor2": "EGYPT", "Actor2_Country": "EGY", "Code": 43, "Class": 1, "Action_Location": "Germany", "Lat": 51.5, "Long": 10.5, "Timestamp": 20181105033000, "Source": "http://www.startribune.com/china-s-xi-promises-market-opening-as-import-fair-begins/499591571/"}, {"ID": 800046919, "Actor1": "CHINESE", "Actor1_Country": "CHN", "Actor2": "MEDIA", "Actor2_Country": null, "Code": 10, "Class": 1, "Action_Location": "Beijing, Beijing, China", "Lat": 39.9289, "Long": 116.388, "Timestamp": 20181105033000, "Source": "https://www.oneindia.com/international/china-will-help-pak-but-latter-needs-to-use-funds-efficiently-says-chinese-media-2803651.html"}, {"ID": 800046925, "Actor1": "CHINA", "Actor1_Country": "CHN", "Actor2": "THE INTERNATIONAL COMMUNITY", "Actor2_Country": null, "Code": 10, "Class": 1, "Action_Location": "Xinjiang, Jiangxi, China", "Lat": 27.7481, "Long": 116.274, "Timestamp": 20181105033000, "Source": "https://www.japantimes.co.jp/?post_type=news&p=1563335"}, {"ID": 800046926, "Actor1": "CHINESE", "Actor1_Country": "CHN", "Actor2": "REUTERS", "Actor2_Country": "USA", "Code": 17, "Class": 1, "Action_Location": "Shanghai, Shanghai, China", "Lat": 31.2222, "Long": 121.458, "Timestamp": 20181105033000, "Source": "https://uk.reuters.com/article/uk-china-economy-tariff/chinas-xi-promises-lower-tariffs-broader-market-access-idUKKCN1NA05B"}, {"ID": 800046927, "Actor1": "CHINESE", "Actor1_Country": "CHN", "Actor2": "REUTERS", "Actor2_Country": "USA", "Code": 42, "Class": 1, "Action_Location": "Shanghai, Shanghai, China", "Lat": 31.2222, "Long": 121.458, "Timestamp": 20181105033000, "Source": "https://uk.reuters.com/article/uk-china-economy-tariff/chinas-xi-promises-lower-tariffs-broader-market-access-idUKKCN1NA05B"}, {"ID": 800046931, "Actor1": "CHINA", "Actor1_Country": "CHN", "Actor2": "UIGHUR", "Actor2_Country": null, "Code": 10, "Class": 1, "Action_Location": "Xinjiang, Jiangxi, China", "Lat": 27.7481, "Long": 116.274, "Timestamp": 20181105033000, "Source": "https://www.japantimes.co.jp/?post_type=news&p=1563335"}, {"ID": 800046934, "Actor1": "CHINA", "Actor1_Country": "CHN", "Actor2": "CHINESE", "Actor2_Country": "CHN", "Code": 36, "Class": 1, "Action_Location": "Beijing, Beijing, China", "Lat": 39.9289, "Long": 116.388, "Timestamp": 20181105033000, "Source": "https://www.dawn.com/news/1443674/imran-xi-call-for-timely-completion-of-cpec-projects"}, {"ID": 800046975, "Actor1": "POLICE", "Actor1_Country": null, "Actor2": "INTERIOR MINIST", "Actor2_Country": null, "Code": 10, "Class": 1, "Action_Location": "Gujranwala, Punjab, Pakistan", "Lat": 32.15, "Long": 74.1833, "Timestamp": 20181105033000, "Source": "https://www.dawn.com/news/1443698/over-1100-held-for-rioting-during-protest-against-aasias-acquittal"}, {"ID": 800046976, "Actor1": "POLICE", "Actor1_Country": null, "Actor2": "INTERIOR MINIST", "Actor2_Country": null, "Code": 10, "Class": 1, "Action_Location": "Nawabshah, Sindh, Pakistan", "Lat": 26.2483, "Long": 68.4096, "Timestamp": 20181105033000, "Source": "https://www.dawn.com/news/1443698/over-1100-held-for-rioting-during-protest-against-aasias-acquittal"}, {"ID": 800047001, "Actor1": "POLICE", "Actor1_Country": null, "Actor2": "UNITED STATES", "Actor2_Country": "USA", "Code": 90, "Class": 2, "Action_Location": "Florida State University, Florida, United States", "Lat": 30.4408, "Long": -84.2918, "Timestamp": 20181105033000, "Source": "https://www.nbcnews.com/news/us-news/gunman-who-killed-2-florida-yoga-studio-had-history-harassing-n930936?cid=public-rss_20181105"}, {"ID": 800047008, "Actor1": "POLICE", "Actor1_Country": null, "Actor2": "UNITED STATES", "Actor2_Country": "USA", "Code": 173, "Class": 4, "Action_Location": "Charlotte, North Carolina, United States", "Lat": 35.2271, "Long": -80.8431, "Timestamp": 20181105033000, "Source": "https://www.nbcnews.com/news/us-news/white-woman-dubbed-south-park-susan-harassing-black-women-turns-n931016?cid=public-rss_20181105"}, {"ID": 800047013, "Actor1": "POLICE", "Actor1_Country": null, "Actor2": "THE ASSOCIATED PRESS", "Actor2_Country": "USA", "Code": 10, "Class": 1, "Action_Location": "Lake Hallie, Wisconsin, United States", "Lat": 44.8758, "Long": -91.4407, "Timestamp": 20181105033000, "Source": "https://www.mprnews.org/story/2018/11/04/hundreds-gather-vigil-for-girl-scouts-parent-killed-wisconsin-crash"}, {"ID": 800047014, "Actor1": "POLICE", "Actor1_Country": null, "Actor2": "THE ASSOCIATED PRESS", "Actor2_Country": "USA", "Code": 173, "Class": 4, "Action_Location": "Lake Hallie, Wisconsin, United States", "Lat": 44.8758, "Long": -91.4407, "Timestamp": 20181105033000, "Source": "https://www.mprnews.org/story/2018/11/04/hundreds-gather-vigil-for-girl-scouts-parent-killed-wisconsin-crash"}, {"ID": 800047019, "Actor1": "ASSAILANT", "Actor1_Country": null, "Actor2": "POLICE", "Actor2_Country": null, "Code": 173, "Class": 4, "Action_Location": "Kherson, Khersons'ka Oblast', Ukraine", "Lat": 46.6558, "Long": 32.6178, "Timestamp": 20181105033000, "Source": "https://www.japantimes.co.jp/?post_type=news&p=1563596"}, {"ID": 800047021, "Actor1": "MAFIA", "Actor1_Country": null, "Actor2": "PAKISTAN", "Actor2_Country": "PAK", "Code": 42, "Class": 1, "Action_Location": "Gulshan-I-Iqbal, Sindh, Pakistan", "Lat": 24.9222, "Long": 67.09, "Timestamp": 20181105033000, "Source": "https://www.dawn.com/news/1443632/nab-freezes-14-bungalows-illegally-built-on-govt-land-in-gulshan"}, {"ID": 800047024, "Actor1": "CUBA", "Actor1_Country": "CUB", "Actor2": "PYONGYANG", "Actor2_Country": "PRK", "Code": 40, "Class": 1, "Action_Location": "Cuba", "Lat": 22.0, "Long": -79.5, "Timestamp": 20181105033000, "Source": "https://www.scmp.com/news/asia/east-asia/article/2171660/north-korea-cuba-agree-deepen-ties-amid-us-sanctions"}, {"ID": 800047030, "Actor1": "CUBA", "Actor1_Country": "CUB", "Actor2": "PYONGYANG", "Actor2_Country": "PRK", "Code": 40, "Class": 1, "Action_Location": "Cuba", "Lat": 22.0, "Long": -79.5, "Timestamp": 20181105033000, "Source": "https://www.scmp.com/news/asia/east-asia/article/2171660/north-korea-cuba-agree-deepen-ties-amid-us-sanctions"}, {"ID": 800047056, "Actor1": "COMMUNITY", "Actor1_Country": null, "Actor2": "SCHOOL", "Actor2_Country": null, "Code": 42, "Class": 1, "Action_Location": "Chippewa Falls, Wisconsin, United States", "Lat": 44.9369, "Long": -91.3929, "Timestamp": 20181105033000, "Source": "https://www.mprnews.org/story/2018/11/04/hundreds-gather-vigil-for-girl-scouts-parent-killed-wisconsin-crash"}, {"ID": 800047061, "Actor1": "VOTER", "Actor1_Country": null, "Actor2": "NEW CALEDONIA", "Actor2_Country": "FRA", "Code": 20, "Class": 1, "Action_Location": "New Caledonia", "Lat": -21.5, "Long": 165.5, "Timestamp": 20181105033000, "Source": "https://www.dawn.com/news/1443706/new-caledonia-votes-against-independence-from-france"}, {"ID": 800047068, "Actor1": "MIGRANT", "Actor1_Country": null, "Actor2": "MEXICO", "Actor2_Country": "MEX", "Code": 233, "Class": 1, "Action_Location": "Mexico", "Lat": 23.0, "Long": -102.0, "Timestamp": 20181105033000, "Source": "https://www.oann.com/migrant-caravan-splits-into-groups-some-return-home/"}, {"ID": 800047070, "Actor1": "COMMUNITY", "Actor1_Country": null, "Actor2": "MALAYSIAN", "Actor2_Country": "MYS", "Code": 12, "Class": 1, "Action_Location": "Tanah Melayu, Malaysia (general), Malaysia", "Lat": 4.0, "Long": 102.0, "Timestamp": 20181105033000, "Source": "https://www.freemalaysiatoday.com/category/opinion/2018/11/05/first-things-first-on-icerd/"}, {"ID": 800047072, "Actor1": "COMMUNITY", "Actor1_Country": null, "Actor2": "FLORIDA", "Actor2_Country": "USA", "Code": 36, "Class": 1, "Action_Location": "Florida, United States", "Lat": 27.8333, "Long": -81.717, "Timestamp": 20181105033000, "Source": "https://www.theledger.com/news/20181104/florence-villa-workshop-set-for-thursday"}, {"ID": 800047082, "Actor1": "COMMUNITY", "Actor1_Country": null, "Actor2": "WISCONSIN", "Actor2_Country": "USA", "Code": 42, "Class": 1, "Action_Location": "Wisconsin, United States", "Lat": 44.2563, "Long": -89.6385, "Timestamp": 20181105033000, "Source": "http://www.chicagotribune.com/news/nationworld/ct-wisconsin-car-crash-girl-scouts-killed-20181104-story.html"}, {"ID": 800047084, "Actor1": "GERMAN", "Actor1_Country": "DEU", "Actor2": "COMPANIES", "Actor2_Country": null, "Code": 61, "Class": 2, "Action_Location": "Egypt", "Lat": 27.0, "Long": 30.0, "Timestamp": 20181105033000, "Source": "http://www.startribune.com/china-s-xi-promises-market-opening-as-import-fair-begins/499591571/"}, {"ID": 800047085, "Actor1": "GERMAN", "Actor1_Country": "DEU", "Actor2": "COMPANIES", "Actor2_Country": null, "Code": 61, "Class": 2, "Action_Location": "Egypt", "Lat": 27.0, "Long": 30.0, "Timestamp": 20181105033000, "Source": "http://www.startribune.com/china-s-xi-promises-market-opening-as-import-fair-begins/499591571/"}, {"ID": 800047086, "Actor1": "GERMAN", "Actor1_Country": "DEU", "Actor2": "COMPANIES", "Actor2_Country": null, "Code": 61, "Class": 2, "Action_Location": "Washington, District of Columbia, United States", "Lat": 38.8951, "Long": -77.0364, "Timestamp": 20181105033000, "Source": "https://www.sfgate.com/news/world/article/China-s-Xi-promises-market-opening-as-import-fair-13362424.php"}, {"ID": 800047109, "Actor1": "STUDENT", "Actor1_Country": null, "Actor2": "STUDENT", "Actor2_Country": null, "Code": 190, "Class": 4, "Action_Location": "Texas, United States", "Lat": 31.106, "Long": -97.6475, "Timestamp": 20181105033000, "Source": "https://www.azfamily.com/newlyweds-killed-in-helicopter-crash-leaving-ceremony/article_8bb71096-1d03-5d68-8557-8f24a7d95f16.html"}, {"ID": 800047112, "Actor1": "ECONOMIST", "Actor1_Country": null, "Actor2": "WASHINGTON", "Actor2_Country": "USA", "Code": 13, "Class": 1, "Action_Location": "Washington, District of Columbia, United States", "Lat": 38.8951, "Long": -77.0364, "Timestamp": 20181105033000, "Source": "https://www.breitbart.com/politics/2018/11/04/ex-criminals-jobs-training-donald-trump-go-go-economy/"}, {"ID": 800047126, "Actor1": "EGYPT", "Actor1_Country": "EGY", "Actor2": "SHANGHAI", "Actor2_Country": "CHN", "Code": 42, "Class": 1, "Action_Location": "Beijing, Beijing, China", "Lat": 39.9289, "Long": 116.388, "Timestamp": 20181105033000, "Source": "http://www.startribune.com/china-s-xi-promises-market-opening-as-import-fair-begins/499591571/"}, {"ID": 800047129, "Actor1": "EGYPTIAN", "Actor1_Country": "EGY", "Actor2": "EGYPTIAN", "Actor2_Country": "EGY", "Code": 90, "Class": 2, "Action_Location": "Moscow, Moskva, Russia", "Lat": 55.7522, "Long": 37.6156, "Timestamp": 20181105033000, "Source": "http://www.outlookafghanistan.net/international_detail.php?post_id=22156"}, {"ID": 800047147, "Actor1": "CHRISTINE LAGARDE", "Actor1_Country": "FRA", "Actor2": "SHANGHAI", "Actor2_Country": "CHN", "Code": 20, "Class": 1, "Action_Location": "Vietnam, Republic Of", "Lat": 16.166667, "Long": 107.833333, "Timestamp": 20181105033000, "Source": "https://www.cnbc.com/2018/11/05/china-president-xi-jinping-again-talks-up-commitment-to-free-trade.html"}, {"ID": 800047148, "Actor1": "CHRISTINE LAGARDE", "Actor1_Country": "FRA", "Actor2": "SHANGHAI", "Actor2_Country": "CHN", "Code": 20, "Class": 1, "Action_Location": "Shanghai, Shanghai, China", "Lat": 31.2222, "Long": 121.458, "Timestamp": 20181105033000, "Source": "https://www.cnbc.com/2018/11/05/china-president-xi-jinping-again-talks-up-commitment-to-free-trade.html"}, {"ID": 800047161, "Actor1": "UNITED KINGDOM", "Actor1_Country": "GBR", "Actor2": "LONDON", "Actor2_Country": "GBR", "Code": 46, "Class": 1, "Action_Location": "London, London, City of, United Kingdom", "Lat": 51.5, "Long": -0.116667, "Timestamp": 20181105033000, "Source": "https://www.nbcnews.com/news/us-news/thousands-across-globe-showupforshabbat-honor-squirrel-hill-victims-n930851?cid=public-rss_20181105"}, {"ID": 800047164, "Actor1": "UNITED KINGDOM", "Actor1_Country": "GBR", "Actor2": "THOMSON REUTERS", "Actor2_Country": "CAN", "Code": 13, "Class": 1, "Action_Location": "China", "Lat": 35.0, "Long": 105.0, "Timestamp": 20181105033000, "Source": "https://www.japantimes.co.jp/?post_type=news&p=1563602"}, {"ID": 800047165, "Actor1": "UNITED KINGDOM", "Actor1_Country": "GBR", "Actor2": "THOMSON REUTERS", "Actor2_Country": "CAN", "Code": 13, "Class": 1, "Action_Location": "China", "Lat": 35.0, "Long": 105.0, "Timestamp": 20181105033000, "Source": "https://www.japantimes.co.jp/?post_type=news&p=1563602"}, {"ID": 800047171, "Actor1": "LONDON", "Actor1_Country": "GBR", "Actor2": "UNITED KINGDOM", "Actor2_Country": "GBR", "Code": 46, "Class": 1, "Action_Location": "London, London, City of, United Kingdom", "Lat": 51.5, "Long": -0.116667, "Timestamp": 20181105033000, "Source": "https://www.nbcnews.com/news/us-news/thousands-across-globe-showupforshabbat-honor-squirrel-hill-victims-n930851?cid=public-rss_20181105"}, {"ID": 800047226, "Actor1": "ELECTORAL COMMISSION", "Actor1_Country": null, "Actor2": "BANK", "Actor2_Country": null, "Code": 12, "Class": 1, "Action_Location": "United Kingdom", "Lat": 54.0, "Long": -4.0, "Timestamp": 20181105033000, "Source": "https://www.dailymail.co.uk/news/article-6352953/DOMINIC-LAWSON-Arron-Banks-chancer-Lords-look-ridiculous-demanding-Peoples-Vote.html"}, {"ID": 800047247, "Actor1": "FIRE CHIEF", "Actor1_Country": null, "Actor2": "UNITED KINGDOM", "Actor2_Country": "GBR", "Code": 90, "Class": 2, "Action_Location": "London, London, City of, United Kingdom", "Lat": 51.5, "Long": -0.116667, "Timestamp": 20181105033000, "Source": "https://www.nbcnews.com/news/us-news/two-dead-after-wall-collapse-amazon-distribution-center-baltimore-n930786?cid=public-rss_20181105"}, {"ID": 800047252, "Actor1": "GOVERNMENT", "Actor1_Country": null, "Actor2": "THE EU", "Actor2_Country": "EUR", "Code": 42, "Class": 1, "Action_Location": "United Kingdom", "Lat": 54.0, "Long": -4.0, "Timestamp": 20181105033000, "Source": "https://www.dailymail.co.uk/news/article-6352953/DOMINIC-LAWSON-Arron-Banks-chancer-Lords-look-ridiculous-demanding-Peoples-Vote.html"}, {"ID": 800047258, "Actor1": "MINIST", "Actor1_Country": null, "Actor2": "ISRAELI", "Actor2_Country": "ISR", "Code": 13, "Class": 1, "Action_Location": "Jerusalem, Israel (general), Israel", "Lat": 31.7667, "Long": 35.2333, "Timestamp": 20181105033000, "Source": "https://www.dailymail.co.uk/wires/afp/article-6351731/Israel-raids-office-Palestinian-Jerusalem-governor.html"}, {"ID": 800047260, "Actor1": "GOVERNOR", "Actor1_Country": null, "Actor2": "SUPREME COURT", "Actor2_Country": null, "Code": 10, "Class": 1, "Action_Location": "New Delhi, Delhi, India", "Lat": 28.6, "Long": 77.2, "Timestamp": 20181105033000, "Source": "https://www.firstpost.com/india/rbi-governor-urjit-patel-issued-show-cause-notice-for-dishonouring-sc-judgment-on-non-disclosure-of-wilful-defaulters-list-5503411.html"}, {"ID": 800047262, "Actor1": "GOVERNOR", "Actor1_Country": null, "Actor2": "SUPREME COURT", "Actor2_Country": null, "Code": 90, "Class": 2, "Action_Location": "New Delhi, Delhi, India", "Lat": 28.6, "Long": 77.2, "Timestamp": 20181105033000, "Source": "https://www.firstpost.com/india/rbi-governor-urjit-patel-issued-show-cause-notice-for-dishonouring-sc-judgment-on-non-disclosure-of-wilful-defaulters-list-5503411.html"}, {"ID": 800047265, "Actor1": "PRIME MINISTER", "Actor1_Country": null, "Actor2": "SRI LANKA", "Actor2_Country": "LKA", "Code": 60, "Class": 2, "Action_Location": "Colombo, Western, Sri Lanka", "Lat": 6.93194, "Long": 79.8478, "Timestamp": 20181105033000, "Source": "https://scroll.in/article/900926/sri-lankas-political-crisis-explained-and-what-it-means-for-the-island-nations-tamil-community"}, {"ID": 800047266, "Actor1": "GOVERNOR", "Actor1_Country": null, "Actor2": "GAZETTE", "Actor2_Country": null, "Code": 10, "Class": 1, "Action_Location": "Iowa, United States", "Lat": 42.0046, "Long": -93.214, "Timestamp": 20181105033000, "Source": "https://www.kcrg.com/content/news/499584061.html"}, {"ID": 800047270, "Actor1": "GOVERNMENT", "Actor1_Country": null, "Actor2": "TELECOM", "Actor2_Country": null, "Code": 80, "Class": 2, "Action_Location": "Sirohi, Rajasthan, India", "Lat": 24.8833, "Long": 72.8667, "Timestamp": 20181105033000, "Source": "https://economictimes.indiatimes.com/industry/telecom/telecom-news/telcos-divided-over-spectrum-pricing-timing-of-auctions/articleshow/66504689.cms"}, {"ID": 800047272, "Actor1": "PRESIDENT", "Actor1_Country": null, "Actor2": "AIR FORCE", "Actor2_Country": null, "Code": 42, "Class": 1, "Action_Location": "White House, District of Columbia, United States", "Lat": 38.8951, "Long": -77.0364, "Timestamp": 20181105033000, "Source": "https://www.oann.com/pres-trump-republican-party-will-do-well-in-upcoming-elections/"}, {"ID": 800047273, "Actor1": "MAYOR", "Actor1_Country": null, "Actor2": "ACTIVIST", "Actor2_Country": null, "Code": 138, "Class": 3, "Action_Location": "Kherson, Khersons'ka Oblast', Ukraine", "Lat": 46.6558, "Long": 32.6178, "Timestamp": 20181105033000, "Source": "https://www.japantimes.co.jp/?post_type=news&p=1563596"}, {"ID": 800047281, "Actor1": "MAYOR", "Actor1_Country": null, "Actor2": "UKRAINE", "Actor2_Country": "UKR", "Code": 138, "Class": 3, "Action_Location": "Kherson, Khersons'ka Oblast', Ukraine", "Lat": 46.6558, "Long": 32.6178, "Timestamp": 20181105033000, "Source": "https://www.japantimes.co.jp/?post_type=news&p=1563596"}, {"ID": 800047282, "Actor1": "PRESIDENT", "Actor1_Country": null, "Actor2": "UNITED STATES", "Actor2_Country": "USA", "Code": 13, "Class": 1, "Action_Location": "White House, District of Columbia, United States", "Lat": 38.8951, "Long": -77.0364, "Timestamp": 20181105033000, "Source": "https://www.oann.com/pres-trump-republican-party-will-do-well-in-upcoming-elections/"}, {"ID": 800047283, "Actor1": "PRESIDENT", "Actor1_Country": null, "Actor2": "UNITED STATES", "Actor2_Country": "USA", "Code": 36, "Class": 1, "Action_Location": "Estero, Florida, United States", "Lat": 26.4381, "Long": -81.8068, "Timestamp": 20181105033000, "Source": "https://www.theledger.com/news/20181104/five-things-to-watch-for-on-election-day"}, {"ID": 800047284, "Actor1": "PRESIDENT", "Actor1_Country": null, "Actor2": "UNITED STATES", "Actor2_Country": "USA", "Code": 36, "Class": 1, "Action_Location": "Florida, United States", "Lat": 27.8333, "Long": -81.717, "Timestamp": 20181105033000, "Source": "https://www.theledger.com/news/20181104/five-things-to-watch-for-on-election-day"}, {"ID": 800047288, "Actor1": "PRESIDENT", "Actor1_Country": null, "Actor2": "MONTANA", "Actor2_Country": "USA", "Code": 42, "Class": 1, "Action_Location": "Montana, United States", "Lat": 46.9048, "Long": -110.326, "Timestamp": 20181105033000, "Source": "http://www.mtpr.org/post/final-trump-rally-bozeman-draws-fewer-protesters"}, {"ID": 800047292, "Actor1": "SECRETARY OF STATE", "Actor1_Country": null, "Actor2": "UNITED STATES", "Actor2_Country": "USA", "Code": 111, "Class": 3, "Action_Location": "White House, District of Columbia, United States", "Lat": 38.8951, "Long": -77.0364, "Timestamp": 20181105033000, "Source": "https://www.independent.ie/world-news/north-america/racist-robocalls-expose-a-bitter-midterms-race-as-us-goes-to-polls-37492265.html"}, {"ID": 800047294, "Actor1": "GOVERNMENT", "Actor1_Country": null, "Actor2": "UNITED STATES", "Actor2_Country": "USA", "Code": 120, "Class": 3, "Action_Location": "Georgia, United States", "Lat": 32.9866, "Long": -83.6487, "Timestamp": 20181105033000, "Source": "https://sputniknews.com/us/201811051069505449-political-stunt-georgia-dems-avvused-cybercrimes-midterms/"}, {"ID": 800047298, "Actor1": "PRESIDENT", "Actor1_Country": null, "Actor2": "THE WHITE HOUSE", "Actor2_Country": "USA", "Code": 40, "Class": 1, "Action_Location": "White House, District of Columbia, United States", "Lat": 38.8951, "Long": -77.0364, "Timestamp": 20181105033000, "Source": "https://www.breitbart.com/politics/2018/11/04/watch-black-faith-leaders-ask-who-want-represent-you/"}, {"ID": 800047302, "Actor1": "DIPLOMAT", "Actor1_Country": null, "Actor2": "YEMEN", "Actor2_Country": "YEM", "Code": 160, "Class": 4, "Action_Location": "Saudi Arabia", "Lat": 25.0, "Long": 45.0, "Timestamp": 20181105033000, "Source": "https://www.heraldsun.com.au/news/breaking-news/uk-pushing-for-un-action-to-end-yemen-war/news-story/c469db29b6f565e91f9f7eb66d79587c?nk=0e5013e47572b20bcffb40a3747603e0-1541387835"}, {"ID": 800047307, "Actor1": "GREECE", "Actor1_Country": "GRC", "Actor2": "GOOGLE", "Actor2_Country": "USA", "Code": 51, "Class": 1, "Action_Location": "Athens, Attik\u00edR, Greece", "Lat": 37.9833, "Long": 23.7333, "Timestamp": 20181105033000, "Source": "https://www.firstpost.com/tech/news-analysis/michael-dertouzos-birth-anniversary-of-man-who-predicted-impact-of-internet-celebrated-in-google-doodle-5503661.html"}, {"ID": 800047308, "Actor1": "HINDU", "Actor1_Country": null, "Actor2": "GOVERNMENT", "Actor2_Country": null, "Code": 120, "Class": 3, "Action_Location": "Kerala, Kerala, India", "Lat": 10.0, "Long": 76.5, "Timestamp": 20181105033000, "Source": "https://www.firstpost.com/india/sabarimala-temple-will-open-at-5-pm-for-special-puja-over-2300-kerala-cops-to-watch-over-protesters-prohibitory-orders-issued-5503431.html"}, {"ID": 800047312, "Actor1": "YOGA", "Actor1_Country": null, "Actor2": "FLORIDA", "Actor2_Country": "USA", "Code": 193, "Class": 4, "Action_Location": "Florida, United States", "Lat": 27.8333, "Long": -81.717, "Timestamp": 20181105033000, "Source": "https://www.nbcnews.com/news/us-news/florida-yoga-studio-shooting-leaves-1-victim-dead-4-wounded-n930716?cid=public-rss_20181105"}, {"ID": 800047327, "Actor1": "THE EU", "Actor1_Country": "EUR", "Actor2": "GOVERNMENT", "Actor2_Country": null, "Code": 43, "Class": 1, "Action_Location": "United Kingdom", "Lat": 54.0, "Long": -4.0, "Timestamp": 20181105033000, "Source": "https://www.dailymail.co.uk/news/article-6352953/DOMINIC-LAWSON-Arron-Banks-chancer-Lords-look-ridiculous-demanding-Peoples-Vote.html"}, {"ID": 800047329, "Actor1": "THE UN", "Actor1_Country": null, "Actor2": "GENEVA", "Actor2_Country": "CHE", "Code": 42, "Class": 1, "Action_Location": "Riyadh, Ar Riya?, Saudi Arabia", "Lat": 24.6408, "Long": 46.7728, "Timestamp": 20181105033000, "Source": "https://www.yahoo.com/news/saudi-rights-record-un-spotlight-020445872.html"}, {"ID": 800047330, "Actor1": "THE UN", "Actor1_Country": null, "Actor2": "SWITZERLAND", "Actor2_Country": "CHE", "Code": 51, "Class": 1, "Action_Location": "Geneva, Gen\u00e8, Switzerland", "Lat": 46.1956, "Long": 6.14811, "Timestamp": 20181105033000, "Source": "https://www.france24.com/en/20181105-saudi-arabia-human-rights-record-united-nations-spotlight"}, {"ID": 800047332, "Actor1": "THE UN", "Actor1_Country": null, "Actor2": "JOURNALIST", "Actor2_Country": null, "Code": 51, "Class": 1, "Action_Location": "Geneva, Gen\u00e8, Switzerland", "Lat": 46.1956, "Long": 6.14811, "Timestamp": 20181105033000, "Source": "https://www.france24.com/en/20181105-saudi-arabia-human-rights-record-united-nations-spotlight"}, {"ID": 800047337, "Actor1": "NEW DELHI", "Actor1_Country": "IND", "Actor2": "GOVERNOR", "Actor2_Country": null, "Code": 90, "Class": 2, "Action_Location": "New Delhi, Delhi, India", "Lat": 28.6, "Long": 77.2, "Timestamp": 20181105033000, "Source": "https://www.firstpost.com/india/rbi-governor-urjit-patel-issued-show-cause-notice-for-dishonouring-sc-judgment-on-non-disclosure-of-wilful-defaulters-list-5503411.html"}, {"ID": 800047338, "Actor1": "NEW DELHI", "Actor1_Country": "IND", "Actor2": "SUPREME COURT", "Actor2_Country": null, "Code": 10, "Class": 1, "Action_Location": "New Delhi, Delhi, India", "Lat": 28.6, "Long": 77.2, "Timestamp": 20181105033000, "Source": "https://www.firstpost.com/india/rbi-governor-urjit-patel-issued-show-cause-notice-for-dishonouring-sc-judgment-on-non-disclosure-of-wilful-defaulters-list-5503411.html"}, {"ID": 800047339, "Actor1": "MADHYA PRADESH", "Actor1_Country": "IND", "Actor2": "CONGRESS", "Actor2_Country": null, "Code": 84, "Class": 2, "Action_Location": "Madhya Pradesh, Madhya Pradesh, India", "Lat": 23.5, "Long": 78.5, "Timestamp": 20181105033000, "Source": "https://www.firstpost.com/india/daily-bulletin-kerala-tense-as-sabarimala-re-opens-today-delhiites-breathe-easy-as-air-quality-improves-days-top-stories-5503391.html"}, {"ID": 800047355, "Actor1": "IRELAND", "Actor1_Country": "IRL", "Actor2": "JUDGE", "Actor2_Country": null, "Code": 10, "Class": 1, "Action_Location": "Foxrock, County Dun Laoghaire-Rathdown, Ireland", "Lat": 53.2667, "Long": -6.17417, "Timestamp": 20181105033000, "Source": "https://www.independent.ie/irish-news/courts/woman-50-is-charged-with-the-murder-of-man-at-foxrock-house-37492092.html"}, {"ID": 800047357, "Actor1": "IRANIAN", "Actor1_Country": "IRN", "Actor2": "ADEN", "Actor2_Country": "YEM", "Code": 190, "Class": 4, "Action_Location": "Red Sea, Djibouti (general), Djibouti", "Lat": 19.0, "Long": 39.5, "Timestamp": 20181105033000, "Source": "https://www.businessinsider.com/r-saudi-backed-forces-advance-towards-yemens-hodeidah-as-un-warns-of-famine-2018-11"}, {"ID": 800047359, "Actor1": "IRAQ", "Actor1_Country": "IRQ", "Actor2": "ISLAMIC", "Actor2_Country": null, "Code": 190, "Class": 4, "Action_Location": "Iraq", "Lat": 33.0, "Long": 44.0, "Timestamp": 20181105033000, "Source": "https://www.breitbart.com/national-security/2018/11/04/refugee-from-iraq-accused-of-making-two-bombs-in-las-vegas-for-attack/"}, {"ID": 800047361, "Actor1": "IRAQ", "Actor1_Country": "IRQ", "Actor2": "IRAQ", "Actor2_Country": "IRQ", "Code": 173, "Class": 4, "Action_Location": "Colorado, United States", "Lat": 39.0646, "Long": -105.327, "Timestamp": 20181105033000, "Source": "https://www.breitbart.com/national-security/2018/11/04/refugee-from-iraq-accused-of-making-two-bombs-in-las-vegas-for-attack/"}, {"ID": 800047362, "Actor1": "IRAQ", "Actor1_Country": "IRQ", "Actor2": "IRAQ", "Actor2_Country": "IRQ", "Code": 173, "Class": 4, "Action_Location": "Iraq", "Lat": 33.0, "Long": 44.0, "Timestamp": 20181105033000, "Source": "https://www.breitbart.com/national-security/2018/11/04/refugee-from-iraq-accused-of-making-two-bombs-in-las-vegas-for-attack/"}, {"ID": 800047363, "Actor1": "IRAQ", "Actor1_Country": "IRQ", "Actor2": "COLORADO", "Actor2_Country": "USA", "Code": 190, "Class": 4, "Action_Location": "Colorado, United States", "Lat": 39.0646, "Long": -105.327, "Timestamp": 20181105033000, "Source": "https://www.breitbart.com/national-security/2018/11/04/refugee-from-iraq-accused-of-making-two-bombs-in-las-vegas-for-attack/"}, {"ID": 800047364, "Actor1": "IRAQ", "Actor1_Country": "IRQ", "Actor2": "COLORADO", "Actor2_Country": "USA", "Code": 190, "Class": 4, "Action_Location": "Iraq", "Lat": 33.0, "Long": 44.0, "Timestamp": 20181105033000, "Source": "https://www.breitbart.com/national-security/2018/11/04/refugee-from-iraq-accused-of-making-two-bombs-in-las-vegas-for-attack/"}, {"ID": 800047366, "Actor1": "ISRAELI", "Actor1_Country": "ISR", "Actor2": "BRAZIL", "Actor2_Country": "BRA", "Code": 17, "Class": 1, "Action_Location": "Brasilia, Distrito Federal, Brazil", "Lat": -15.7833, "Long": -47.9167, "Timestamp": 20181105033000, "Source": "https://dissidentvoice.org/2018/11/netanuyahus-courting-of-bolsonaro-is-the-latest-of-israels-alliances-with-far-right-figures/"}, {"ID": 800047369, "Actor1": "ISRAEL", "Actor1_Country": "ISR", "Actor2": "GOVERNMENT", "Actor2_Country": null, "Code": 112, "Class": 3, "Action_Location": "Israel", "Lat": 31.5, "Long": 34.75, "Timestamp": 20181105033000, "Source": "https://dailycaller.com/2018/11/04/soros-spending-millions-migrants/"}, {"ID": 800047378, "Actor1": "JEWISH", "Actor1_Country": null, "Actor2": "AFRICA", "Actor2_Country": "AFR", "Code": 193, "Class": 4, "Action_Location": "Kentucky, United States", "Lat": 37.669, "Long": -84.6514, "Timestamp": 20181105033000, "Source": "https://www.yakimaherald.com/opinion/cepeda-column-mr-president-latinos-don-t-scare-easily/article_acd4f858-de14-11e8-ac23-67b2af18d4e0.html"}, {"ID": 800047379, "Actor1": "JEWISH", "Actor1_Country": null, "Actor2": "AMERICAN", "Actor2_Country": "USA", "Code": 193, "Class": 4, "Action_Location": "Kentucky, United States", "Lat": 37.669, "Long": -84.6514, "Timestamp": 20181105033000, "Source": "https://www.yakimaherald.com/opinion/cepeda-column-mr-president-latinos-don-t-scare-easily/article_acd4f858-de14-11e8-ac23-67b2af18d4e0.html"}, {"ID": 800047380, "Actor1": "JAPAN", "Actor1_Country": "JPN", "Actor2": "CENTRAL BANK", "Actor2_Country": null, "Code": 14, "Class": 1, "Action_Location": "Japan", "Lat": 36.0, "Long": 138.0, "Timestamp": 20181105033000, "Source": "https://forextv.com/top-news/bojs-kuroda-says-aware-easy-policy-could-destabilize-banking-system/"}, {"ID": 800047388, "Actor1": "SUPREME COURT", "Actor1_Country": null, "Actor2": "GOVERNMENT", "Actor2_Country": null, "Code": 10, "Class": 1, "Action_Location": "Sirohi, Rajasthan, India", "Lat": 24.8833, "Long": 72.8667, "Timestamp": 20181105033000, "Source": "https://economictimes.indiatimes.com/industry/telecom/telecom-news/telcos-divided-over-spectrum-pricing-timing-of-auctions/articleshow/66504689.cms"}, {"ID": 800047393, "Actor1": "KENYA", "Actor1_Country": "KEN", "Actor2": "DETECTIVE", "Actor2_Country": null, "Code": 13, "Class": 1, "Action_Location": "Foxrock, County Dun Laoghaire-Rathdown, Ireland", "Lat": 53.2667, "Long": -6.17417, "Timestamp": 20181105033000, "Source": "https://www.independent.ie/irish-news/courts/woman-50-is-charged-with-the-murder-of-man-at-foxrock-house-37492092.html"}, {"ID": 800047394, "Actor1": "KENYA", "Actor1_Country": "KEN", "Actor2": "DETECTIVE", "Actor2_Country": null, "Code": 13, "Class": 1, "Action_Location": "Malawi", "Lat": -13.5, "Long": 34.0, "Timestamp": 20181105033000, "Source": "https://www.independent.ie/irish-news/courts/woman-50-is-charged-with-the-murder-of-man-at-foxrock-house-37492092.html"}, {"ID": 800047401, "Actor1": "WORKER", "Actor1_Country": null, "Actor2": "UNITED STATES", "Actor2_Country": "USA", "Code": 10, "Class": 1, "Action_Location": "Texas, United States", "Lat": 31.106, "Long": -97.6475, "Timestamp": 20181105033000, "Source": "https://www.theledger.com/news/20181104/funds-approved-to-assist-homeless-in-transition"}, {"ID": 800047415, "Actor1": "REPRESENTATIVES", "Actor1_Country": null, "Actor2": "AUSTRALIA", "Actor2_Country": "AUS", "Code": 42, "Class": 1, "Action_Location": "Melbourne, Victoria, Australia", "Lat": -37.8167, "Long": 144.967, "Timestamp": 20181105033000, "Source": "https://www.mailtimes.com.au/story/5740564/imagine-a-15yo-jockey-riding-a-melbourne-cup-winner-it-happened/"}, {"ID": 800047417, "Actor1": "CONGRESS", "Actor1_Country": null, "Actor2": "VOTER", "Actor2_Country": null, "Code": 20, "Class": 1, "Action_Location": "West Virginia, United States", "Lat": 38.468, "Long": -80.9696, "Timestamp": 20181105033000, "Source": "https://mg.co.za/article/2018-11-05-us-midterms-key-factors-of-the-2018-elections/"}, {"ID": 800047427, "Actor1": "SPEAKER OF THE HOUSE", "Actor1_Country": null, "Actor2": "WISCONSIN", "Actor2_Country": "USA", "Code": 120, "Class": 3, "Action_Location": "Wisconsin, United States", "Lat": 44.2563, "Long": -89.6385, "Timestamp": 20181105033000, "Source": "https://www.malaymail.com/s/1690098/whats-at-stake-in-tomorrows-us-midterm-elections"}, {"ID": 800047431, "Actor1": "SRI LANKAN", "Actor1_Country": "LKA", "Actor2": "PARLIAMENT", "Actor2_Country": null, "Code": 42, "Class": 1, "Action_Location": "Colombo, Western, Sri Lanka", "Lat": 6.93194, "Long": 79.8478, "Timestamp": 20181105033000, "Source": "http://www.newsonair.com/Main-News-Details.aspx?id=354934"}, {"ID": 800047452, "Actor1": "WEBSITE", "Actor1_Country": null, "Actor2": "VOTER", "Actor2_Country": null, "Code": 20, "Class": 1, "Action_Location": "Vietnam, Republic Of", "Lat": 16.166667, "Long": 107.833333, "Timestamp": 20181105033000, "Source": "https://www.nbcnews.com/news/us-news/hollywood-celebrities-aim-fire-young-voters-election-telethon-n930731?cid=public-rss_20181105"}, {"ID": 800047460, "Actor1": "PUBLICATION", "Actor1_Country": null, "Actor2": "ISRAEL", "Actor2_Country": "ISR", "Code": 1124, "Class": 3, "Action_Location": "Israel", "Lat": 31.5, "Long": 34.75, "Timestamp": 20181105033000, "Source": "https://dailycaller.com/2018/11/04/soros-spending-millions-migrants/"}, {"ID": 800047461, "Actor1": "PUBLICATION", "Actor1_Country": null, "Actor2": "ISRAEL", "Actor2_Country": "ISR", "Code": 203, "Class": 4, "Action_Location": "Israel", "Lat": 31.5, "Long": 34.75, "Timestamp": 20181105033000, "Source": "https://dailycaller.com/2018/11/04/soros-spending-millions-migrants/"}, {"ID": 800047462, "Actor1": "TELECOM", "Actor1_Country": null, "Actor2": "SOUTH KOREA", "Actor2_Country": "KOR", "Code": 20, "Class": 1, "Action_Location": "India", "Lat": 20.0, "Long": 77.0, "Timestamp": 20181105033000, "Source": "https://economictimes.indiatimes.com/industry/telecom/telecom-news/government-should-lower-prices-of-airwaves-5g-forum-chief/articleshow/66504729.cms"}, {"ID": 800047463, "Actor1": "SPOKESMAN", "Actor1_Country": null, "Actor2": "THOMSON REUTERS", "Actor2_Country": "CAN", "Code": 10, "Class": 1, "Action_Location": "China", "Lat": 35.0, "Long": 105.0, "Timestamp": 20181105033000, "Source": "https://www.japantimes.co.jp/?post_type=news&p=1563602"}, {"ID": 800047464, "Actor1": "SPOKESMAN", "Actor1_Country": null, "Actor2": "THOMSON REUTERS", "Actor2_Country": "CAN", "Code": 13, "Class": 1, "Action_Location": "China", "Lat": 35.0, "Long": 105.0, "Timestamp": 20181105033000, "Source": "https://www.japantimes.co.jp/?post_type=news&p=1563602"}, {"ID": 800047465, "Actor1": "WEBSITE", "Actor1_Country": null, "Actor2": "VIETNAM", "Actor2_Country": "VNM", "Code": 20, "Class": 1, "Action_Location": "Vietnam, Republic Of", "Lat": 16.166667, "Long": 107.833333, "Timestamp": 20181105033000, "Source": "https://www.nbcnews.com/news/us-news/hollywood-celebrities-aim-fire-young-voters-election-telethon-n930731?cid=public-rss_20181105"}, {"ID": 800047466, "Actor1": "MEDIA", "Actor1_Country": null, "Actor2": "VIETNAM", "Actor2_Country": "VNM", "Code": 43, "Class": 1, "Action_Location": "Da Nang, \u00d0 N?ng, Vietnam, Republic Of", "Lat": 16.0678, "Long": 108.221, "Timestamp": 20181105033000, "Source": "https://missoulian.com/news/local/last-vietnam-war-vets-to-leave-active-service-meet-in/article_fd992202-1ef4-555e-89ae-a916560f73db.html"}, {"ID": 800047467, "Actor1": "MEDIA", "Actor1_Country": null, "Actor2": "VIETNAM", "Actor2_Country": "VNM", "Code": 43, "Class": 1, "Action_Location": "Montana, United States", "Lat": 46.9048, "Long": -110.326, "Timestamp": 20181105033000, "Source": "https://missoulian.com/news/local/last-vietnam-war-vets-to-leave-active-service-meet-in/article_fd992202-1ef4-555e-89ae-a916560f73db.html"}, {"ID": 800047481, "Actor1": "AIR FORCE", "Actor1_Country": null, "Actor2": "PRESIDENT", "Actor2_Country": null, "Code": 43, "Class": 1, "Action_Location": "Washington, District of Columbia, United States", "Lat": 38.8951, "Long": -77.0364, "Timestamp": 20181105033000, "Source": "https://www.oann.com/pres-trump-republican-party-will-do-well-in-upcoming-elections/"}, {"ID": 800047482, "Actor1": "ARMED FORCES", "Actor1_Country": null, "Actor2": "FOREIGN NATIONAL", "Actor2_Country": null, "Code": 80, "Class": 2, "Action_Location": "United Kingdom", "Lat": 54.0, "Long": -4.0, "Timestamp": 20181105033000, "Source": "http://www.kcfm.co.uk/news/uk-news/foreign-nationals-to-be-allowed-into-armed-forces-without-having-lived-in-the-uk/"}, {"ID": 800047487, "Actor1": "AIR FORCE", "Actor1_Country": null, "Actor2": "UNITED STATES", "Actor2_Country": "USA", "Code": 43, "Class": 1, "Action_Location": "Washington, District of Columbia, United States", "Lat": 38.8951, "Long": -77.0364, "Timestamp": 20181105033000, "Source": "https://www.oann.com/pres-trump-republican-party-will-do-well-in-upcoming-elections/"}, {"ID": 800047488, "Actor1": "MARINE CORP", "Actor1_Country": null, "Actor2": "VIETNAM", "Actor2_Country": "VNM", "Code": 62, "Class": 2, "Action_Location": "Da Nang, \u00d0 N?ng, Vietnam, Republic Of", "Lat": 16.0678, "Long": 108.221, "Timestamp": 20181105033000, "Source": "https://missoulian.com/news/local/last-vietnam-war-vets-to-leave-active-service-meet-in/article_fd992202-1ef4-555e-89ae-a916560f73db.html"}, {"ID": 800047489, "Actor1": "MARINE CORP", "Actor1_Country": null, "Actor2": "VIETNAM", "Actor2_Country": "VNM", "Code": 62, "Class": 2, "Action_Location": "Montana, United States", "Lat": 46.9048, "Long": -110.326, "Timestamp": 20181105033000, "Source": "https://missoulian.com/news/local/last-vietnam-war-vets-to-leave-active-service-meet-in/article_fd992202-1ef4-555e-89ae-a916560f73db.html"}, {"ID": 800047505, "Actor1": "GOOGLE", "Actor1_Country": "USA", "Actor2": "SCIENTIST", "Actor2_Country": null, "Code": 17, "Class": 1, "Action_Location": "Athens, Attik\u00edR, Greece", "Lat": 37.9833, "Long": 23.7333, "Timestamp": 20181105033000, "Source": "https://economictimes.indiatimes.com/magazines/panache/google-marks-computer-scientist-michael-dertouzoss-82nd-birth-anniversary-with-doodle/articleshow/66504870.cms"}, {"ID": 800047506, "Actor1": "GOOGLE", "Actor1_Country": "USA", "Actor2": "SCIENTIST", "Actor2_Country": null, "Code": 17, "Class": 1, "Action_Location": "United States", "Lat": 39.828175, "Long": -98.5795, "Timestamp": 20181105033000, "Source": "https://economictimes.indiatimes.com/magazines/panache/google-marks-computer-scientist-michael-dertouzoss-82nd-birth-anniversary-with-doodle/articleshow/66504870.cms"}, {"ID": 800047507, "Actor1": "GOOGLE", "Actor1_Country": "USA", "Actor2": "GREECE", "Actor2_Country": "GRC", "Code": 17, "Class": 1, "Action_Location": "Athens, Attik\u00edR, Greece", "Lat": 37.9833, "Long": 23.7333, "Timestamp": 20181105033000, "Source": "https://economictimes.indiatimes.com/magazines/panache/google-marks-computer-scientist-michael-dertouzoss-82nd-birth-anniversary-with-doodle/articleshow/66504870.cms"}, {"ID": 800047508, "Actor1": "GOOGLE", "Actor1_Country": "USA", "Actor2": "GREECE", "Actor2_Country": "GRC", "Code": 17, "Class": 1, "Action_Location": "United States", "Lat": 39.828175, "Long": -98.5795, "Timestamp": 20181105033000, "Source": "https://economictimes.indiatimes.com/magazines/panache/google-marks-computer-scientist-michael-dertouzoss-82nd-birth-anniversary-with-doodle/articleshow/66504870.cms"}, {"ID": 800047512, "Actor1": "ISLAMIC", "Actor1_Country": null, "Actor2": "BEIRUT", "Actor2_Country": "LBN", "Code": 112, "Class": 3, "Action_Location": "Raqqa, Ar Raqqah, Syria", "Lat": 35.95, "Long": 39.0167, "Timestamp": 20181105033000, "Source": "https://ca.news.yahoo.com/islamic-state-says-hits-syrias-raqqa-car-bomb-175331541.html"}, {"ID": 800047522, "Actor1": "KUALA LUMPUR", "Actor1_Country": "MYS", "Actor2": "WRONGDOER", "Actor2_Country": null, "Code": 20, "Class": 1, "Action_Location": "Kuala Lumpur, Kuala Lumpur, Malaysia", "Lat": 3.16667, "Long": 101.7, "Timestamp": 20181105033000, "Source": "https://www.malaymail.com/s/1690120/tragedy-when-men-are-scared-of-the-light-says-guan-eng"}, {"ID": 800047542, "Actor1": "NEPAL", "Actor1_Country": "NPL", "Actor2": "WORKER", "Actor2_Country": null, "Code": 22, "Class": 1, "Action_Location": "Mount Everest, Nepal (general), Nepal", "Lat": 27.9884, "Long": 86.9245, "Timestamp": 20181105033000, "Source": "http://www.thejakartapost.com/life/2018/11/04/pakistani-porters-the-unsung-masters-of-the-mountains.html"}, {"ID": 800047556, "Actor1": "ACTIVIST", "Actor1_Country": null, "Actor2": "CHINA", "Actor2_Country": "CHN", "Code": 20, "Class": 1, "Action_Location": "Xinjiang, Jiangxi, China", "Lat": 27.7481, "Long": 116.274, "Timestamp": 20181105033000, "Source": "https://www.japantimes.co.jp/?post_type=news&p=1563335"}, {"ID": 800047559, "Actor1": "PROTESTER", "Actor1_Country": null, "Actor2": "HOSPITAL", "Actor2_Country": null, "Code": 110, "Class": 3, "Action_Location": "Faisalabad, Punjab, Pakistan", "Lat": 31.4167, "Long": 73.0833, "Timestamp": 20181105033000, "Source": "https://www.dawn.com/news/1443698/over-1100-held-for-rioting-during-protest-against-aasias-acquittal"}, {"ID": 800047583, "Actor1": "PAKISTANI", "Actor1_Country": "PAK", "Actor2": "EMPLOYER", "Actor2_Country": null, "Code": 73, "Class": 2, "Action_Location": "Karachi, Sindh, Pakistan", "Lat": 24.8667, "Long": 67.05, "Timestamp": 20181105033000, "Source": "http://www.thejakartapost.com/life/2018/11/04/pakistani-porters-the-unsung-masters-of-the-mountains.html"}, {"ID": 800047584, "Actor1": "PAKISTANI", "Actor1_Country": "PAK", "Actor2": "EMPLOYER", "Actor2_Country": null, "Code": 73, "Class": 2, "Action_Location": "Mount Everest, Nepal (general), Nepal", "Lat": 27.9884, "Long": 86.9245, "Timestamp": 20181105033000, "Source": "http://www.thejakartapost.com/life/2018/11/04/pakistani-porters-the-unsung-masters-of-the-mountains.html"}, {"ID": 800047585, "Actor1": "PAKISTANI", "Actor1_Country": "PAK", "Actor2": "EMPLOYER", "Actor2_Country": null, "Code": 73, "Class": 2, "Action_Location": "Shimshal, Northern Areas, Pakistan", "Lat": 36.4523, "Long": 75.3234, "Timestamp": 20181105033000, "Source": "http://www.thejakartapost.com/life/2018/11/04/pakistani-porters-the-unsung-masters-of-the-mountains.html"}, {"ID": 800047592, "Actor1": "PAKISTAN", "Actor1_Country": "PAK", "Actor2": "MAFIA", "Actor2_Country": null, "Code": 43, "Class": 1, "Action_Location": "Gulshan-I-Iqbal, Sindh, Pakistan", "Lat": 24.9222, "Long": 67.09, "Timestamp": 20181105033000, "Source": "https://www.dawn.com/news/1443632/nab-freezes-14-bungalows-illegally-built-on-govt-land-in-gulshan"}, {"ID": 800047593, "Actor1": "PAKISTAN", "Actor1_Country": "PAK", "Actor2": "UNITED KINGDOM", "Actor2_Country": "GBR", "Code": 23, "Class": 1, "Action_Location": "Karachi, Sindh, Pakistan", "Lat": 24.8667, "Long": 67.05, "Timestamp": 20181105033000, "Source": "https://www.japantimes.co.jp/?post_type=news&p=1563347"}, {"ID": 800047616, "Actor1": "PYONGYANG", "Actor1_Country": "PRK", "Actor2": "CUBA", "Actor2_Country": "CUB", "Code": 40, "Class": 1, "Action_Location": "Cuba", "Lat": 22.0, "Long": -79.5, "Timestamp": 20181105033000, "Source": "https://www.scmp.com/news/asia/east-asia/article/2171660/north-korea-cuba-agree-deepen-ties-amid-us-sanctions"}, {"ID": 800047617, "Actor1": "PYONGYANG", "Actor1_Country": "PRK", "Actor2": "CUBA", "Actor2_Country": "CUB", "Code": 40, "Class": 1, "Action_Location": "Cuba", "Lat": 22.0, "Long": -79.5, "Timestamp": 20181105033000, "Source": "https://www.scmp.com/news/asia/east-asia/article/2171660/north-korea-cuba-agree-deepen-ties-amid-us-sanctions"}, {"ID": 800047620, "Actor1": "NORTH KOREA", "Actor1_Country": "PRK", "Actor2": "WASHINGTON", "Actor2_Country": "USA", "Code": 36, "Class": 1, "Action_Location": "New York, United States", "Lat": 42.1497, "Long": -74.9384, "Timestamp": 20181105033000, "Source": "https://www.siasat.com/news/pompeo-says-he-will-meet-n-korea-number-two-new-york-1428092/"}, {"ID": 800047621, "Actor1": "N KOREA", "Actor1_Country": "PRK", "Actor2": "UNITED STATES", "Actor2_Country": "USA", "Code": 36, "Class": 1, "Action_Location": "Washington, District of Columbia, United States", "Lat": 38.8951, "Long": -77.0364, "Timestamp": 20181105033000, "Source": "https://www.siasat.com/news/pompeo-says-he-will-meet-n-korea-number-two-new-york-1428092/"}, {"ID": 800047624, "Actor1": "NORTH KOREA", "Actor1_Country": "PRK", "Actor2": "UNITED STATES", "Actor2_Country": "USA", "Code": 85, "Class": 2, "Action_Location": "Pyongyang, P'yongyang-si, North Korea", "Lat": 39.0194, "Long": 125.755, "Timestamp": 20181105033000, "Source": "https://www.scmp.com/news/asia/east-asia/article/2171660/north-korea-cuba-agree-deepen-ties-amid-us-sanctions"}, {"ID": 800047628, "Actor1": "WEST BANK", "Actor1_Country": "PSE", "Actor2": "ISRAEL", "Actor2_Country": "ISR", "Code": 190, "Class": 4, "Action_Location": "Jerusalem, Israel (general), Israel", "Lat": 31.7667, "Long": 35.2333, "Timestamp": 20181105033000, "Source": "https://www.siasat.com/news/israel-raids-office-palestinian-jerusalem-governor-1428095/"}, {"ID": 800047636, "Actor1": "REFUGEE", "Actor1_Country": null, "Actor2": "IRAQ", "Actor2_Country": "IRQ", "Code": 190, "Class": 4, "Action_Location": "Iraq", "Lat": 33.0, "Long": 44.0, "Timestamp": 20181105033000, "Source": "https://www.breitbart.com/national-security/2018/11/04/refugee-from-iraq-accused-of-making-two-bombs-in-las-vegas-for-attack/"}, {"ID": 800047647, "Actor1": "SAUDI ARABIA", "Actor1_Country": "SAU", "Actor2": "UNITED STATES", "Actor2_Country": "USA", "Code": 160, "Class": 4, "Action_Location": "Riyadh, Ar Riya?, Saudi Arabia", "Lat": 24.6408, "Long": 46.7728, "Timestamp": 20181105033000, "Source": "https://www.france24.com/en/20181105-saudi-arabia-human-rights-record-united-nations-spotlight"}, {"ID": 800047648, "Actor1": "SAUDI ARABIA", "Actor1_Country": "SAU", "Actor2": "UNITED STATES", "Actor2_Country": "USA", "Code": 160, "Class": 4, "Action_Location": "Riyadh, Ar Riya?, Saudi Arabia", "Lat": 24.6408, "Long": 46.7728, "Timestamp": 20181105033000, "Source": "https://www.yahoo.com/news/saudi-rights-record-un-spotlight-020445872.html"}, {"ID": 800047652, "Actor1": "SYRIA", "Actor1_Country": "SYR", "Actor2": "GOVERNMENT", "Actor2_Country": null, "Code": 13, "Class": 1, "Action_Location": "Damascus, Dimashq, Syria", "Lat": 33.5, "Long": 36.3, "Timestamp": 20181105033000, "Source": "http://www.outlookafghanistan.net/international_detail.php?post_id=22157"}, {"ID": 800047661, "Actor1": "TURKEY", "Actor1_Country": "TUR", "Actor2": "SYRIA", "Actor2_Country": "SYR", "Code": 112, "Class": 3, "Action_Location": "Ankara, Ankara, Turkey", "Lat": 39.9272, "Long": 32.8644, "Timestamp": 20181105033000, "Source": "https://www.japantimes.co.jp/?post_type=news&p=1563407"}, {"ID": 800047664, "Actor1": "TERRORIST", "Actor1_Country": null, "Actor2": "MEXICO", "Actor2_Country": "MEX", "Code": 111, "Class": 3, "Action_Location": "Mexico", "Lat": 23.0, "Long": -102.0, "Timestamp": 20181105033000, "Source": "https://www.breitbart.com/national-security/2018/11/04/refugee-from-iraq-accused-of-making-two-bombs-in-las-vegas-for-attack/"}, {"ID": 800047669, "Actor1": "UKRAINE", "Actor1_Country": "UKR", "Actor2": "MAYOR", "Actor2_Country": null, "Code": 138, "Class": 3, "Action_Location": "Kherson, Khersons'ka Oblast', Ukraine", "Lat": 46.6558, "Long": 32.6178, "Timestamp": 20181105033000, "Source": "https://www.japantimes.co.jp/?post_type=news&p=1563596"}, {"ID": 800047670, "Actor1": "UKRAINE", "Actor1_Country": "UKR", "Actor2": "MAYOR", "Actor2_Country": null, "Code": 138, "Class": 3, "Action_Location": "Kherson, Khersons'ka Oblast', Ukraine", "Lat": 46.6558, "Long": 32.6178, "Timestamp": 20181105033000, "Source": "https://www.japantimes.co.jp/?post_type=news&p=1563596"}, {"ID": 800047766, "Actor1": "BOSTON", "Actor1_Country": "USA", "Actor2": "BUSINESS", "Actor2_Country": null, "Code": 42, "Class": 1, "Action_Location": "California, United States", "Lat": 36.17, "Long": -119.746, "Timestamp": 20181105033000, "Source": "https://www.modbee.com/news/politics-government/article221118035.html"}, {"ID": 800047768, "Actor1": "NEW YORK CITY", "Actor1_Country": "USA", "Actor2": "EMPLOYER", "Actor2_Country": null, "Code": 172, "Class": 4, "Action_Location": "New York, United States", "Lat": 42.1497, "Long": -74.9384, "Timestamp": 20181105033000, "Source": "https://www.japantimes.co.jp/?post_type=news&p=1563602"}, {"ID": 800047769, "Actor1": "UNITED STATES", "Actor1_Country": "USA", "Actor2": "CANADA", "Actor2_Country": "CAN", "Code": 61, "Class": 2, "Action_Location": "United States", "Lat": 39.828175, "Long": -98.5795, "Timestamp": 20181105033000, "Source": "https://www.wkrb13.com/2018/11/05/gildan-activewear-inc-gil-expected-to-post-quarterly-sales-of-715-35-million.html"}, {"ID": 800047770, "Actor1": "UNITED STATES", "Actor1_Country": "USA", "Actor2": "POLICE", "Actor2_Country": null, "Code": 10, "Class": 1, "Action_Location": "United States", "Lat": 39.828175, "Long": -98.5795, "Timestamp": 20181105033000, "Source": "https://deadline.com/print-article/1202495313/"}, {"ID": 800047779, "Actor1": "WASHINGTON", "Actor1_Country": "USA", "Actor2": "CONSTITUENT", "Actor2_Country": null, "Code": 12, "Class": 1, "Action_Location": "Washington, District of Columbia, United States", "Lat": 38.8951, "Long": -77.0364, "Timestamp": 20181105033000, "Source": "http://wibx950.com/gop-sends-trump-jr-for-last-minute-tenney-rally/"}, {"ID": 800047780, "Actor1": "UNITED STATES", "Actor1_Country": "USA", "Actor2": "VOTER", "Actor2_Country": null, "Code": 13, "Class": 1, "Action_Location": "Nevada, United States", "Lat": 38.4199, "Long": -117.122, "Timestamp": 20181105033000, "Source": "https://www.sfgate.com/news/article/In-final-pitch-to-suburban-voters-it-s-GOP-talk-13362111.php"}, {"ID": 800047783, "Actor1": "UNITED STATES", "Actor1_Country": "USA", "Actor2": "VOTER", "Actor2_Country": null, "Code": 20, "Class": 1, "Action_Location": "West Virginia, United States", "Lat": 38.468, "Long": -80.9696, "Timestamp": 20181105033000, "Source": "https://mg.co.za/article/2018-11-05-us-midterms-key-factors-of-the-2018-elections/"}, {"ID": 800047784, "Actor1": "FLORIDA", "Actor1_Country": "USA", "Actor2": "COMMUNITY", "Actor2_Country": null, "Code": 36, "Class": 1, "Action_Location": "Florida, United States", "Lat": 27.8333, "Long": -81.717, "Timestamp": 20181105033000, "Source": "https://www.theledger.com/news/20181104/florence-villa-workshop-set-for-thursday"}, {"ID": 800047788, "Actor1": "UNITED STATES", "Actor1_Country": "USA", "Actor2": "COMMUNITY", "Actor2_Country": null, "Code": 51, "Class": 1, "Action_Location": "Lakeland, Florida, United States", "Lat": 28.0395, "Long": -81.9498, "Timestamp": 20181105033000, "Source": "https://www.theledger.com/news/20181104/your-good-news-in-polk"}, {"ID": 800047790, "Actor1": "UNITED STATES", "Actor1_Country": "USA", "Actor2": "COMMUNITY", "Actor2_Country": null, "Code": 84, "Class": 2, "Action_Location": "Florida, United States", "Lat": 27.8333, "Long": -81.717, "Timestamp": 20181105033000, "Source": "https://www.theledger.com/news/20181104/florence-villa-workshop-set-for-thursday"}, {"ID": 800047791, "Actor1": "TENNESSEE", "Actor1_Country": "USA", "Actor2": "MIGRANT", "Actor2_Country": null, "Code": 111, "Class": 3, "Action_Location": "Tennessee, United States", "Lat": 35.7449, "Long": -86.7489, "Timestamp": 20181105033000, "Source": "https://www.businessinsider.com/trump-migrant-caravan-invasion-campaign-rally-marsha-blackburn-tennessee-2018-11"}, {"ID": 800047792, "Actor1": "UNITED STATES", "Actor1_Country": "USA", "Actor2": "VOTER", "Actor2_Country": null, "Code": 128, "Class": 3, "Action_Location": "Georgia, United States", "Lat": 32.9866, "Long": -83.6487, "Timestamp": 20181105033000, "Source": "https://www.japantimes.co.jp/?post_type=news&p=1563425"}, {"ID": 800047794, "Actor1": "UNITED STATES", "Actor1_Country": "USA", "Actor2": "STUDENT", "Actor2_Country": null, "Code": 20, "Class": 1, "Action_Location": "Massachusetts, United States", "Lat": 42.2373, "Long": -71.5314, "Timestamp": 20181105033000, "Source": "https://www.concordmonitor.com/Sanders-urges-New-Hampshire-college-students-to-vote-Tuesday-21322545"}, {"ID": 800047801, "Actor1": "UNITED STATES", "Actor1_Country": "USA", "Actor2": "STUDENT", "Actor2_Country": null, "Code": 190, "Class": 4, "Action_Location": "Texas, United States", "Lat": 31.106, "Long": -97.6475, "Timestamp": 20181105033000, "Source": "https://www.azfamily.com/newlyweds-killed-in-helicopter-crash-leaving-ceremony/article_8bb71096-1d03-5d68-8557-8f24a7d95f16.html"}, {"ID": 800047803, "Actor1": "UNITED STATES", "Actor1_Country": "USA", "Actor2": "GOVERNMENT OFFICIAL", "Actor2_Country": null, "Code": 12, "Class": 1, "Action_Location": "Iowa, United States", "Lat": 42.0046, "Long": -93.214, "Timestamp": 20181105033000, "Source": "https://www.kcrg.com/content/news/499584061.html"}, {"ID": 800047805, "Actor1": "UNITED STATES", "Actor1_Country": "USA", "Actor2": "PRESIDENT", "Actor2_Country": null, "Code": 36, "Class": 1, "Action_Location": "Estero, Florida, United States", "Lat": 26.4381, "Long": -81.8068, "Timestamp": 20181105033000, "Source": "https://www.theledger.com/news/20181104/five-things-to-watch-for-on-election-day"}, {"ID": 800047806, "Actor1": "UNITED STATES", "Actor1_Country": "USA", "Actor2": "PRESIDENT", "Actor2_Country": null, "Code": 36, "Class": 1, "Action_Location": "Florida, United States", "Lat": 27.8333, "Long": -81.717, "Timestamp": 20181105033000, "Source": "https://www.theledger.com/news/20181104/five-things-to-watch-for-on-election-day"}, {"ID": 800047807, "Actor1": "UNITED STATES", "Actor1_Country": "USA", "Actor2": "PRESIDENT", "Actor2_Country": null, "Code": 40, "Class": 1, "Action_Location": "Florida, United States", "Lat": 27.8333, "Long": -81.717, "Timestamp": 20181105033000, "Source": "http://www.sun-sentinel.com/news/politics/fl-ne-ron-desantis-final-sunday-20181104-story.html"}, {"ID": 800047809, "Actor1": "UNITED STATES", "Actor1_Country": "USA", "Actor2": "PRESIDENT", "Actor2_Country": null, "Code": 42, "Class": 1, "Action_Location": "Ohio, United States", "Lat": 40.3736, "Long": -82.7755, "Timestamp": 20181105033000, "Source": "https://www.wate.com/news/politics/thousands-attend-president-trump-s-rally-in-chattanooga/1561018926"}, {"ID": 800047810, "Actor1": "MONTANA", "Actor1_Country": "USA", "Actor2": "PRESIDENT", "Actor2_Country": null, "Code": 43, "Class": 1, "Action_Location": "Montana, United States", "Lat": 46.9048, "Long": -110.326, "Timestamp": 20181105033000, "Source": "http://www.mtpr.org/post/final-trump-rally-bozeman-draws-fewer-protesters"}, {"ID": 800047811, "Actor1": "UNITED STATES", "Actor1_Country": "USA", "Actor2": "PRESIDENT", "Actor2_Country": null, "Code": 51, "Class": 1, "Action_Location": "Chattanooga, Tennessee, United States", "Lat": 35.0456, "Long": -85.3097, "Timestamp": 20181105033000, "Source": "https://www.businessinsider.com/trump-migrant-caravan-invasion-campaign-rally-marsha-blackburn-tennessee-2018-11"}, {"ID": 800047816, "Actor1": "THE US", "Actor1_Country": "USA", "Actor2": "IRAN", "Actor2_Country": "IRN", "Code": 874, "Class": 2, "Action_Location": "Iran", "Lat": 32.0, "Long": 53.0, "Timestamp": 20181105033000, "Source": "https://iranian.com/2018/11/04/the-us-pseudo-pressure-game-with-saudi-arabia/"}, {"ID": 800047817, "Actor1": "COLORADO", "Actor1_Country": "USA", "Actor2": "IRAQ", "Actor2_Country": "IRQ", "Code": 173, "Class": 4, "Action_Location": "Colorado, United States", "Lat": 39.0646, "Long": -105.327, "Timestamp": 20181105033000, "Source": "https://www.breitbart.com/national-security/2018/11/04/refugee-from-iraq-accused-of-making-two-bombs-in-las-vegas-for-attack/"}, {"ID": 800047818, "Actor1": "COLORADO", "Actor1_Country": "USA", "Actor2": "IRAQ", "Actor2_Country": "IRQ", "Code": 173, "Class": 4, "Action_Location": "Iraq", "Lat": 33.0, "Long": 44.0, "Timestamp": 20181105033000, "Source": "https://www.breitbart.com/national-security/2018/11/04/refugee-from-iraq-accused-of-making-two-bombs-in-las-vegas-for-attack/"}, {"ID": 800047819, "Actor1": "COLORADO", "Actor1_Country": "USA", "Actor2": "IRAQ", "Actor2_Country": "IRQ", "Code": 190, "Class": 4, "Action_Location": "Colorado, United States", "Lat": 39.0646, "Long": -105.327, "Timestamp": 20181105033000, "Source": "https://www.breitbart.com/national-security/2018/11/04/refugee-from-iraq-accused-of-making-two-bombs-in-las-vegas-for-attack/"}, {"ID": 800047820, "Actor1": "COLORADO", "Actor1_Country": "USA", "Actor2": "IRAQ", "Actor2_Country": "IRQ", "Code": 190, "Class": 4, "Action_Location": "Iraq", "Lat": 33.0, "Long": 44.0, "Timestamp": 20181105033000, "Source": "https://www.breitbart.com/national-security/2018/11/04/refugee-from-iraq-accused-of-making-two-bombs-in-las-vegas-for-attack/"}, {"ID": 800047823, "Actor1": "FLORIDA", "Actor1_Country": "USA", "Actor2": "SENATE", "Actor2_Country": null, "Code": 110, "Class": 3, "Action_Location": "Florida, United States", "Lat": 27.8333, "Long": -81.717, "Timestamp": 20181105033000, "Source": "https://www.theledger.com/news/20181104/five-things-to-watch-for-on-election-day"}, {"ID": 800047831, "Actor1": "CALIFORNIA", "Actor1_Country": "USA", "Actor2": "MEXICAN", "Actor2_Country": "MEX", "Code": 51, "Class": 1, "Action_Location": "Washington, District of Columbia, United States", "Lat": 38.8951, "Long": -77.0364, "Timestamp": 20181105033000, "Source": "https://www.yakimaherald.com/opinion/cepeda-column-mr-president-latinos-don-t-scare-easily/article_acd4f858-de14-11e8-ac23-67b2af18d4e0.html"}, {"ID": 800047839, "Actor1": "WASHINGTON", "Actor1_Country": "USA", "Actor2": "NORTH KOREA", "Actor2_Country": "PRK", "Code": 36, "Class": 1, "Action_Location": "Washington, District of Columbia, United States", "Lat": 38.8951, "Long": -77.0364, "Timestamp": 20181105033000, "Source": "https://www.siasat.com/news/pompeo-says-he-will-meet-n-korea-number-two-new-york-1428092/"}, {"ID": 800047840, "Actor1": "UNITED STATES", "Actor1_Country": "USA", "Actor2": "NORTH KOREA", "Actor2_Country": "PRK", "Code": 36, "Class": 1, "Action_Location": "New York, United States", "Lat": 42.1497, "Long": -74.9384, "Timestamp": 20181105033000, "Source": "https://www.siasat.com/news/pompeo-says-he-will-meet-n-korea-number-two-new-york-1428092/"}, {"ID": 800047842, "Actor1": "UNITED STATES", "Actor1_Country": "USA", "Actor2": "NORTH KOREAN", "Actor2_Country": "PRK", "Code": 163, "Class": 4, "Action_Location": "Pyongyang, P'yongyang-si, North Korea", "Lat": 39.0194, "Long": 125.755, "Timestamp": 20181105033000, "Source": "https://www.siasat.com/news/pompeo-says-he-will-meet-n-korea-number-two-new-york-1428092/"}, {"ID": 800047843, "Actor1": "UNITED STATES", "Actor1_Country": "USA", "Actor2": "NORTH KOREAN", "Actor2_Country": "PRK", "Code": 163, "Class": 4, "Action_Location": "Washington, District of Columbia, United States", "Lat": 38.8951, "Long": -77.0364, "Timestamp": 20181105033000, "Source": "https://www.siasat.com/news/pompeo-says-he-will-meet-n-korea-number-two-new-york-1428092/"}, {"ID": 800047844, "Actor1": "UNITED STATES", "Actor1_Country": "USA", "Actor2": "NORTH KOREA", "Actor2_Country": "PRK", "Code": 14, "Class": 1, "Action_Location": "Pyongyang, P'yongyang-si, North Korea", "Lat": 39.0194, "Long": 125.755, "Timestamp": 20181105033000, "Source": "https://www.siasat.com/news/pompeo-says-he-will-meet-n-korea-number-two-new-york-1428092/"}, {"ID": 800047845, "Actor1": "UNITED STATES", "Actor1_Country": "USA", "Actor2": "NORTH KOREA", "Actor2_Country": "PRK", "Code": 14, "Class": 1, "Action_Location": "Washington, District of Columbia, United States", "Lat": 38.8951, "Long": -77.0364, "Timestamp": 20181105033000, "Source": "https://www.siasat.com/news/pompeo-says-he-will-meet-n-korea-number-two-new-york-1428092/"}, {"ID": 800047856, "Actor1": "UNITED STATES", "Actor1_Country": "USA", "Actor2": "UNITED STATES", "Actor2_Country": "USA", "Code": 51, "Class": 1, "Action_Location": "Chattanooga, Tennessee, United States", "Lat": 35.0456, "Long": -85.3097, "Timestamp": 20181105033000, "Source": "https://www.businessinsider.com/trump-migrant-caravan-invasion-campaign-rally-marsha-blackburn-tennessee-2018-11"}, {"ID": 800047860, "Actor1": "UNITED STATES", "Actor1_Country": "USA", "Actor2": "UNITED STATES", "Actor2_Country": "USA", "Code": 40, "Class": 1, "Action_Location": "White House, District of Columbia, United States", "Lat": 38.8951, "Long": -77.0364, "Timestamp": 20181105033000, "Source": "https://www.breitbart.com/politics/2018/11/04/watch-black-faith-leaders-ask-who-want-represent-you/"}, {"ID": 800047863, "Actor1": "MONTANA", "Actor1_Country": "USA", "Actor2": "UNITED STATES", "Actor2_Country": "USA", "Code": 42, "Class": 1, "Action_Location": "Montana, United States", "Lat": 46.9048, "Long": -110.326, "Timestamp": 20181105033000, "Source": "http://www.mtpr.org/post/final-trump-rally-bozeman-draws-fewer-protesters"}, {"ID": 800047865, "Actor1": "MONTANA", "Actor1_Country": "USA", "Actor2": "UNITED STATES", "Actor2_Country": "USA", "Code": 43, "Class": 1, "Action_Location": "Montana, United States", "Lat": 46.9048, "Long": -110.326, "Timestamp": 20181105033000, "Source": "http://www.mtpr.org/post/trump-headlines-weekend-campaign-blast-advance-tuesdays-election"}, {"ID": 800047867, "Actor1": "UNITED STATES", "Actor1_Country": "USA", "Actor2": "FLORIDA", "Actor2_Country": "USA", "Code": 10, "Class": 1, "Action_Location": "New York, United States", "Lat": 42.1497, "Long": -74.9384, "Timestamp": 20181105033000, "Source": "https://whmi.com/news/national/this-is-not-how-i-raised-him-mother-of-mail-bombing-suspect"}, {"ID": 800047868, "Actor1": "UNITED STATES", "Actor1_Country": "USA", "Actor2": "FLORIDA", "Actor2_Country": "USA", "Code": 10, "Class": 1, "Action_Location": "New York, United States", "Lat": 42.1497, "Long": -74.9384, "Timestamp": 20181105033000, "Source": "https://whmi.com/news/national/this-is-not-how-i-raised-him-mother-of-mail-bombing-suspect"}, {"ID": 800047873, "Actor1": "UNITED STATES", "Actor1_Country": "USA", "Actor2": "VIETNAM", "Actor2_Country": "VNM", "Code": 40, "Class": 1, "Action_Location": "Missoula, Montana, United States", "Lat": 46.8721, "Long": -113.994, "Timestamp": 20181105033000, "Source": "https://missoulian.com/news/local/last-vietnam-war-vets-to-leave-active-service-meet-in/article_fd992202-1ef4-555e-89ae-a916560f73db.html"}, {"ID": 800047874, "Actor1": "THE US", "Actor1_Country": "USA", "Actor2": "VIETNAM", "Actor2_Country": "VNM", "Code": 42, "Class": 1, "Action_Location": "Da Nang, \u00d0 N?ng, Vietnam, Republic Of", "Lat": 16.0678, "Long": 108.221, "Timestamp": 20181105033000, "Source": "https://missoulian.com/news/local/last-vietnam-war-vets-to-leave-active-service-meet-in/article_fd992202-1ef4-555e-89ae-a916560f73db.html"}, {"ID": 800047875, "Actor1": "UNITED STATES", "Actor1_Country": "USA", "Actor2": "VIETNAM", "Actor2_Country": "VNM", "Code": 43, "Class": 1, "Action_Location": "Missoula, Montana, United States", "Lat": 46.8721, "Long": -113.994, "Timestamp": 20181105033000, "Source": "https://missoulian.com/news/local/last-vietnam-war-vets-to-leave-active-service-meet-in/article_fd992202-1ef4-555e-89ae-a916560f73db.html"}, {"ID": 800047878, "Actor1": "WASHINGTON", "Actor1_Country": "USA", "Actor2": "SENA", "Actor2_Country": null, "Code": 40, "Class": 1, "Action_Location": "Washington, District of Columbia, United States", "Lat": 38.8951, "Long": -77.0364, "Timestamp": 20181105033000, "Source": "https://www.sfgate.com/news/article/In-final-pitch-to-suburban-voters-it-s-GOP-talk-13362111.php"}, {"ID": 800047879, "Actor1": "WASHINGTON", "Actor1_Country": "USA", "Actor2": "SENA", "Actor2_Country": null, "Code": 40, "Class": 1, "Action_Location": "Washington, District of Columbia, United States", "Lat": 38.8951, "Long": -77.0364, "Timestamp": 20181105033000, "Source": "https://www.sfgate.com/news/article/In-final-pitch-to-suburban-voters-it-s-GOP-talk-13362111.php"}, {"ID": 800047884, "Actor1": "COLORADO", "Actor1_Country": "USA", "Actor2": "IRAQI", "Actor2_Country": "IRQ", "Code": 173, "Class": 4, "Action_Location": "Colorado, United States", "Lat": 39.0646, "Long": -105.327, "Timestamp": 20181105033000, "Source": "https://www.breitbart.com/national-security/2018/11/04/refugee-from-iraq-accused-of-making-two-bombs-in-las-vegas-for-attack/"}, {"ID": 800047885, "Actor1": "UNITED STATES", "Actor1_Country": "USA", "Actor2": "IRAQ", "Actor2_Country": "IRQ", "Code": 173, "Class": 4, "Action_Location": "Iraq", "Lat": 33.0, "Long": 44.0, "Timestamp": 20181105033000, "Source": "https://www.breitbart.com/national-security/2018/11/04/refugee-from-iraq-accused-of-making-two-bombs-in-las-vegas-for-attack/"}, {"ID": 800047886, "Actor1": "COLORADO", "Actor1_Country": "USA", "Actor2": "IRAQI", "Actor2_Country": "IRQ", "Code": 190, "Class": 4, "Action_Location": "Colorado, United States", "Lat": 39.0646, "Long": -105.327, "Timestamp": 20181105033000, "Source": "https://www.breitbart.com/national-security/2018/11/04/refugee-from-iraq-accused-of-making-two-bombs-in-las-vegas-for-attack/"}, {"ID": 800047887, "Actor1": "UNITED STATES", "Actor1_Country": "USA", "Actor2": "UNITED STATES", "Actor2_Country": "USA", "Code": 10, "Class": 1, "Action_Location": "Texas, United States", "Lat": 31.106, "Long": -97.6475, "Timestamp": 20181105033000, "Source": "https://www.theledger.com/news/20181104/funds-approved-to-assist-homeless-in-transition"}, {"ID": 800047890, "Actor1": "UNITED STATES", "Actor1_Country": "USA", "Actor2": "THE ASSOCIATED PRESS", "Actor2_Country": "USA", "Code": 13, "Class": 1, "Action_Location": "Lake Hallie, Wisconsin, United States", "Lat": 44.8758, "Long": -91.4407, "Timestamp": 20181105033000, "Source": "https://www.mprnews.org/story/2018/11/04/hundreds-gather-vigil-for-girl-scouts-parent-killed-wisconsin-crash"}, {"ID": 800047891, "Actor1": "UNITED STATES", "Actor1_Country": "USA", "Actor2": "THE ASSOCIATED PRESS", "Actor2_Country": "USA", "Code": 173, "Class": 4, "Action_Location": "Lake Hallie, Wisconsin, United States", "Lat": 44.8758, "Long": -91.4407, "Timestamp": 20181105033000, "Source": "https://www.mprnews.org/story/2018/11/04/hundreds-gather-vigil-for-girl-scouts-parent-killed-wisconsin-crash"}, {"ID": 800047900, "Actor1": "UNITED STATES", "Actor1_Country": "USA", "Actor2": "SECRETARY OF STATE", "Actor2_Country": null, "Code": 831, "Class": 2, "Action_Location": "Ottawa, Ontario, Canada", "Lat": 45.4167, "Long": -75.7, "Timestamp": 20181105033000, "Source": "https://www.japantimes.co.jp/?post_type=news&p=1563425"}, {"ID": 800047901, "Actor1": "GEORGE SOROS", "Actor1_Country": "USA", "Actor2": "MIGRANT", "Actor2_Country": null, "Code": 51, "Class": 1, "Action_Location": "Israel", "Lat": 31.5, "Long": 34.75, "Timestamp": 20181105033000, "Source": "https://dailycaller.com/2018/11/04/soros-spending-millions-migrants/"}, {"ID": 800047902, "Actor1": "JIMMY CARTER", "Actor1_Country": "USA", "Actor2": "SECRETARY OF STATE", "Actor2_Country": null, "Code": 831, "Class": 2, "Action_Location": "Ottawa, Ontario, Canada", "Lat": 45.4167, "Long": -75.7, "Timestamp": 20181105033000, "Source": "https://www.japantimes.co.jp/?post_type=news&p=1563425"}, {"ID": 800047903, "Actor1": "JIMMY CARTER", "Actor1_Country": "USA", "Actor2": "SECRETARY OF STATE", "Actor2_Country": null, "Code": 831, "Class": 2, "Action_Location": "Georgia, United States", "Lat": 32.9866, "Long": -83.6487, "Timestamp": 20181105033000, "Source": "https://www.japantimes.co.jp/?post_type=news&p=1563425"}, {"ID": 800047913, "Actor1": "THE WHITE HOUSE", "Actor1_Country": "USA", "Actor2": "PRESIDENT", "Actor2_Country": null, "Code": 40, "Class": 1, "Action_Location": "White House, District of Columbia, United States", "Lat": 38.8951, "Long": -77.0364, "Timestamp": 20181105033000, "Source": "https://www.breitbart.com/politics/2018/11/04/watch-black-faith-leaders-ask-who-want-represent-you/"}, {"ID": 800047914, "Actor1": "UNITED STATES", "Actor1_Country": "USA", "Actor2": "SECRETARY OF STATE", "Actor2_Country": null, "Code": 831, "Class": 2, "Action_Location": "Georgia, United States", "Lat": 32.9866, "Long": -83.6487, "Timestamp": 20181105033000, "Source": "https://www.japantimes.co.jp/?post_type=news&p=1563425"}, {"ID": 800047916, "Actor1": "UNITED STATES", "Actor1_Country": "USA", "Actor2": "GAZETTE", "Actor2_Country": null, "Code": 10, "Class": 1, "Action_Location": "Iowa, United States", "Lat": 42.0046, "Long": -93.214, "Timestamp": 20181105033000, "Source": "https://www.kcrg.com/content/news/499584061.html"}, {"ID": 800047919, "Actor1": "UNITED STATES", "Actor1_Country": "USA", "Actor2": "AIR FORCE", "Actor2_Country": null, "Code": 42, "Class": 1, "Action_Location": "White House, District of Columbia, United States", "Lat": 38.8951, "Long": -77.0364, "Timestamp": 20181105033000, "Source": "https://www.oann.com/pres-trump-republican-party-will-do-well-in-upcoming-elections/"}, {"ID": 800047922, "Actor1": "UNITED STATES", "Actor1_Country": "USA", "Actor2": "UNITED STATES", "Actor2_Country": "USA", "Code": 40, "Class": 1, "Action_Location": "White House, District of Columbia, United States", "Lat": 38.8951, "Long": -77.0364, "Timestamp": 20181105033000, "Source": "https://www.breitbart.com/politics/2018/11/04/watch-black-faith-leaders-ask-who-want-represent-you/"}, {"ID": 800047931, "Actor1": "OBAMA", "Actor1_Country": "USA", "Actor2": "VIETNAM", "Actor2_Country": "VNM", "Code": 51, "Class": 1, "Action_Location": "Vietnam, Republic Of", "Lat": 16.166667, "Long": 107.833333, "Timestamp": 20181105033000, "Source": "https://www.nbcnews.com/news/us-news/hollywood-celebrities-aim-fire-young-voters-election-telethon-n930731?cid=public-rss_20181105"}, {"ID": 800047934, "Actor1": "BARACK OBAMA", "Actor1_Country": "USA", "Actor2": "UNITED STATES", "Actor2_Country": "USA", "Code": 51, "Class": 1, "Action_Location": "Tennessee, United States", "Lat": 35.7449, "Long": -86.7489, "Timestamp": 20181105033000, "Source": "https://mg.co.za/article/2018-11-05-us-midterms-key-factors-of-the-2018-elections/"}, {"ID": 800047940, "Actor1": "REUTERS", "Actor1_Country": "USA", "Actor2": "CHINESE", "Actor2_Country": "CHN", "Code": 43, "Class": 1, "Action_Location": "Shanghai, Shanghai, China", "Lat": 31.2222, "Long": 121.458, "Timestamp": 20181105033000, "Source": "https://uk.reuters.com/article/uk-china-economy-tariff/chinas-xi-promises-lower-tariffs-broader-market-access-idUKKCN1NA05B"}, {"ID": 800047941, "Actor1": "THE US", "Actor1_Country": "USA", "Actor2": "VIETNAM", "Actor2_Country": "VNM", "Code": 43, "Class": 1, "Action_Location": "Da Nang, \u00d0 N?ng, Vietnam, Republic Of", "Lat": 16.0678, "Long": 108.221, "Timestamp": 20181105033000, "Source": "https://missoulian.com/news/local/last-vietnam-war-vets-to-leave-active-service-meet-in/article_fd992202-1ef4-555e-89ae-a916560f73db.html"}, {"ID": 800047942, "Actor1": "THE US", "Actor1_Country": "USA", "Actor2": "VIETNAM", "Actor2_Country": "VNM", "Code": 43, "Class": 1, "Action_Location": "Missoula, Montana, United States", "Lat": 46.8721, "Long": -113.994, "Timestamp": 20181105033000, "Source": "https://missoulian.com/news/local/last-vietnam-war-vets-to-leave-active-service-meet-in/article_fd992202-1ef4-555e-89ae-a916560f73db.html"}, {"ID": 800047952, "Actor1": "VIETNAM", "Actor1_Country": "VNM", "Actor2": "MEDIA", "Actor2_Country": null, "Code": 42, "Class": 1, "Action_Location": "Da Nang, \u00d0 N?ng, Vietnam, Republic Of", "Lat": 16.0678, "Long": 108.221, "Timestamp": 20181105033000, "Source": "https://missoulian.com/news/local/last-vietnam-war-vets-to-leave-active-service-meet-in/article_fd992202-1ef4-555e-89ae-a916560f73db.html"}, {"ID": 800047953, "Actor1": "VIETNAM", "Actor1_Country": "VNM", "Actor2": "MEDIA", "Actor2_Country": null, "Code": 42, "Class": 1, "Action_Location": "Montana, United States", "Lat": 46.9048, "Long": -110.326, "Timestamp": 20181105033000, "Source": "https://missoulian.com/news/local/last-vietnam-war-vets-to-leave-active-service-meet-in/article_fd992202-1ef4-555e-89ae-a916560f73db.html"}, {"ID": 800047954, "Actor1": "VIETNAM", "Actor1_Country": "VNM", "Actor2": "MARINE CORP", "Actor2_Country": null, "Code": 62, "Class": 2, "Action_Location": "Da Nang, \u00d0 N?ng, Vietnam, Republic Of", "Lat": 16.0678, "Long": 108.221, "Timestamp": 20181105033000, "Source": "https://missoulian.com/news/local/last-vietnam-war-vets-to-leave-active-service-meet-in/article_fd992202-1ef4-555e-89ae-a916560f73db.html"}, {"ID": 800047955, "Actor1": "VIETNAM", "Actor1_Country": "VNM", "Actor2": "MARINE CORP", "Actor2_Country": null, "Code": 62, "Class": 2, "Action_Location": "Montana, United States", "Lat": 46.9048, "Long": -110.326, "Timestamp": 20181105033000, "Source": "https://missoulian.com/news/local/last-vietnam-war-vets-to-leave-active-service-meet-in/article_fd992202-1ef4-555e-89ae-a916560f73db.html"}, {"ID": 800047956, "Actor1": "VIETNAM", "Actor1_Country": "VNM", "Actor2": "UNITED STATES", "Actor2_Country": "USA", "Code": 40, "Class": 1, "Action_Location": "Da Nang, \u00d0 N?ng, Vietnam, Republic Of", "Lat": 16.0678, "Long": 108.221, "Timestamp": 20181105033000, "Source": "https://missoulian.com/news/local/last-vietnam-war-vets-to-leave-active-service-meet-in/article_fd992202-1ef4-555e-89ae-a916560f73db.html"}, {"ID": 800047957, "Actor1": "VIETNAM", "Actor1_Country": "VNM", "Actor2": "UNITED STATES", "Actor2_Country": "USA", "Code": 40, "Class": 1, "Action_Location": "Florida, United States", "Lat": 27.8333, "Long": -81.717, "Timestamp": 20181105033000, "Source": "https://missoulian.com/news/local/last-vietnam-war-vets-to-leave-active-service-meet-in/article_fd992202-1ef4-555e-89ae-a916560f73db.html"}, {"ID": 800047958, "Actor1": "VIETNAM", "Actor1_Country": "VNM", "Actor2": "UNITED STATES", "Actor2_Country": "USA", "Code": 40, "Class": 1, "Action_Location": "Da Nang, \u00d0 N?ng, Vietnam, Republic Of", "Lat": 16.0678, "Long": 108.221, "Timestamp": 20181105033000, "Source": "https://missoulian.com/news/local/last-vietnam-war-vets-to-leave-active-service-meet-in/article_fd992202-1ef4-555e-89ae-a916560f73db.html"}, {"ID": 800047959, "Actor1": "VIETNAM", "Actor1_Country": "VNM", "Actor2": "UNITED STATES", "Actor2_Country": "USA", "Code": 42, "Class": 1, "Action_Location": "Missoula, Montana, United States", "Lat": 46.8721, "Long": -113.994, "Timestamp": 20181105033000, "Source": "https://missoulian.com/news/local/last-vietnam-war-vets-to-leave-active-service-meet-in/article_fd992202-1ef4-555e-89ae-a916560f73db.html"}, {"ID": 800047960, "Actor1": "VIETNAM", "Actor1_Country": "VNM", "Actor2": "UNITED STATES", "Actor2_Country": "USA", "Code": 42, "Class": 1, "Action_Location": "Da Nang, \u00d0 N?ng, Vietnam, Republic Of", "Lat": 16.0678, "Long": 108.221, "Timestamp": 20181105033000, "Source": "https://missoulian.com/news/local/last-vietnam-war-vets-to-leave-active-service-meet-in/article_fd992202-1ef4-555e-89ae-a916560f73db.html"}, {"ID": 800047961, "Actor1": "VIETNAM", "Actor1_Country": "VNM", "Actor2": "UNITED STATES", "Actor2_Country": "USA", "Code": 42, "Class": 1, "Action_Location": "Da Nang, \u00d0 N?ng, Vietnam, Republic Of", "Lat": 16.0678, "Long": 108.221, "Timestamp": 20181105033000, "Source": "https://missoulian.com/news/local/last-vietnam-war-vets-to-leave-active-service-meet-in/article_fd992202-1ef4-555e-89ae-a916560f73db.html"}, {"ID": 800047962, "Actor1": "VIETNAM", "Actor1_Country": "VNM", "Actor2": "THE US", "Actor2_Country": "USA", "Code": 43, "Class": 1, "Action_Location": "Da Nang, \u00d0 N?ng, Vietnam, Republic Of", "Lat": 16.0678, "Long": 108.221, "Timestamp": 20181105033000, "Source": "https://missoulian.com/news/local/last-vietnam-war-vets-to-leave-active-service-meet-in/article_fd992202-1ef4-555e-89ae-a916560f73db.html"}, {"ID": 800047963, "Actor1": "VIETNAM", "Actor1_Country": "VNM", "Actor2": "THE US", "Actor2_Country": "USA", "Code": 42, "Class": 1, "Action_Location": "Da Nang, \u00d0 N?ng, Vietnam, Republic Of", "Lat": 16.0678, "Long": 108.221, "Timestamp": 20181105033000, "Source": "https://missoulian.com/news/local/last-vietnam-war-vets-to-leave-active-service-meet-in/article_fd992202-1ef4-555e-89ae-a916560f73db.html"}, {"ID": 800047964, "Actor1": "VIETNAM", "Actor1_Country": "VNM", "Actor2": "THE US", "Actor2_Country": "USA", "Code": 42, "Class": 1, "Action_Location": "Missoula, Montana, United States", "Lat": 46.8721, "Long": -113.994, "Timestamp": 20181105033000, "Source": "https://missoulian.com/news/local/last-vietnam-war-vets-to-leave-active-service-meet-in/article_fd992202-1ef4-555e-89ae-a916560f73db.html"}, {"ID": 800047973, "Actor1": "ADEN", "Actor1_Country": "YEM", "Actor2": "IRANIAN", "Actor2_Country": "IRN", "Code": 190, "Class": 4, "Action_Location": "Sanaa, San\u0091a', Yemen", "Lat": 15.3547, "Long": 44.2067, "Timestamp": 20181105033000, "Source": "https://www.businessinsider.com/r-saudi-backed-forces-advance-towards-yemens-hodeidah-as-un-warns-of-famine-2018-11"}, {"ID": 800047974, "Actor1": "ADEN", "Actor1_Country": "YEM", "Actor2": "IRANIAN", "Actor2_Country": "IRN", "Code": 190, "Class": 4, "Action_Location": "Dubai, Dubayy, United Arab Emirates", "Lat": 25.2522, "Long": 55.28, "Timestamp": 20181105033000, "Source": "https://www.businessinsider.com/r-saudi-backed-forces-advance-towards-yemens-hodeidah-as-un-warns-of-famine-2018-11"}, {"ID": 800047975, "Actor1": "YEMEN", "Actor1_Country": "YEM", "Actor2": "SAUDI", "Actor2_Country": "SAU", "Code": 20, "Class": 1, "Action_Location": "Riyadh, Ar Riya?, Saudi Arabia", "Lat": 24.6408, "Long": 46.7728, "Timestamp": 20181105033000, "Source": "https://www.yahoo.com/news/saudi-rights-record-un-spotlight-020445872.html"}, {"ID": 800047976, "Actor1": "YEMEN", "Actor1_Country": "YEM", "Actor2": "SAUDI ARABIA", "Actor2_Country": "SAU", "Code": 20, "Class": 1, "Action_Location": "Riyadh, Ar Riya?, Saudi Arabia", "Lat": 24.6408, "Long": 46.7728, "Timestamp": 20181105033000, "Source": "https://www.yahoo.com/news/saudi-rights-record-un-spotlight-020445872.html"}, {"ID": 800047982, "Actor1": "DALIT", "Actor1_Country": null, "Actor2": "CHHATTISGARH", "Actor2_Country": "IND", "Code": 110, "Class": 3, "Action_Location": "Bilaspur, Chhattisgarh, India", "Lat": 22.0833, "Long": 82.15, "Timestamp": 20181105033000, "Source": "https://www.firstpost.com/politics/chhattisgarh-assembly-polls-2018-mayawati-says-casteist-bjp-congress-are-trying-to-abolish-reservation-system-5503461.html"}, {"ID": 800047986, "Actor1": "DALIT", "Actor1_Country": null, "Actor2": "CHHATTISGARH", "Actor2_Country": "IND", "Code": 112, "Class": 3, "Action_Location": "Bilaspur, Chhattisgarh, India", "Lat": 22.0833, "Long": 82.15, "Timestamp": 20181105033000, "Source": "https://www.firstpost.com/politics/chhattisgarh-assembly-polls-2018-mayawati-says-casteist-bjp-congress-are-trying-to-abolish-reservation-system-5503461.html"}, {"ID": 800047987, "Actor1": "DALIT", "Actor1_Country": null, "Actor2": "CONGRESS", "Actor2_Country": null, "Code": 110, "Class": 3, "Action_Location": "Bilaspur, Chhattisgarh, India", "Lat": 22.0833, "Long": 82.15, "Timestamp": 20181105033000, "Source": "https://www.firstpost.com/politics/chhattisgarh-assembly-polls-2018-mayawati-says-casteist-bjp-congress-are-trying-to-abolish-reservation-system-5503461.html"}, {"ID": 800047992, "Actor1": "SENA", "Actor1_Country": null, "Actor2": "VOTER", "Actor2_Country": null, "Code": 13, "Class": 1, "Action_Location": "Nevada, United States", "Lat": 38.4199, "Long": -117.122, "Timestamp": 20181105033000, "Source": "https://www.sfgate.com/news/article/In-final-pitch-to-suburban-voters-it-s-GOP-talk-13362111.php"}, {"ID": 800047993, "Actor1": "SENA", "Actor1_Country": null, "Actor2": "WASHINGTON", "Actor2_Country": "USA", "Code": 40, "Class": 1, "Action_Location": "Washington, District of Columbia, United States", "Lat": 38.8951, "Long": -77.0364, "Timestamp": 20181105033000, "Source": "https://www.sfgate.com/news/article/In-final-pitch-to-suburban-voters-it-s-GOP-talk-13362111.php"}, {"ID": 800047994, "Actor1": "SENA", "Actor1_Country": null, "Actor2": "WASHINGTON", "Actor2_Country": "USA", "Code": 40, "Class": 1, "Action_Location": "Washington, District of Columbia, United States", "Lat": 38.8951, "Long": -77.0364, "Timestamp": 20181105033000, "Source": "https://www.sfgate.com/news/article/In-final-pitch-to-suburban-voters-it-s-GOP-talk-13362111.php"}]