[{"ID": 800052423, "Actor1": "AUSTRALIA", "Actor1_Country": "AUS", "Actor2": "REFUGEE", "Actor2_Country": null, "Code": 112, "Class": 3, "Action_Location": "Papua New Guinea", "Lat": -6.0, "Long": 147.0, "Timestamp": 20181105041500, "Source": "http://mynorthwest.com/1171209/independent-says-australian-govt-lost-on-its-refugee-stance/"}, {"ID": 800052424, "Actor1": "AUSTRALIAN", "Actor1_Country": "AUS", "Actor2": "THE US", "Actor2_Country": "USA", "Code": 40, "Class": 1, "Action_Location": "California, United States", "Lat": 36.17, "Long": -119.746, "Timestamp": 20181105041500, "Source": "https://www.sunshinecoastdaily.com.au/news/us-gun-culture-pull-trigger-inhale-powder-boys/3567926/"}, {"ID": 800052425, "Actor1": "AUSTRALIAN", "Actor1_Country": "AUS", "Actor2": "THE US", "Actor2_Country": "USA", "Code": 40, "Class": 1, "Action_Location": "North Korea", "Lat": 40.0, "Long": 127.0, "Timestamp": 20181105041500, "Source": "https://www.sunshinecoastdaily.com.au/news/us-gun-culture-pull-trigger-inhale-powder-boys/3567926/"}, {"ID": 800052533, "Actor1": "SHANGHAI", "Actor1_Country": "CHN", "Actor2": "US OFFICIAL", "Actor2_Country": "USA", "Code": 43, "Class": 1, "Action_Location": "Shanghai, Shanghai, China", "Lat": 31.2222, "Long": 121.458, "Timestamp": 20181105041500, "Source": "https://au.news.yahoo.com/chinas-xi-vows-lower-tariff-more-imports-033826618--spt.html"}, {"ID": 800052569, "Actor1": "DETECTIVE", "Actor1_Country": null, "Actor2": "AUSTRALIA", "Actor2_Country": "AUS", "Code": 173, "Class": 4, "Action_Location": "Perth, Western Australia, Australia", "Lat": -31.9333, "Long": 115.833, "Timestamp": 20181105041500, "Source": "https://www.hardenexpress.com.au/story/5740847/site-searched-for-missing-perth-mums-body/?cs=6266"}, {"ID": 800052570, "Actor1": "DETECTIVE", "Actor1_Country": null, "Actor2": "AUSTRALIA", "Actor2_Country": "AUS", "Code": 190, "Class": 4, "Action_Location": "Perth, Western Australia, Australia", "Lat": -31.9333, "Long": 115.833, "Timestamp": 20181105041500, "Source": "https://www.hardenexpress.com.au/story/5740847/site-searched-for-missing-perth-mums-body/?cs=6266"}, {"ID": 800052588, "Actor1": "CUBA", "Actor1_Country": "CUB", "Actor2": "NORTH KOREA", "Actor2_Country": "PRK", "Code": 40, "Class": 1, "Action_Location": "Cuba", "Lat": 22.0, "Long": -79.5, "Timestamp": 20181105041500, "Source": "https://www.onenewspage.com/n/World/1zjaqpd9mm/Cuban-president-meets-North-Korea-Kim-Jong.htm"}, {"ID": 800052688, "Actor1": "EGYPT", "Actor1_Country": "EGY", "Actor2": "SAINT", "Actor2_Country": null, "Code": 42, "Class": 1, "Action_Location": "Minya, Al Minya, Egypt", "Lat": 28.1099, "Long": 30.7503, "Timestamp": 20181105041500, "Source": "https://www.malaymail.com/s/1690006/pope-expresses-pain-over-attack-on-coptic-christians"}, {"ID": 800052727, "Actor1": "BRITISH", "Actor1_Country": "GBR", "Actor2": "IRELAND", "Actor2_Country": "IRL", "Code": 874, "Class": 2, "Action_Location": "United Kingdom", "Lat": 54.0, "Long": -4.0, "Timestamp": 20181105041500, "Source": "https://www.onenewspage.com/n/World/1zjaqpd90u/Britain-Raab-wants-right-to-scrap-Irish.htm"}, {"ID": 800052750, "Actor1": "ACCRA", "Actor1_Country": "GHA", "Actor2": "TYRE", "Actor2_Country": "LBN", "Code": 42, "Class": 1, "Action_Location": "Winneba, Ghana (general), Ghana", "Lat": 5.34357, "Long": -0.622963, "Timestamp": 20181105041500, "Source": "https://www.ghanaweb.com/GhanaHomePage/NewsArchive/6-dead-in-fatal-accident-at-Gomoa-Mpota-junction-697943"}, {"ID": 800052802, "Actor1": "PRINCE", "Actor1_Country": null, "Actor2": "GHANA", "Actor2_Country": "GHA", "Code": 51, "Class": 1, "Action_Location": "Ghana", "Lat": 8.0, "Long": -2.0, "Timestamp": 20181105041500, "Source": "https://www.news24.com/Africa/News/pics-prince-charles-attends-traditional-celebration-of-leaders-in-ghana-20181105"}, {"ID": 800052807, "Actor1": "FOREIGN MINIST", "Actor1_Country": null, "Actor2": "NEWS AGENCY", "Actor2_Country": null, "Code": 10, "Class": 1, "Action_Location": "Washington, District of Columbia, United States", "Lat": 38.8951, "Long": -77.0364, "Timestamp": 20181105041500, "Source": "https://www.thestar.com.my/news/world/2018/11/05/us-south-korea-marines-hold-smallscale-exercise-ahead-of-north-korea-talks/"}, {"ID": 800052808, "Actor1": "PRESIDENT", "Actor1_Country": null, "Actor2": "MEDIA", "Actor2_Country": null, "Code": 13, "Class": 1, "Action_Location": "United States", "Lat": 39.828175, "Long": -98.5795, "Timestamp": 20181105041500, "Source": "https://www.watoday.com.au/business/companies/this-case-will-take-years-to-resolve-cochlear-to-fight-multi-million-dollar-lawsuit-20181105-p50e0s.html"}, {"ID": 800052886, "Actor1": "IRAQ", "Actor1_Country": "IRQ", "Actor2": "TURKEY", "Actor2_Country": "TUR", "Code": 51, "Class": 1, "Action_Location": "Ramadi, Al Anbar, Iraq", "Lat": 33.4206, "Long": 43.3078, "Timestamp": 20181105041500, "Source": "https://www.france24.com/en/20181105-hotel-poses-challenge-tribal-tradition-iraq"}, {"ID": 800052933, "Actor1": "JUDGE", "Actor1_Country": null, "Actor2": "PRESIDENT", "Actor2_Country": null, "Code": 120, "Class": 3, "Action_Location": "United States", "Lat": 39.828175, "Long": -98.5795, "Timestamp": 20181105041500, "Source": "https://www.watoday.com.au/business/companies/this-case-will-take-years-to-resolve-cochlear-to-fight-multi-million-dollar-lawsuit-20181105-p50e0s.html"}, {"ID": 800052960, "Actor1": "SOUTH KOREA", "Actor1_Country": "KOR", "Actor2": "NORTH KOREA", "Actor2_Country": "PRK", "Code": 46, "Class": 1, "Action_Location": "Pyongyang, P'yongyang-si, North Korea", "Lat": 39.0194, "Long": 125.755, "Timestamp": 20181105041500, "Source": "https://www.thestar.com.my/news/world/2018/11/05/us-south-korea-marines-hold-smallscale-exercise-ahead-of-north-korea-talks/"}, {"ID": 800052961, "Actor1": "SOUTH KOREA", "Actor1_Country": "KOR", "Actor2": "NORTH KOREA", "Actor2_Country": "PRK", "Code": 46, "Class": 1, "Action_Location": "Pyongyang, P'yongyang-si, North Korea", "Lat": 39.0194, "Long": 125.755, "Timestamp": 20181105041500, "Source": "https://www.thestar.com.my/news/world/2018/11/05/us-south-korea-marines-hold-smallscale-exercise-ahead-of-north-korea-talks/"}, {"ID": 800052962, "Actor1": "SOUTH KOREA", "Actor1_Country": "KOR", "Actor2": "NORTH KOREA", "Actor2_Country": "PRK", "Code": 46, "Class": 1, "Action_Location": "Seoul, Soul-t'ukpyolsi, South Korea", "Lat": 37.5664, "Long": 127.0, "Timestamp": 20181105041500, "Source": "https://www.thestar.com.my/news/world/2018/11/05/us-south-korea-marines-hold-smallscale-exercise-ahead-of-north-korea-talks/"}, {"ID": 800052972, "Actor1": "TYRE", "Actor1_Country": "LBN", "Actor2": "ACCRA", "Actor2_Country": "GHA", "Code": 43, "Class": 1, "Action_Location": "Winneba, Ghana (general), Ghana", "Lat": 5.34357, "Long": -0.622963, "Timestamp": 20181105041500, "Source": "https://www.ghanaweb.com/GhanaHomePage/NewsArchive/6-dead-in-fatal-accident-at-Gomoa-Mpota-junction-697943"}, {"ID": 800053006, "Actor1": "COAST GUARD", "Actor1_Country": null, "Actor2": "RETIRED", "Actor2_Country": null, "Code": 73, "Class": 2, "Action_Location": "Florida, United States", "Lat": 27.8333, "Long": -81.717, "Timestamp": 20181105041500, "Source": "http://www.ieyenews.com/wordpress/plea-deal-apparently-reached-in-newlyweds-caribbean-sailing-disappearance/"}, {"ID": 800053034, "Actor1": "GOOGLE", "Actor1_Country": "USA", "Actor2": "SCIENTIST", "Actor2_Country": null, "Code": 51, "Class": 1, "Action_Location": "New Delhi, Delhi, India", "Lat": 28.6, "Long": 77.2, "Timestamp": 20181105041500, "Source": "https://www.aninews.in/news/lifestyle/culture/google-doodle-honours-pioneer-computer-scientist-michael-dertouzos201811050840120001/"}, {"ID": 800053045, "Actor1": "NIGERIA", "Actor1_Country": "NGA", "Actor2": "GOVERNMENT", "Actor2_Country": null, "Code": 20, "Class": 1, "Action_Location": "Abuja, Abuja Federal Capital Territory, Nigeria", "Lat": 9.08333, "Long": 7.53333, "Timestamp": 20181105041500, "Source": "https://www.dailytrust.com.ng/un-worries-over-paucity-of-food-nutrition-data-in-nigeria.html"}, {"ID": 800053083, "Actor1": "NORTH KOREA", "Actor1_Country": "PRK", "Actor2": "CUBA", "Actor2_Country": "CUB", "Code": 40, "Class": 1, "Action_Location": "Cuba", "Lat": 22.0, "Long": -79.5, "Timestamp": 20181105041500, "Source": "https://www.onenewspage.com/n/World/1zjaqpd9mm/Cuban-president-meets-North-Korea-Kim-Jong.htm"}, {"ID": 800053084, "Actor1": "NORTH KOREA", "Actor1_Country": "PRK", "Actor2": "SOUTH KOREA", "Actor2_Country": "KOR", "Code": 46, "Class": 1, "Action_Location": "Seoul, Soul-t'ukpyolsi, South Korea", "Lat": 37.5664, "Long": 127.0, "Timestamp": 20181105041500, "Source": "https://www.thestar.com.my/news/world/2018/11/05/us-south-korea-marines-hold-smallscale-exercise-ahead-of-north-korea-talks/"}, {"ID": 800053085, "Actor1": "NORTH KOREA", "Actor1_Country": "PRK", "Actor2": "NEW YORK", "Actor2_Country": "USA", "Code": 36, "Class": 1, "Action_Location": "Pohang, Hamgyong-bukto, North Korea", "Lat": 40.9953, "Long": 129.722, "Timestamp": 20181105041500, "Source": "https://www.thestar.com.my/news/world/2018/11/05/us-south-korea-marines-hold-smallscale-exercise-ahead-of-north-korea-talks/"}, {"ID": 800053086, "Actor1": "NORTH KOREA", "Actor1_Country": "PRK", "Actor2": "NEW YORK", "Actor2_Country": "USA", "Code": 36, "Class": 1, "Action_Location": "New York, United States", "Lat": 42.1497, "Long": -74.9384, "Timestamp": 20181105041500, "Source": "https://www.thestar.com.my/news/world/2018/11/05/us-south-korea-marines-hold-smallscale-exercise-ahead-of-north-korea-talks/"}, {"ID": 800053099, "Actor1": "ASYLUM SEEKER", "Actor1_Country": null, "Actor2": "THE POOR", "Actor2_Country": null, "Code": 174, "Class": 4, "Action_Location": "Sydney, New South Wales, Australia", "Lat": -33.8833, "Long": 151.217, "Timestamp": 20181105041500, "Source": "http://mynorthwest.com/1171209/independent-says-australian-govt-lost-on-its-refugee-stance/"}, {"ID": 800053114, "Actor1": "SAINT", "Actor1_Country": null, "Actor2": "EGYPT", "Actor2_Country": "EGY", "Code": 43, "Class": 1, "Action_Location": "Minya, Al Minya, Egypt", "Lat": 28.1099, "Long": 30.7503, "Timestamp": 20181105041500, "Source": "https://www.malaymail.com/s/1690006/pope-expresses-pain-over-attack-on-coptic-christians"}, {"ID": 800053278, "Actor1": "UNITED STATES", "Actor1_Country": "USA", "Actor2": "LAW ENFORCEMENT AUTHORITIES", "Actor2_Country": null, "Code": 30, "Class": 1, "Action_Location": "Georgia, United States", "Lat": 32.9866, "Long": -83.6487, "Timestamp": 20181105041500, "Source": "https://www.journal-news.com/news/national/georgia-sec-state-gop-gov-candidate-brain-kemp-under-scrutiny-over-probe-democrats/brzTCSA2ToB7VRURhOosYO/"}, {"ID": 800053279, "Actor1": "UNITED STATES", "Actor1_Country": "USA", "Actor2": "VOTER", "Actor2_Country": null, "Code": 10, "Class": 1, "Action_Location": "Atlanta, Georgia, United States", "Lat": 33.749, "Long": -84.388, "Timestamp": 20181105041500, "Source": "https://www.journal-news.com/news/national/georgia-sec-state-gop-gov-candidate-brain-kemp-under-scrutiny-over-probe-democrats/brzTCSA2ToB7VRURhOosYO/"}, {"ID": 800053302, "Actor1": "UNITED STATES", "Actor1_Country": "USA", "Actor2": "DICTATOR", "Actor2_Country": null, "Code": 50, "Class": 1, "Action_Location": "Washington, District of Columbia, United States", "Lat": 38.8951, "Long": -77.0364, "Timestamp": 20181105041500, "Source": "http://www.ieyenews.com/wordpress/the-oas-should-get-a-caribbean-secretary-general/"}, {"ID": 800053331, "Actor1": "UNITED STATES", "Actor1_Country": "USA", "Actor2": "JUDGE", "Actor2_Country": null, "Code": 10, "Class": 1, "Action_Location": "Connecticut, United States", "Lat": 41.5834, "Long": -72.7622, "Timestamp": 20181105041500, "Source": "https://www.kansas.com/news/article221112645.html"}, {"ID": 800053347, "Actor1": "NEW YORK CITY", "Actor1_Country": "USA", "Actor2": "NORTH KOREAN", "Actor2_Country": "PRK", "Code": 36, "Class": 1, "Action_Location": "New York, United States", "Lat": 42.1497, "Long": -74.9384, "Timestamp": 20181105041500, "Source": "https://www.thestar.com.my/news/world/2018/11/05/us-south-korea-marines-hold-smallscale-exercise-ahead-of-north-korea-talks/"}, {"ID": 800053380, "Actor1": "AMERICAN", "Actor1_Country": "USA", "Actor2": "US AMBASSADOR", "Actor2_Country": "USA", "Code": 10, "Class": 1, "Action_Location": "Michigan, United States", "Lat": 43.3504, "Long": -84.5603, "Timestamp": 20181105041500, "Source": "https://www.business-standard.com/article/pti-stories/a-great-slate-of-indian-american-candidates-for-midterms-118110500087_1.html"}]