[{"ID": 800032395, "Actor1": "AFGHAN", "Actor1_Country": "AFG", "Actor2": "UNITED STATES", "Actor2_Country": "USA", "Code": 193, "Class": 4, "Action_Location": "Utah, United States", "Lat": 40.1135, "Long": -111.854, "Timestamp": 20181105014500, "Source": "https://www.northcountrypublicradio.org/news/npr/664198091/a-utah-town-remembers-its-mayor-killed-in-action-in-afghanistan"}, {"ID": 800032461, "Actor1": "AUSTRALIA", "Actor1_Country": "AUS", "Actor2": "CHINA", "Actor2_Country": "CHN", "Code": 36, "Class": 1, "Action_Location": "Beijing, Beijing, China", "Lat": 39.9289, "Long": 116.388, "Timestamp": 20181105014500, "Source": "https://www.abc.net.au/news/2018-11-05/china-claims-free-trade-push-amid-us-trade-war-pressure/10464848"}, {"ID": 800032464, "Actor1": "AUSTRALIA", "Actor1_Country": "AUS", "Actor2": "VOTER", "Actor2_Country": null, "Code": 14, "Class": 1, "Action_Location": "Sydney, New South Wales, Australia", "Lat": -33.8833, "Long": 151.217, "Timestamp": 20181105014500, "Source": "https://www.bordermail.com.au/story/5739143/phelps-confirmed-as-new-wentworth-mp/?cs=9676"}, {"ID": 800032467, "Actor1": "AUSTRALIAN", "Actor1_Country": "AUS", "Actor2": "PRESIDENT", "Actor2_Country": null, "Code": 192, "Class": 4, "Action_Location": "Sydney, New South Wales, Australia", "Lat": -33.8833, "Long": 151.217, "Timestamp": 20181105014500, "Source": "https://www.bordermail.com.au/story/5739143/phelps-confirmed-as-new-wentworth-mp/?cs=9676"}, {"ID": 800032483, "Actor1": "AUSTRALIA", "Actor1_Country": "AUS", "Actor2": "AUSTRALIA", "Actor2_Country": "AUS", "Code": 192, "Class": 4, "Action_Location": "Sydney, New South Wales, Australia", "Lat": -33.8833, "Long": 151.217, "Timestamp": 20181105014500, "Source": "https://www.bordermail.com.au/story/5739143/phelps-confirmed-as-new-wentworth-mp/?cs=9676"}, {"ID": 800032537, "Actor1": "COMPANY", "Actor1_Country": null, "Actor2": "WEBSITE", "Actor2_Country": null, "Code": 10, "Class": 1, "Action_Location": "United States", "Lat": 39.828175, "Long": -98.5795, "Timestamp": 20181105014500, "Source": "https://www.dailypolitical.com/2018/11/04/15-92-billion-in-sales-expected-for-archer-daniels-midland-co-adm-this-quarter.html"}, {"ID": 800032565, "Actor1": "CANADA", "Actor1_Country": "CAN", "Actor2": "COMMUNITY", "Actor2_Country": null, "Code": 51, "Class": 1, "Action_Location": "Vancouver, British Columbia, Canada", "Lat": 49.25, "Long": -123.133, "Timestamp": 20181105014500, "Source": "https://nationalpost.com/pmn/news-pmn/canada-news-pmn/residents-of-b-c-community-displaced-by-slow-moving-landslide-can-return-home"}, {"ID": 800032577, "Actor1": "CHINA", "Actor1_Country": "CHN", "Actor2": "AUSTRALIA", "Actor2_Country": "AUS", "Code": 36, "Class": 1, "Action_Location": "Beijing, Beijing, China", "Lat": 39.9289, "Long": 116.388, "Timestamp": 20181105014500, "Source": "https://www.abc.net.au/news/2018-11-05/china-claims-free-trade-push-amid-us-trade-war-pressure/10464848"}, {"ID": 800032580, "Actor1": "CHINA", "Actor1_Country": "CHN", "Actor2": "CAMEROON", "Actor2_Country": "CMR", "Code": 43, "Class": 1, "Action_Location": "Lankao, Shaanxi, China", "Lat": 32.3003, "Long": 108.893, "Timestamp": 20181105014500, "Source": "http://usa.chinadaily.com.cn/a/201811/05/WS5bdf98eca310eff3032867aa.html"}, {"ID": 800032581, "Actor1": "CHINA", "Actor1_Country": "CHN", "Actor2": "CAMEROON", "Actor2_Country": "CMR", "Code": 43, "Class": 1, "Action_Location": "Nkolo, Centre, Cameroon", "Lat": 4.41667, "Long": 11.4167, "Timestamp": 20181105014500, "Source": "http://usa.chinadaily.com.cn/a/201811/05/WS5bdf98eca310eff3032867aa.html"}, {"ID": 800032584, "Actor1": "BEIJING", "Actor1_Country": "CHN", "Actor2": "MINIST", "Actor2_Country": null, "Code": 43, "Class": 1, "Action_Location": "Beijing, Beijing, China", "Lat": 39.9289, "Long": 116.388, "Timestamp": 20181105014500, "Source": "https://www.abc.net.au/news/2018-11-05/china-claims-free-trade-push-amid-us-trade-war-pressure/10464848"}, {"ID": 800032591, "Actor1": "CHINESE", "Actor1_Country": "CHN", "Actor2": "SUPREME COURT", "Actor2_Country": null, "Code": 20, "Class": 1, "Action_Location": "Washington, District of Columbia, United States", "Lat": 38.8951, "Long": -77.0364, "Timestamp": 20181105014500, "Source": "https://www.dailymail.co.uk/wires/ap/article-6349291/AP-FACT-CHECK-Trumps-distortions-immigration.html"}, {"ID": 800032592, "Actor1": "CHINESE", "Actor1_Country": "CHN", "Actor2": "SUPREME COURT", "Actor2_Country": null, "Code": 20, "Class": 1, "Action_Location": "China", "Lat": 35.0, "Long": 105.0, "Timestamp": 20181105014500, "Source": "https://www.dailymail.co.uk/wires/ap/article-6349291/AP-FACT-CHECK-Trumps-distortions-immigration.html"}, {"ID": 800032593, "Actor1": "CHINESE", "Actor1_Country": "CHN", "Actor2": "SUPREME COURT", "Actor2_Country": null, "Code": 110, "Class": 3, "Action_Location": "Washington, District of Columbia, United States", "Lat": 38.8951, "Long": -77.0364, "Timestamp": 20181105014500, "Source": "https://www.dailymail.co.uk/wires/ap/article-6349291/AP-FACT-CHECK-Trumps-distortions-immigration.html"}, {"ID": 800032594, "Actor1": "CHINESE", "Actor1_Country": "CHN", "Actor2": "SUPREME COURT", "Actor2_Country": null, "Code": 110, "Class": 3, "Action_Location": "Washington, District of Columbia, United States", "Lat": 38.8951, "Long": -77.0364, "Timestamp": 20181105014500, "Source": "https://www.dailymail.co.uk/wires/ap/article-6349291/AP-FACT-CHECK-Trumps-distortions-immigration.html"}, {"ID": 800032595, "Actor1": "CHINESE", "Actor1_Country": "CHN", "Actor2": "SUPREME COURT", "Actor2_Country": null, "Code": 173, "Class": 4, "Action_Location": "Washington, District of Columbia, United States", "Lat": 38.8951, "Long": -77.0364, "Timestamp": 20181105014500, "Source": "https://www.dailymail.co.uk/wires/ap/article-6349291/AP-FACT-CHECK-Trumps-distortions-immigration.html"}, {"ID": 800032596, "Actor1": "CHINESE", "Actor1_Country": "CHN", "Actor2": "SUPREME COURT", "Actor2_Country": null, "Code": 173, "Class": 4, "Action_Location": "China", "Lat": 35.0, "Long": 105.0, "Timestamp": 20181105014500, "Source": "https://www.dailymail.co.uk/wires/ap/article-6349291/AP-FACT-CHECK-Trumps-distortions-immigration.html"}, {"ID": 800032603, "Actor1": "CHINA", "Actor1_Country": "CHN", "Actor2": "PAKISTAN", "Actor2_Country": "PAK", "Code": 43, "Class": 1, "Action_Location": "Pakistan", "Lat": 30.0, "Long": 70.0, "Timestamp": 20181105014500, "Source": "http://usa.chinadaily.com.cn/a/201811/05/WS5bdf98eca310eff3032867aa.html"}, {"ID": 800032604, "Actor1": "CHINA", "Actor1_Country": "CHN", "Actor2": "PAKISTANI", "Actor2_Country": "PAK", "Code": 43, "Class": 1, "Action_Location": "Beijing, Beijing, China", "Lat": 39.9289, "Long": 116.388, "Timestamp": 20181105014500, "Source": "https://nationalinterest.org/feature/pakistan%E2%80%99s-imran-khan-heads-china-major-implications-belt-and-road-initiative-34897"}, {"ID": 800032618, "Actor1": "CHINESE", "Actor1_Country": "CHN", "Actor2": "SUPREME COURT", "Actor2_Country": null, "Code": 20, "Class": 1, "Action_Location": "China", "Lat": 35.0, "Long": 105.0, "Timestamp": 20181105014500, "Source": "https://www.dailymail.co.uk/wires/ap/article-6349291/AP-FACT-CHECK-Trumps-distortions-immigration.html"}, {"ID": 800032619, "Actor1": "CHINESE", "Actor1_Country": "CHN", "Actor2": "SUPREME COURT", "Actor2_Country": null, "Code": 110, "Class": 3, "Action_Location": "China", "Lat": 35.0, "Long": 105.0, "Timestamp": 20181105014500, "Source": "https://www.dailymail.co.uk/wires/ap/article-6349291/AP-FACT-CHECK-Trumps-distortions-immigration.html"}, {"ID": 800032620, "Actor1": "CHINESE", "Actor1_Country": "CHN", "Actor2": "SUPREME COURT", "Actor2_Country": null, "Code": 173, "Class": 4, "Action_Location": "China", "Lat": 35.0, "Long": 105.0, "Timestamp": 20181105014500, "Source": "https://www.dailymail.co.uk/wires/ap/article-6349291/AP-FACT-CHECK-Trumps-distortions-immigration.html"}, {"ID": 800032627, "Actor1": "PRESBYTERIAN", "Actor1_Country": null, "Actor2": "MAINE", "Actor2_Country": "USA", "Code": 51, "Class": 1, "Action_Location": "Maine, United States", "Lat": 44.6074, "Long": -69.3977, "Timestamp": 20181105014500, "Source": "https://www.beaumontenterprise.com/news/article/8216-A-very-grand-gesture-8217-Elijah-P-13362320.php"}, {"ID": 800032632, "Actor1": "CAMEROON", "Actor1_Country": "CMR", "Actor2": "CHINA", "Actor2_Country": "CHN", "Code": 42, "Class": 1, "Action_Location": "Lankao, Shaanxi, China", "Lat": 32.3003, "Long": 108.893, "Timestamp": 20181105014500, "Source": "http://usa.chinadaily.com.cn/a/201811/05/WS5bdf98eca310eff3032867aa.html"}, {"ID": 800032673, "Actor1": "POLICE", "Actor1_Country": null, "Actor2": "ATHENS", "Actor2_Country": "GRC", "Code": 190, "Class": 4, "Action_Location": "Athens, Attik\u00edR, Greece", "Lat": 37.9833, "Long": 23.7333, "Timestamp": 20181105014500, "Source": "https://www.dailymail.co.uk/wires/ap/article-6349847/Greek-police-arrest-man-ancient-column.html"}, {"ID": 800032735, "Actor1": "MIGRANT", "Actor1_Country": null, "Actor2": "GUATEMALA", "Actor2_Country": "GTM", "Code": 182, "Class": 4, "Action_Location": "Guatemala", "Lat": 15.5, "Long": -90.25, "Timestamp": 20181105014500, "Source": "https://www.dailymail.co.uk/wires/ap/article-6349291/AP-FACT-CHECK-Trumps-distortions-immigration.html"}, {"ID": 800032737, "Actor1": "MIGRANT", "Actor1_Country": null, "Actor2": "GUATEMALA", "Actor2_Country": "GTM", "Code": 182, "Class": 4, "Action_Location": "Guatemala", "Lat": 15.5, "Long": -90.25, "Timestamp": 20181105014500, "Source": "https://www.dailymail.co.uk/wires/ap/article-6349291/AP-FACT-CHECK-Trumps-distortions-immigration.html"}, {"ID": 800032738, "Actor1": "MIGRANT", "Actor1_Country": null, "Actor2": "GUATEMALA", "Actor2_Country": "GTM", "Code": 182, "Class": 4, "Action_Location": "Washington, District of Columbia, United States", "Lat": 38.8951, "Long": -77.0364, "Timestamp": 20181105014500, "Source": "https://www.dailymail.co.uk/wires/ap/article-6349291/AP-FACT-CHECK-Trumps-distortions-immigration.html"}, {"ID": 800032741, "Actor1": "MIGRANT", "Actor1_Country": null, "Actor2": "MEXICAN", "Actor2_Country": "MEX", "Code": 182, "Class": 4, "Action_Location": "Washington, District of Columbia, United States", "Lat": 38.8951, "Long": -77.0364, "Timestamp": 20181105014500, "Source": "https://www.dailymail.co.uk/wires/ap/article-6349291/AP-FACT-CHECK-Trumps-distortions-immigration.html"}, {"ID": 800032742, "Actor1": "MIGRANT", "Actor1_Country": null, "Actor2": "MEXICAN", "Actor2_Country": "MEX", "Code": 190, "Class": 4, "Action_Location": "Sayula, Sonora, Mexico", "Lat": 29.3667, "Long": -111.55, "Timestamp": 20181105014500, "Source": "https://www.dailymail.co.uk/wires/ap/article-6349291/AP-FACT-CHECK-Trumps-distortions-immigration.html"}, {"ID": 800032743, "Actor1": "MIGRANT", "Actor1_Country": null, "Actor2": "MEXICAN", "Actor2_Country": "MEX", "Code": 190, "Class": 4, "Action_Location": "Washington, District of Columbia, United States", "Lat": 38.8951, "Long": -77.0364, "Timestamp": 20181105014500, "Source": "https://www.dailymail.co.uk/wires/ap/article-6349291/AP-FACT-CHECK-Trumps-distortions-immigration.html"}, {"ID": 800032744, "Actor1": "MIGRANT", "Actor1_Country": null, "Actor2": "MEXICAN", "Actor2_Country": "MEX", "Code": 190, "Class": 4, "Action_Location": "Sayula, Sonora, Mexico", "Lat": 29.3667, "Long": -111.55, "Timestamp": 20181105014500, "Source": "https://www.dailymail.co.uk/wires/ap/article-6349291/AP-FACT-CHECK-Trumps-distortions-immigration.html"}, {"ID": 800032745, "Actor1": "MIGRANT", "Actor1_Country": null, "Actor2": "MILITARY", "Actor2_Country": null, "Code": 30, "Class": 1, "Action_Location": "Sayula, Sonora, Mexico", "Lat": 29.3667, "Long": -111.55, "Timestamp": 20181105014500, "Source": "https://www.dailymail.co.uk/wires/ap/article-6349291/AP-FACT-CHECK-Trumps-distortions-immigration.html"}, {"ID": 800032768, "Actor1": "THE POOR", "Actor1_Country": null, "Actor2": "UNITED STATES", "Actor2_Country": "USA", "Code": 20, "Class": 1, "Action_Location": "Georgia, United States", "Lat": 32.9866, "Long": -83.6487, "Timestamp": 20181105014500, "Source": "https://www.houstonchronicle.com/news/article/Racist-magical-Negro-robo-call-from-Oprah-13361839.php"}, {"ID": 800032817, "Actor1": "STUDENT", "Actor1_Country": null, "Actor2": "GOVERNMENT", "Actor2_Country": null, "Code": 42, "Class": 1, "Action_Location": "Tehran, Tehran, Iran", "Lat": 35.75, "Long": 51.5148, "Timestamp": 20181105014500, "Source": "https://www.newsbook.com.mt/artikli/2018/11/04/iranian-marchers-chant-death-to-america-on-eve-of-u-s-oil-sanctions/"}, {"ID": 800032822, "Actor1": "STUDENT", "Actor1_Country": null, "Actor2": "TELEVISION", "Actor2_Country": null, "Code": 10, "Class": 1, "Action_Location": "Tehran, Tehran, Iran", "Lat": 35.75, "Long": 51.5148, "Timestamp": 20181105014500, "Source": "https://www.newsbook.com.mt/artikli/2018/11/04/iranian-marchers-chant-death-to-america-on-eve-of-u-s-oil-sanctions/"}, {"ID": 800032830, "Actor1": "STUDENT", "Actor1_Country": null, "Actor2": "SAN DIEGO", "Actor2_Country": "USA", "Code": 20, "Class": 1, "Action_Location": "California, United States", "Lat": 36.17, "Long": -119.746, "Timestamp": 20181105014500, "Source": "http://www.mesapress.com/uncategorized/2018/11/04/voters-prepare-to-vote-on-propositions-1-6-7-and-10-in-california-2018-election/"}, {"ID": 800032880, "Actor1": "PARIS", "Actor1_Country": "FRA", "Actor2": "GOVERNMENT", "Actor2_Country": null, "Code": 43, "Class": 1, "Action_Location": "Paris, France (general), France", "Lat": 48.8667, "Long": 2.33333, "Timestamp": 20181105014500, "Source": "http://www.latimes.com/world/europe/la-fg-italy-world-war-anniversary-20181104-story.html"}, {"ID": 800032883, "Actor1": "FRANCE", "Actor1_Country": "FRA", "Actor2": "EXXON", "Actor2_Country": null, "Code": 130, "Class": 3, "Action_Location": "France", "Lat": 46.0, "Long": 2.0, "Timestamp": 20181105014500, "Source": "https://www.siasat.com/news/erdogan-warns-sea-bandits-over-cyprus-energy-exploration-1428061/"}, {"ID": 800032968, "Actor1": "JEREMY HUNT", "Actor1_Country": "GBR", "Actor2": "THE UN", "Actor2_Country": null, "Code": 30, "Class": 1, "Action_Location": "Sanaa, San\u0091a', Yemen", "Lat": 15.3547, "Long": 44.2067, "Timestamp": 20181105014500, "Source": "https://www.rappler.com/world/regions/middle-east/215932-uk-urge-un-security-council-action-over-yemen-conflict"}, {"ID": 800033025, "Actor1": "GOVERNANCE", "Actor1_Country": null, "Actor2": "BANK", "Actor2_Country": null, "Code": 20, "Class": 1, "Action_Location": "Wellington, New Zealand (general), New Zealand", "Lat": -41.3, "Long": 174.783, "Timestamp": 20181105014500, "Source": "https://www.msn.com/en-au/news/other/new-zealand-bank-review-urges-tighter-regulation-in-the-wake-of-australian-inquiry/ar-BBPlhrt"}, {"ID": 800033030, "Actor1": "MINIST", "Actor1_Country": null, "Actor2": "BEIJING", "Actor2_Country": "CHN", "Code": 42, "Class": 1, "Action_Location": "Beijing, Beijing, China", "Lat": 39.9289, "Long": 116.388, "Timestamp": 20181105014500, "Source": "https://www.abc.net.au/news/2018-11-05/china-claims-free-trade-push-amid-us-trade-war-pressure/10464848"}, {"ID": 800033038, "Actor1": "GOVERNMENT", "Actor1_Country": null, "Actor2": "STUDENT", "Actor2_Country": null, "Code": 43, "Class": 1, "Action_Location": "Tehran, Tehran, Iran", "Lat": 35.75, "Long": 51.5148, "Timestamp": 20181105014500, "Source": "https://www.newsbook.com.mt/artikli/2018/11/04/iranian-marchers-chant-death-to-america-on-eve-of-u-s-oil-sanctions/"}, {"ID": 800033039, "Actor1": "GOVERNMENT", "Actor1_Country": null, "Actor2": "PARIS", "Actor2_Country": "FRA", "Code": 17, "Class": 1, "Action_Location": "Paris, France (general), France", "Lat": 48.8667, "Long": 2.33333, "Timestamp": 20181105014500, "Source": "http://www.latimes.com/world/europe/la-fg-italy-world-war-anniversary-20181104-story.html"}, {"ID": 800033040, "Actor1": "GOVERNMENT", "Actor1_Country": null, "Actor2": "PARIS", "Actor2_Country": "FRA", "Code": 42, "Class": 1, "Action_Location": "Paris, France (general), France", "Lat": 48.8667, "Long": 2.33333, "Timestamp": 20181105014500, "Source": "http://www.latimes.com/world/europe/la-fg-italy-world-war-anniversary-20181104-story.html"}, {"ID": 800033071, "Actor1": "PRINCE", "Actor1_Country": null, "Actor2": "SAUDI ARABIA", "Actor2_Country": "SAU", "Code": 173, "Class": 4, "Action_Location": "Riyadh, Ar Riya?, Saudi Arabia", "Lat": 24.6408, "Long": 46.7728, "Timestamp": 20181105014500, "Source": "https://www.dailymail.co.uk/wires/afp/article-6350159/Saudi-billionaire-prince-Al-Waleeds-brother-freed-detention.html"}, {"ID": 800033099, "Actor1": "MAYOR", "Actor1_Country": null, "Actor2": "UNITED STATES", "Actor2_Country": "USA", "Code": 51, "Class": 1, "Action_Location": "Florida, United States", "Lat": 27.8333, "Long": -81.717, "Timestamp": 20181105014500, "Source": "https://www.thedailybeast.com/sen-bill-nelson-could-ride-the-andrew-gillum-wave-to-victory-in-florida"}, {"ID": 800033112, "Actor1": "PRESIDENT", "Actor1_Country": null, "Actor2": "REUTERS", "Actor2_Country": "USA", "Code": 42, "Class": 1, "Action_Location": "Georgia, United States", "Lat": 32.9866, "Long": -83.6487, "Timestamp": 20181105014500, "Source": "https://uk.reuters.com/article/uk-usa-election/trump-obama-tout-clashing-visions-of-u-s-as-elections-near-idUKKCN1N90N3"}, {"ID": 800033124, "Actor1": "TRANSPORTATION MINIST", "Actor1_Country": null, "Actor2": "COMMUNITY", "Actor2_Country": null, "Code": 51, "Class": 1, "Action_Location": "Vancouver, British Columbia, Canada", "Lat": 49.25, "Long": -123.133, "Timestamp": 20181105014500, "Source": "https://nationalpost.com/pmn/news-pmn/canada-news-pmn/residents-of-b-c-community-displaced-by-slow-moving-landslide-can-return-home"}, {"ID": 800033137, "Actor1": "GREEK", "Actor1_Country": "GRC", "Actor2": "ATHENS", "Actor2_Country": "GRC", "Code": 173, "Class": 4, "Action_Location": "Monastiraki, Perifereia Stereas Elladas, Greece", "Lat": 39.0844, "Long": 21.5833, "Timestamp": 20181105014500, "Source": "https://www.dailymail.co.uk/wires/ap/article-6349847/Greek-police-arrest-man-ancient-column.html"}, {"ID": 800033141, "Actor1": "GUATEMALA", "Actor1_Country": "GTM", "Actor2": "OBAMA", "Actor2_Country": "USA", "Code": 10, "Class": 1, "Action_Location": "Guatemala", "Lat": 15.5, "Long": -90.25, "Timestamp": 20181105014500, "Source": "https://www.dailymail.co.uk/wires/ap/article-6349291/AP-FACT-CHECK-Trumps-distortions-immigration.html"}, {"ID": 800033238, "Actor1": "ISRAEL", "Actor1_Country": "ISR", "Actor2": "IRAN", "Actor2_Country": "IRN", "Code": 51, "Class": 1, "Action_Location": "Tehran, Tehran, Iran", "Lat": 35.75, "Long": 51.5148, "Timestamp": 20181105014500, "Source": "https://www.dailymail.co.uk/wires/ap/article-6349975/Israel-PM-praises-restoration-US-sanctions-Iran.html"}, {"ID": 800033240, "Actor1": "ISRAEL", "Actor1_Country": "ISR", "Actor2": "IRAN", "Actor2_Country": "IRN", "Code": 51, "Class": 1, "Action_Location": "Washington, District of Columbia, United States", "Lat": 38.8951, "Long": -77.0364, "Timestamp": 20181105014500, "Source": "https://www.dailymail.co.uk/wires/afp/article-6350007/Israels-Netanyahu-hails-Trump-Iran-sanctions.html"}, {"ID": 800033256, "Actor1": "JEWISH", "Actor1_Country": null, "Actor2": "UNITED STATES", "Actor2_Country": "USA", "Code": 1121, "Class": 3, "Action_Location": "New York, United States", "Lat": 42.1497, "Long": -74.9384, "Timestamp": 20181105014500, "Source": "https://www.reuters.com/article/us-pennsylvania-shooting-gab/gab-com-back-up-after-week-offline-following-pittsburgh-shooting-idUSKCN1NA01X"}, {"ID": 800033257, "Actor1": "JEWISH", "Actor1_Country": null, "Actor2": "UNITED STATES", "Actor2_Country": "USA", "Code": 190, "Class": 4, "Action_Location": "New York, United States", "Lat": 42.1497, "Long": -74.9384, "Timestamp": 20181105014500, "Source": "https://www.reuters.com/article/us-pennsylvania-shooting-gab/gab-com-back-up-after-week-offline-following-pittsburgh-shooting-idUSKCN1NA01X"}, {"ID": 800033280, "Actor1": "DISTRICT COURT", "Actor1_Country": null, "Actor2": "TORONTO", "Actor2_Country": "CAN", "Code": 173, "Class": 4, "Action_Location": "Toronto, Ontario, Canada", "Lat": 43.6667, "Long": -79.4167, "Timestamp": 20181105014500, "Source": "https://www.theherald.com.au/story/5738441/tax-agent-jailed-to-appeal/"}, {"ID": 800033315, "Actor1": "SOUTH KOREA", "Actor1_Country": "KOR", "Actor2": "NORTH KOREA", "Actor2_Country": "PRK", "Code": 36, "Class": 1, "Action_Location": "Seoul, Soul-t'ukpyolsi, South Korea", "Lat": 37.5664, "Long": 127.0, "Timestamp": 20181105014500, "Source": "https://www.timesunion.com/news/world/article/S-Korea-s-Moon-N-Korean-leader-Kim-to-visit-13353081.php"}, {"ID": 800033359, "Actor1": "SENATOR", "Actor1_Country": null, "Actor2": "SAUDI ARABIA", "Actor2_Country": "SAU", "Code": 46, "Class": 1, "Action_Location": "Riyadh, Ar Riya?, Saudi Arabia", "Lat": 24.6408, "Long": 46.7728, "Timestamp": 20181105014500, "Source": "https://www.theaustralian.com.au/news/latest-news/us-call-to-stop-saudi-nuclear-energy-talks/news-story/8ac574e15a209784a346d7e45613be01?nk=470775680444fb9be035adfa1825031b-1541381515"}, {"ID": 800033397, "Actor1": "NEWSPAPER", "Actor1_Country": null, "Actor2": "CORPORATION", "Actor2_Country": null, "Code": 70, "Class": 2, "Action_Location": "Mississippi, United States", "Lat": 32.7673, "Long": -89.6812, "Timestamp": 20181105014500, "Source": "https://www.beaumontenterprise.com/news/article/8216-A-very-grand-gesture-8217-Elijah-P-13362320.php"}, {"ID": 800033406, "Actor1": "MAGAZINE", "Actor1_Country": null, "Actor2": "STUDENT", "Actor2_Country": null, "Code": 51, "Class": 1, "Action_Location": "Florida, United States", "Lat": 27.8333, "Long": -81.717, "Timestamp": 20181105014500, "Source": "https://www.kmov.com/months-after-massacre-parkland-victims-vote-for-first-time/article_989c22c3-4ed2-5f45-9426-c88be3c30029.html"}, {"ID": 800033424, "Actor1": "MEDIA", "Actor1_Country": null, "Actor2": "NEW YORK", "Actor2_Country": "USA", "Code": 43, "Class": 1, "Action_Location": "New York, United States", "Lat": 42.1497, "Long": -74.9384, "Timestamp": 20181105014500, "Source": "https://www.dailymail.co.uk/wires/ap/article-6349425/New-Yorkers-dance-tap-class-pop-music.html"}, {"ID": 800033425, "Actor1": "WRITER", "Actor1_Country": null, "Actor2": "NEW YORK", "Actor2_Country": "USA", "Code": 70, "Class": 2, "Action_Location": "New York, United States", "Lat": 42.1497, "Long": -74.9384, "Timestamp": 20181105014500, "Source": "https://www.dailymail.co.uk/wires/ap/article-6349845/Grammy-winning-jazz-trumpeter-Roy-Hargrove-dies-age-49.html"}, {"ID": 800033431, "Actor1": "MEXICAN", "Actor1_Country": "MEX", "Actor2": "MIGRANT", "Actor2_Country": null, "Code": 190, "Class": 4, "Action_Location": "Sayula, Sonora, Mexico", "Lat": 29.3667, "Long": -111.55, "Timestamp": 20181105014500, "Source": "https://www.dailymail.co.uk/wires/ap/article-6349291/AP-FACT-CHECK-Trumps-distortions-immigration.html"}, {"ID": 800033432, "Actor1": "MEXICAN", "Actor1_Country": "MEX", "Actor2": "MIGRANT", "Actor2_Country": null, "Code": 190, "Class": 4, "Action_Location": "Washington, District of Columbia, United States", "Lat": 38.8951, "Long": -77.0364, "Timestamp": 20181105014500, "Source": "https://www.dailymail.co.uk/wires/ap/article-6349291/AP-FACT-CHECK-Trumps-distortions-immigration.html"}, {"ID": 800033435, "Actor1": "MEXICAN", "Actor1_Country": "MEX", "Actor2": "MIGRANT", "Actor2_Country": null, "Code": 190, "Class": 4, "Action_Location": "Sayula, Sonora, Mexico", "Lat": 29.3667, "Long": -111.55, "Timestamp": 20181105014500, "Source": "https://www.dailymail.co.uk/wires/ap/article-6349291/AP-FACT-CHECK-Trumps-distortions-immigration.html"}, {"ID": 800033494, "Actor1": "ANTI DEFAMATION LEAGUE", "Actor1_Country": "USA", "Actor2": "WEBSITE", "Actor2_Country": null, "Code": 20, "Class": 1, "Action_Location": "Washington, District of Columbia, United States", "Lat": 38.8951, "Long": -77.0364, "Timestamp": 20181105014500, "Source": "https://www.houstonchronicle.com/news/article/Racist-magical-Negro-robo-call-from-Oprah-13361839.php"}, {"ID": 800033495, "Actor1": "ANTI DEFAMATION LEAGUE", "Actor1_Country": "USA", "Actor2": "WEBSITE", "Actor2_Country": null, "Code": 20, "Class": 1, "Action_Location": "New York, United States", "Lat": 42.1497, "Long": -74.9384, "Timestamp": 20181105014500, "Source": "https://www.houstonchronicle.com/news/article/Racist-magical-Negro-robo-call-from-Oprah-13361839.php"}, {"ID": 800033496, "Actor1": "ANTI DEFAMATION LEAGUE", "Actor1_Country": "USA", "Actor2": "WEBSITE", "Actor2_Country": null, "Code": 20, "Class": 1, "Action_Location": "Washington, District of Columbia, United States", "Lat": 38.8951, "Long": -77.0364, "Timestamp": 20181105014500, "Source": "https://www.houstonchronicle.com/news/article/Racist-magical-Negro-robo-call-from-Oprah-13361839.php"}, {"ID": 800033531, "Actor1": "PAKISTAN", "Actor1_Country": "PAK", "Actor2": "CHINA", "Actor2_Country": "CHN", "Code": 42, "Class": 1, "Action_Location": "Pakistan", "Lat": 30.0, "Long": 70.0, "Timestamp": 20181105014500, "Source": "http://usa.chinadaily.com.cn/a/201811/05/WS5bdf98eca310eff3032867aa.html"}, {"ID": 800033566, "Actor1": "NORTH KOREAN", "Actor1_Country": "PRK", "Actor2": "SEOUL", "Actor2_Country": "KOR", "Code": 36, "Class": 1, "Action_Location": "Seoul, Soul-t'ukpyolsi, South Korea", "Lat": 37.5664, "Long": 127.0, "Timestamp": 20181105014500, "Source": "https://www.timesunion.com/news/world/article/S-Korea-s-Moon-N-Korean-leader-Kim-to-visit-13353081.php"}, {"ID": 800033590, "Actor1": "ASYLUM SEEKER", "Actor1_Country": null, "Actor2": "THE POOR", "Actor2_Country": null, "Code": 174, "Class": 4, "Action_Location": "Nauru", "Lat": -0.533333, "Long": 166.916667, "Timestamp": 20181105014500, "Source": "https://abcnews.go.com/International/wireStory/independent-australian-govt-lost-refugee-stance-58966636"}, {"ID": 800033620, "Actor1": "RUSSIA", "Actor1_Country": "RUS", "Actor2": "PARIS", "Actor2_Country": "FRA", "Code": 42, "Class": 1, "Action_Location": "Paris, France (general), France", "Lat": 48.8667, "Long": 2.33333, "Timestamp": 20181105014500, "Source": "https://www.msn.com/en-za/news/other/world-leaders-to-mark-wwi-in-france/ar-BBPk4Cg"}, {"ID": 800033648, "Actor1": "SAUDI ARABIA", "Actor1_Country": "SAU", "Actor2": "SENATOR", "Actor2_Country": null, "Code": 46, "Class": 1, "Action_Location": "Riyadh, Ar Riya?, Saudi Arabia", "Lat": 24.6408, "Long": 46.7728, "Timestamp": 20181105014500, "Source": "https://www.theaustralian.com.au/news/latest-news/us-call-to-stop-saudi-nuclear-energy-talks/news-story/8ac574e15a209784a346d7e45613be01?nk=470775680444fb9be035adfa1825031b-1541381515"}, {"ID": 800033664, "Actor1": "SAUDI", "Actor1_Country": "SAU", "Actor2": "UNITED STATES", "Actor2_Country": "USA", "Code": 190, "Class": 4, "Action_Location": "Istanbul, Istanbul, Turkey", "Lat": 41.0186, "Long": 28.9647, "Timestamp": 20181105014500, "Source": "https://www.seattletimes.com/nation-world/saudis-call-for-amazon-boycott-over-anger-at-washington-post/"}, {"ID": 800033974, "Actor1": "NORTH DAKOTA", "Actor1_Country": "USA", "Actor2": "RESIDENTS", "Actor2_Country": null, "Code": 20, "Class": 1, "Action_Location": "North Dakota, United States", "Lat": 47.5362, "Long": -99.793, "Timestamp": 20181105014500, "Source": "https://www.africaleader.com/news/258244745/restrictive-rules-keep-millions-of-americans-from-voting"}, {"ID": 800033992, "Actor1": "UNITED STATES", "Actor1_Country": "USA", "Actor2": "STUDENT", "Actor2_Country": null, "Code": 51, "Class": 1, "Action_Location": "Florida, United States", "Lat": 27.8333, "Long": -81.717, "Timestamp": 20181105014500, "Source": "https://www.kmov.com/months-after-massacre-parkland-victims-vote-for-first-time/article_989c22c3-4ed2-5f45-9426-c88be3c30029.html"}, {"ID": 800033999, "Actor1": "UNITED STATES", "Actor1_Country": "USA", "Actor2": "PROFESSOR", "Actor2_Country": null, "Code": 160, "Class": 4, "Action_Location": "Florida, United States", "Lat": 27.8333, "Long": -81.717, "Timestamp": 20181105014500, "Source": "https://www.kmov.com/months-after-massacre-parkland-victims-vote-for-first-time/article_989c22c3-4ed2-5f45-9426-c88be3c30029.html"}, {"ID": 800034029, "Actor1": "MONTANA", "Actor1_Country": "USA", "Actor2": "PRESIDENT", "Actor2_Country": null, "Code": 43, "Class": 1, "Action_Location": "Montana, United States", "Lat": 46.9048, "Long": -110.326, "Timestamp": 20181105014500, "Source": "https://www.dailymail.co.uk/wires/ap/article-6349513/Sen-Jon-Tester-pushes-make-race-Montana-not-Trump.html"}, {"ID": 800034033, "Actor1": "UNITED STATES", "Actor1_Country": "USA", "Actor2": "GOVERNMENT", "Actor2_Country": null, "Code": 51, "Class": 1, "Action_Location": "United States", "Lat": 39.828175, "Long": -98.5795, "Timestamp": 20181105014500, "Source": "https://www.cp24.com/world/iran-marks-79-u-s-embassy-takeover-as-renewed-sanctions-loom-1.4162621"}, {"ID": 800034036, "Actor1": "UNITED STATES", "Actor1_Country": "USA", "Actor2": "MAYOR", "Actor2_Country": null, "Code": 110, "Class": 3, "Action_Location": "Florida, United States", "Lat": 27.8333, "Long": -81.717, "Timestamp": 20181105014500, "Source": "https://www.dailymail.co.uk/wires/ap/article-6349649/Trump-Democrats-vying-support-final-midterm-push.html"}, {"ID": 800034038, "Actor1": "PENNSYLVANIA", "Actor1_Country": "USA", "Actor2": "ADMINISTRATION", "Actor2_Country": null, "Code": 112, "Class": 3, "Action_Location": "Pennsylvania, United States", "Lat": 40.5773, "Long": -77.264, "Timestamp": 20181105014500, "Source": "https://www.houstonchronicle.com/news/article/Obama-Trump-clash-in-final-pitches-to-midterm-13361847.php"}, {"ID": 800034047, "Actor1": "UNITED STATES", "Actor1_Country": "USA", "Actor2": "JEWISH", "Actor2_Country": null, "Code": 190, "Class": 4, "Action_Location": "New York, United States", "Lat": 42.1497, "Long": -74.9384, "Timestamp": 20181105014500, "Source": "https://www.reuters.com/article/us-pennsylvania-shooting-gab/gab-com-back-up-after-week-offline-following-pittsburgh-shooting-idUSKCN1NA01X"}, {"ID": 800034072, "Actor1": "PENNSYLVANIA", "Actor1_Country": "USA", "Actor2": "CONGRESS", "Actor2_Country": null, "Code": 130, "Class": 3, "Action_Location": "Pennsylvania, United States", "Lat": 40.5773, "Long": -77.264, "Timestamp": 20181105014500, "Source": "https://www.houstonchronicle.com/news/article/Obama-Trump-clash-in-final-pitches-to-midterm-13361847.php"}, {"ID": 800034073, "Actor1": "NORTH DAKOTA", "Actor1_Country": "USA", "Actor2": "SENATOR", "Actor2_Country": null, "Code": 190, "Class": 4, "Action_Location": "North Dakota, United States", "Lat": 47.5362, "Long": -99.793, "Timestamp": 20181105014500, "Source": "https://www.theaustralian.com.au/news/world/us-politics/guide-to-the-us-midterm-elections/news-story/6d9cdf544843e5c53b7c554a3823473f?nk=573d0712e2d2c678c48803b2ae4205e2-1541381512"}, {"ID": 800034075, "Actor1": "NEW YORK", "Actor1_Country": "USA", "Actor2": "MEDIA", "Actor2_Country": null, "Code": 42, "Class": 1, "Action_Location": "New York, United States", "Lat": 42.1497, "Long": -74.9384, "Timestamp": 20181105014500, "Source": "https://www.dailymail.co.uk/wires/ap/article-6349425/New-Yorkers-dance-tap-class-pop-music.html"}, {"ID": 800034109, "Actor1": "UNITED STATES", "Actor1_Country": "USA", "Actor2": "MILITANT", "Actor2_Country": null, "Code": 51, "Class": 1, "Action_Location": "United States", "Lat": 39.828175, "Long": -98.5795, "Timestamp": 20181105014500, "Source": "https://www.cp24.com/world/iran-marks-79-u-s-embassy-takeover-as-renewed-sanctions-loom-1.4162621"}, {"ID": 800034110, "Actor1": "UNITED STATES", "Actor1_Country": "USA", "Actor2": "GUNMAN", "Actor2_Country": null, "Code": 193, "Class": 4, "Action_Location": "Florida, United States", "Lat": 27.8333, "Long": -81.717, "Timestamp": 20181105014500, "Source": "https://www.wsbtv.com/news/trending-now/21yearold-yoga-studio-victim-remembered-as-devoted-to-peace-love-and-caring-for-others/866620457"}, {"ID": 800034111, "Actor1": "TEXAS", "Actor1_Country": "USA", "Actor2": "TEXAS", "Actor2_Country": "USA", "Code": 31, "Class": 1, "Action_Location": "California, United States", "Lat": 36.17, "Long": -119.746, "Timestamp": 20181105014500, "Source": "https://www.wfla.com/national/texas-contractor-scores-145-million-border-wall-contract/1572760991"}, {"ID": 800034123, "Actor1": "UNITED STATES", "Actor1_Country": "USA", "Actor2": "UNITED STATES", "Actor2_Country": "USA", "Code": 160, "Class": 4, "Action_Location": "Florida, United States", "Lat": 27.8333, "Long": -81.717, "Timestamp": 20181105014500, "Source": "https://www.kmov.com/months-after-massacre-parkland-victims-vote-for-first-time/article_989c22c3-4ed2-5f45-9426-c88be3c30029.html"}, {"ID": 800034124, "Actor1": "UNITED STATES", "Actor1_Country": "USA", "Actor2": "UNITED STATES", "Actor2_Country": "USA", "Code": 43, "Class": 1, "Action_Location": "Tennessee, United States", "Lat": 35.7449, "Long": -86.7489, "Timestamp": 20181105014500, "Source": "https://www.beaumontenterprise.com/news/article/Obama-Trump-clash-in-final-pitches-to-midterm-13361847.php"}, {"ID": 800034131, "Actor1": "UNITED STATES", "Actor1_Country": "USA", "Actor2": "UNITED STATES", "Actor2_Country": "USA", "Code": 43, "Class": 1, "Action_Location": "Washington, District of Columbia, United States", "Lat": 38.8951, "Long": -77.0364, "Timestamp": 20181105014500, "Source": "https://uk.reuters.com/article/uk-usa-election/trump-obama-tout-clashing-visions-of-u-s-as-elections-near-idUKKCN1N90N3"}, {"ID": 800034134, "Actor1": "UNITED STATES", "Actor1_Country": "USA", "Actor2": "BARACK OBAMA", "Actor2_Country": "USA", "Code": 71, "Class": 2, "Action_Location": "Chattanooga, Tennessee, United States", "Lat": 35.0456, "Long": -85.3097, "Timestamp": 20181105014500, "Source": "https://www.theaustralian.com.au/news/world/us-politics/guide-to-the-us-midterm-elections/news-story/6d9cdf544843e5c53b7c554a3823473f?nk=573d0712e2d2c678c48803b2ae4205e2-1541381512"}, {"ID": 800034135, "Actor1": "UNITED STATES", "Actor1_Country": "USA", "Actor2": "BARACK OBAMA", "Actor2_Country": "USA", "Code": 71, "Class": 2, "Action_Location": "North Dakota, United States", "Lat": 47.5362, "Long": -99.793, "Timestamp": 20181105014500, "Source": "https://www.theaustralian.com.au/news/world/us-politics/guide-to-the-us-midterm-elections/news-story/6d9cdf544843e5c53b7c554a3823473f?nk=573d0712e2d2c678c48803b2ae4205e2-1541381512"}, {"ID": 800034141, "Actor1": "PENNSYLVANIA", "Actor1_Country": "USA", "Actor2": "UNITED STATES", "Actor2_Country": "USA", "Code": 112, "Class": 3, "Action_Location": "Washington, District of Columbia, United States", "Lat": 38.8951, "Long": -77.0364, "Timestamp": 20181105014500, "Source": "https://www.houstonchronicle.com/news/article/Obama-Trump-clash-in-final-pitches-to-midterm-13361847.php"}, {"ID": 800034147, "Actor1": "NORTH DAKOTA", "Actor1_Country": "USA", "Actor2": "NORTH DAKOTA", "Actor2_Country": "USA", "Code": 190, "Class": 4, "Action_Location": "North Dakota, United States", "Lat": 47.5362, "Long": -99.793, "Timestamp": 20181105014500, "Source": "https://www.theaustralian.com.au/news/world/us-politics/guide-to-the-us-midterm-elections/news-story/6d9cdf544843e5c53b7c554a3823473f?nk=573d0712e2d2c678c48803b2ae4205e2-1541381512"}, {"ID": 800034160, "Actor1": "TEXAS", "Actor1_Country": "USA", "Actor2": "TEXAS", "Actor2_Country": "USA", "Code": 31, "Class": 1, "Action_Location": "Texas, United States", "Lat": 31.106, "Long": -97.6475, "Timestamp": 20181105014500, "Source": "https://www.wfla.com/national/texas-contractor-scores-145-million-border-wall-contract/1572760991"}, {"ID": 800034177, "Actor1": "FLORIDA", "Actor1_Country": "USA", "Actor2": "PROFESSOR", "Actor2_Country": null, "Code": 160, "Class": 4, "Action_Location": "Florida, United States", "Lat": 27.8333, "Long": -81.717, "Timestamp": 20181105014500, "Source": "https://www.kmov.com/months-after-massacre-parkland-victims-vote-for-first-time/article_989c22c3-4ed2-5f45-9426-c88be3c30029.html"}, {"ID": 800034182, "Actor1": "FLORIDA", "Actor1_Country": "USA", "Actor2": "UNITED STATES", "Actor2_Country": "USA", "Code": 160, "Class": 4, "Action_Location": "Florida, United States", "Lat": 27.8333, "Long": -81.717, "Timestamp": 20181105014500, "Source": "https://www.kmov.com/months-after-massacre-parkland-victims-vote-for-first-time/article_989c22c3-4ed2-5f45-9426-c88be3c30029.html"}, {"ID": 800034189, "Actor1": "UNITED STATES", "Actor1_Country": "USA", "Actor2": "UNITED STATES", "Actor2_Country": "USA", "Code": 42, "Class": 1, "Action_Location": "Tennessee, United States", "Lat": 35.7449, "Long": -86.7489, "Timestamp": 20181105014500, "Source": "https://www.beaumontenterprise.com/news/article/Obama-Trump-clash-in-final-pitches-to-midterm-13361847.php"}, {"ID": 800034190, "Actor1": "UNITED STATES", "Actor1_Country": "USA", "Actor2": "UNITED STATES", "Actor2_Country": "USA", "Code": 51, "Class": 1, "Action_Location": "Nevada, United States", "Lat": 38.4199, "Long": -117.122, "Timestamp": 20181105014500, "Source": "https://www.beaumontenterprise.com/news/article/Obama-Trump-clash-in-final-pitches-to-midterm-13361847.php"}, {"ID": 800034205, "Actor1": "UNITED STATES", "Actor1_Country": "USA", "Actor2": "PRESIDENT", "Actor2_Country": null, "Code": 16, "Class": 1, "Action_Location": "White House, District of Columbia, United States", "Lat": 38.8951, "Long": -77.0364, "Timestamp": 20181105014500, "Source": "https://www.houstonchronicle.com/news/article/Obama-Trump-clash-in-final-pitches-to-midterm-13361847.php"}, {"ID": 800034229, "Actor1": "NORTH DAKOTA", "Actor1_Country": "USA", "Actor2": "NORTH DAKOTA", "Actor2_Country": "USA", "Code": 190, "Class": 4, "Action_Location": "North Dakota, United States", "Lat": 47.5362, "Long": -99.793, "Timestamp": 20181105014500, "Source": "https://www.theaustralian.com.au/news/world/us-politics/guide-to-the-us-midterm-elections/news-story/6d9cdf544843e5c53b7c554a3823473f?nk=573d0712e2d2c678c48803b2ae4205e2-1541381512"}, {"ID": 800034236, "Actor1": "REUTERS", "Actor1_Country": "USA", "Actor2": "PRESIDENT", "Actor2_Country": null, "Code": 43, "Class": 1, "Action_Location": "Georgia, United States", "Lat": 32.9866, "Long": -83.6487, "Timestamp": 20181105014500, "Source": "https://uk.reuters.com/article/uk-usa-election/trump-obama-tout-clashing-visions-of-u-s-as-elections-near-idUKKCN1N90N3"}, {"ID": 800034246, "Actor1": "UNITED STATES", "Actor1_Country": "USA", "Actor2": "UNITED STATES", "Actor2_Country": "USA", "Code": 70, "Class": 2, "Action_Location": "New York, United States", "Lat": 42.1497, "Long": -74.9384, "Timestamp": 20181105014500, "Source": "https://www.dailymail.co.uk/wires/ap/article-6349845/Grammy-winning-jazz-trumpeter-Roy-Hargrove-dies-age-49.html"}]