[{"ID": 800210971, "Actor1": "GOVERNMENT", "Actor1_Country": null, "Actor2": "CHINA", "Actor2_Country": "CHN", "Code": 61, "Class": 2, "Action_Location": "China", "Lat": 35.0, "Long": 105.0, "Timestamp": 20181105181500, "Source": "https://thestarphoenix.com/pmn/news-pmn/canada-news-pmn/atlantic-canada-trade-mission-hopes-to-bolster-regions-trade-links-to-china/wcm/6061ab54-6236-4f5e-ba54-e088b2f1d531"}, {"ID": 800210976, "Actor1": "OPPOSITION PARTIES", "Actor1_Country": null, "Actor2": "GOVERNMENT", "Actor2_Country": null, "Code": 141, "Class": 3, "Action_Location": "India", "Lat": 20.0, "Long": 77.0, "Timestamp": 20181105181500, "Source": "https://www.business-standard.com/article/news-ani/congress-to-observe-2nd-anniversary-of-demonetisation-as-black-day-sources-118110501451_1.html"}, {"ID": 800210988, "Actor1": "BAVARIA", "Actor1_Country": "DEU", "Actor2": "GERMAN", "Actor2_Country": "DEU", "Code": 20, "Class": 1, "Action_Location": "Chemnitz, Sachsen, Germany", "Lat": 50.8333, "Long": 12.9167, "Timestamp": 20181105181500, "Source": "http://www.naharnet.com/stories/en/252734-germany-ousts-domestic-spy-chief-at-center-of-govt-row"}, {"ID": 800210989, "Actor1": "GERMANY", "Actor1_Country": "DEU", "Actor2": "GERMAN", "Actor2_Country": "DEU", "Code": 20, "Class": 1, "Action_Location": "Chemnitz, Sachsen, Germany", "Lat": 50.8333, "Long": 12.9167, "Timestamp": 20181105181500, "Source": "http://www.naharnet.com/stories/en/252734-germany-ousts-domestic-spy-chief-at-center-of-govt-row"}, {"ID": 800210990, "Actor1": "COLLEGE", "Actor1_Country": null, "Actor2": "COLLEGE", "Actor2_Country": null, "Code": 190, "Class": 4, "Action_Location": "United States", "Lat": 39.828175, "Long": -98.5795, "Timestamp": 20181105181500, "Source": "https://www.greenwichtime.com/entertainment/article/The-Laramie-Project-Ten-Years-Later-at-13363827.php"}, {"ID": 800210996, "Actor1": "UNITED STATES", "Actor1_Country": "USA", "Actor2": "COLLEGE", "Actor2_Country": null, "Code": 190, "Class": 4, "Action_Location": "United States", "Lat": 39.828175, "Long": -98.5795, "Timestamp": 20181105181500, "Source": "https://www.greenwichtime.com/entertainment/article/The-Laramie-Project-Ten-Years-Later-at-13363827.php"}, {"ID": 800211012, "Actor1": "GREEK", "Actor1_Country": "GRC", "Actor2": "LOS ANGELES", "Actor2_Country": "USA", "Code": 173, "Class": 4, "Action_Location": "Greece", "Lat": 39.0, "Long": 22.0, "Timestamp": 20181105181500, "Source": "https://www.opb.org/news/article/npr-mac-miller-died-from-overdose-involving-fentanyl/"}, {"ID": 800211013, "Actor1": "GREEK", "Actor1_Country": "GRC", "Actor2": "LOS ANGELES", "Actor2_Country": "USA", "Code": 173, "Class": 4, "Action_Location": "Tennessee, United States", "Lat": 35.7449, "Long": -86.7489, "Timestamp": 20181105181500, "Source": "https://www.opb.org/news/article/npr-mac-miller-died-from-overdose-involving-fentanyl/"}, {"ID": 800211025, "Actor1": "PAKISTAN", "Actor1_Country": "PAK", "Actor2": "UNITED KINGDOM", "Actor2_Country": "GBR", "Code": 81, "Class": 2, "Action_Location": "Pakistan", "Lat": 30.0, "Long": 70.0, "Timestamp": 20181105181500, "Source": "https://www.premier.org.uk/News/World/UK-remains-silent-on-Asia-Bibi-as-asylum-calls-intensify"}, {"ID": 800211026, "Actor1": "PAKISTAN", "Actor1_Country": "PAK", "Actor2": "SUPREME COURT", "Actor2_Country": null, "Code": 141, "Class": 3, "Action_Location": "Pakistan", "Lat": 30.0, "Long": 70.0, "Timestamp": 20181105181500, "Source": "https://www.premier.org.uk/News/World/UK-remains-silent-on-Asia-Bibi-as-asylum-calls-intensify"}, {"ID": 800211027, "Actor1": "PAKISTAN", "Actor1_Country": "PAK", "Actor2": "SUPREME COURT", "Actor2_Country": null, "Code": 141, "Class": 3, "Action_Location": "United Kingdom", "Lat": 54.0, "Long": -4.0, "Timestamp": 20181105181500, "Source": "https://www.premier.org.uk/News/World/UK-remains-silent-on-Asia-Bibi-as-asylum-calls-intensify"}, {"ID": 800211229, "Actor1": "AFGHANISTAN", "Actor1_Country": "AFG", "Actor2": "CANADA", "Actor2_Country": "CAN", "Code": 17, "Class": 1, "Action_Location": "Afghanistan", "Lat": 33.0, "Long": 66.0, "Timestamp": 20181105181500, "Source": "https://www.hopestandard.com/home/watch-chilliwack-veterans-honoured-by-local-high-school-students-with-longstanding-tradition/"}, {"ID": 800211254, "Actor1": "AUSTRALIA", "Actor1_Country": "AUS", "Actor2": "BELGIUM", "Actor2_Country": "BEL", "Code": 51, "Class": 1, "Action_Location": "Canberra, Australian Capital Territory, Australia", "Lat": -35.2833, "Long": 149.217, "Timestamp": 20181105181500, "Source": "https://www.news.com.au/world/breaking-news/australias-bond-with-ypres-cast-in-stone/news-story/2a68f46d3451e19b1cf531eee93ad85e"}, {"ID": 800211255, "Actor1": "AUSTRALIA", "Actor1_Country": "AUS", "Actor2": "BELGIUM", "Actor2_Country": "BEL", "Code": 51, "Class": 1, "Action_Location": "United Kingdom", "Lat": 54.0, "Long": -4.0, "Timestamp": 20181105181500, "Source": "https://www.news.com.au/world/breaking-news/australias-bond-with-ypres-cast-in-stone/news-story/2a68f46d3451e19b1cf531eee93ad85e"}, {"ID": 800211256, "Actor1": "AUSTRALIA", "Actor1_Country": "AUS", "Actor2": "BELGIUM", "Actor2_Country": "BEL", "Code": 51, "Class": 1, "Action_Location": "United Kingdom", "Lat": 54.0, "Long": -4.0, "Timestamp": 20181105181500, "Source": "https://www.news.com.au/world/breaking-news/australias-bond-with-ypres-cast-in-stone/news-story/2a68f46d3451e19b1cf531eee93ad85e"}, {"ID": 800211265, "Actor1": "BRUSSELS", "Actor1_Country": "BEL", "Actor2": "MALTESE", "Actor2_Country": "MLT", "Code": 10, "Class": 1, "Action_Location": "Malta", "Lat": 35.916667, "Long": 14.433333, "Timestamp": 20181105181500, "Source": "http://news.trust.org/item/20181105173104-eume0"}, {"ID": 800211275, "Actor1": "BAHRAIN", "Actor1_Country": "BHR", "Actor2": "AL JAZEERA", "Actor2_Country": "QAT", "Code": 10, "Class": 1, "Action_Location": "Bahrain", "Lat": 26.0, "Long": 50.5, "Timestamp": 20181105181500, "Source": "http://stillmannews.com/2018/11/05/bahrain-court-gives-opposition-figures-life-sentences-for/"}, {"ID": 800211276, "Actor1": "BAHRAIN", "Actor1_Country": "BHR", "Actor2": "AL JAZEERA", "Actor2_Country": "QAT", "Code": 13, "Class": 1, "Action_Location": "Bahrain", "Lat": 26.0, "Long": 50.5, "Timestamp": 20181105181500, "Source": "http://stillmannews.com/2018/11/05/bahrain-court-gives-opposition-figures-life-sentences-for/"}, {"ID": 800211277, "Actor1": "BAHRAIN", "Actor1_Country": "BHR", "Actor2": "BAHRAIN", "Actor2_Country": "BHR", "Code": 173, "Class": 4, "Action_Location": "Bahrain", "Lat": 26.0, "Long": 50.5, "Timestamp": 20181105181500, "Source": "http://stillmannews.com/2018/11/05/bahrain-court-gives-opposition-figures-life-sentences-for/"}, {"ID": 800211278, "Actor1": "BAHRAIN", "Actor1_Country": "BHR", "Actor2": "QATAR", "Actor2_Country": "QAT", "Code": 90, "Class": 2, "Action_Location": "United Kingdom", "Lat": 54.0, "Long": -4.0, "Timestamp": 20181105181500, "Source": "http://uspolitics24.com/2018/11/05/bahrain-opposition-leader-sentenced-to-life-in-qatar-spying.html"}, {"ID": 800211312, "Actor1": "BUSINESS", "Actor1_Country": null, "Actor2": "GERMANY", "Actor2_Country": "DEU", "Code": 14, "Class": 1, "Action_Location": "Warsaw, (PL67), Poland", "Lat": 52.25, "Long": 21.0, "Timestamp": 20181105181500, "Source": "http://www.naharnet.com/stories/en/252734-germany-ousts-domestic-spy-chief-at-center-of-govt-row"}, {"ID": 800211313, "Actor1": "BUSINESS", "Actor1_Country": null, "Actor2": "GERMANY", "Actor2_Country": "DEU", "Code": 14, "Class": 1, "Action_Location": "Warsaw, (PL67), Poland", "Lat": 52.25, "Long": 21.0, "Timestamp": 20181105181500, "Source": "http://www.naharnet.com/stories/en/252734-germany-ousts-domestic-spy-chief-at-center-of-govt-row"}, {"ID": 800211321, "Actor1": "BUSINESS", "Actor1_Country": null, "Actor2": "WARSAW", "Actor2_Country": "POL", "Code": 14, "Class": 1, "Action_Location": "Warsaw, (PL67), Poland", "Lat": 52.25, "Long": 21.0, "Timestamp": 20181105181500, "Source": "http://www.naharnet.com/stories/en/252734-germany-ousts-domestic-spy-chief-at-center-of-govt-row"}, {"ID": 800211339, "Actor1": "CANADA", "Actor1_Country": "CAN", "Actor2": "CHINA", "Actor2_Country": "CHN", "Code": 43, "Class": 1, "Action_Location": "China", "Lat": 35.0, "Long": 105.0, "Timestamp": 20181105181500, "Source": "https://thestarphoenix.com/pmn/news-pmn/canada-news-pmn/atlantic-canada-trade-mission-hopes-to-bolster-regions-trade-links-to-china/wcm/6061ab54-6236-4f5e-ba54-e088b2f1d531"}, {"ID": 800211340, "Actor1": "CANADA", "Actor1_Country": "CAN", "Actor2": "SCHOOL", "Actor2_Country": null, "Code": 51, "Class": 1, "Action_Location": "Chilliwack, British Columbia, Canada", "Lat": 49.1667, "Long": -121.95, "Timestamp": 20181105181500, "Source": "https://www.hopestandard.com/home/watch-chilliwack-veterans-honoured-by-local-high-school-students-with-longstanding-tradition/"}, {"ID": 800211353, "Actor1": "CHINA", "Actor1_Country": "CHN", "Actor2": "CANADA", "Actor2_Country": "CAN", "Code": 42, "Class": 1, "Action_Location": "China", "Lat": 35.0, "Long": 105.0, "Timestamp": 20181105181500, "Source": "https://thestarphoenix.com/pmn/news-pmn/canada-news-pmn/atlantic-canada-trade-mission-hopes-to-bolster-regions-trade-links-to-china/wcm/6061ab54-6236-4f5e-ba54-e088b2f1d531"}, {"ID": 800211357, "Actor1": "CHINA", "Actor1_Country": "CHN", "Actor2": "UNITED STATES", "Actor2_Country": "USA", "Code": 61, "Class": 2, "Action_Location": "Shanghai, Shanghai, China", "Lat": 31.2222, "Long": 121.458, "Timestamp": 20181105181500, "Source": "https://www.msn.com/en-us/news/world/update-4-chinas-xi-promises-to-raise-imports-amid-trade-row-with-us/ar-BBPlTss"}, {"ID": 800211367, "Actor1": "JEAN NKUETE", "Actor1_Country": "CMR", "Actor2": "RULING PARTY", "Actor2_Country": null, "Code": 13, "Class": 1, "Action_Location": "Zimbabwe", "Lat": -19.0, "Long": 29.0, "Timestamp": 20181105181500, "Source": "https://www.today.ng/news/africa/cameroon-inaugurate-president-elect-paul-biya-tuesday-168353"}, {"ID": 800211368, "Actor1": "ISSA TCHIROMA BAKARY", "Actor1_Country": "CMR", "Actor2": "GOVERNMENT SPOKESMAN", "Actor2_Country": null, "Code": 10, "Class": 1, "Action_Location": "Yobe, Yobe, Nigeria", "Lat": 12.0, "Long": 11.5, "Timestamp": 20181105181500, "Source": "https://www.yahoo.com/news/79-school-pupils-abducted-restive-anglophone-cameroon-153904066.html"}, {"ID": 800211420, "Actor1": "POLICE", "Actor1_Country": null, "Actor2": "JORDAN", "Actor2_Country": "JOR", "Code": 173, "Class": 4, "Action_Location": "Columbus, Ohio, United States", "Lat": 39.9612, "Long": -82.9988, "Timestamp": 20181105181500, "Source": "https://myfox28columbus.com/news/local/man-accused-of-murdering-couple-in-west-columbus-held-on-3-million-bond"}, {"ID": 800211421, "Actor1": "POLICE", "Actor1_Country": null, "Actor2": "JORDAN", "Actor2_Country": "JOR", "Code": 190, "Class": 4, "Action_Location": "Columbus, Ohio, United States", "Lat": 39.9612, "Long": -82.9988, "Timestamp": 20181105181500, "Source": "https://myfox28columbus.com/news/local/man-accused-of-murdering-couple-in-west-columbus-held-on-3-million-bond"}, {"ID": 800211429, "Actor1": "PRISON", "Actor1_Country": null, "Actor2": "ROMANIA", "Actor2_Country": null, "Code": 43, "Class": 1, "Action_Location": "Ramnicu Sarat, Romania (general), Romania", "Lat": 45.3833, "Long": 27.05, "Timestamp": 20181105181500, "Source": "http://en.rfi.fr/wire/20181105-romanian-ex-communist-prison-chief-dies-jail-93"}, {"ID": 800211430, "Actor1": "PRISON", "Actor1_Country": null, "Actor2": "ROMANIA", "Actor2_Country": null, "Code": 173, "Class": 4, "Action_Location": "Ramnicu Sarat, Romania (general), Romania", "Lat": 45.3833, "Long": 27.05, "Timestamp": 20181105181500, "Source": "http://en.rfi.fr/wire/20181105-romanian-ex-communist-prison-chief-dies-jail-93"}, {"ID": 800211431, "Actor1": "SECURITY FORCE", "Actor1_Country": null, "Actor2": "FIGHTER", "Actor2_Country": null, "Code": 112, "Class": 3, "Action_Location": "France", "Lat": 46.0, "Long": 2.0, "Timestamp": 20181105181500, "Source": "https://www.wral.com/79-students-kidnapped-from-boarding-school-in-cameroon-official-says/17971768/"}, {"ID": 800211432, "Actor1": "POLICE", "Actor1_Country": null, "Actor2": "KIEV", "Actor2_Country": "UKR", "Code": 17, "Class": 1, "Action_Location": "Kiev, Ukraine (general), Ukraine", "Lat": 50.4333, "Long": 30.5167, "Timestamp": 20181105181500, "Source": "https://www.nytimes.com/2018/11/05/world/europe/kateryna-handziuk-dies-ukraine.html"}, {"ID": 800211442, "Actor1": "POLICE", "Actor1_Country": null, "Actor2": "UNITED STATES", "Actor2_Country": "USA", "Code": 173, "Class": 4, "Action_Location": "Chippewa County, Wisconsin, United States", "Lat": 45.0666, "Long": -91.2668, "Timestamp": 20181105181500, "Source": "https://fox11online.com/news/state/official-intoxicated-driver-accused-of-killing-4"}, {"ID": 800211443, "Actor1": "POLICE", "Actor1_Country": null, "Actor2": "UNITED STATES", "Actor2_Country": "USA", "Code": 190, "Class": 4, "Action_Location": "Columbus, Ohio, United States", "Lat": 39.9612, "Long": -82.9988, "Timestamp": 20181105181500, "Source": "https://myfox28columbus.com/news/local/man-accused-of-murdering-couple-in-west-columbus-held-on-3-million-bond"}, {"ID": 800211446, "Actor1": "POLICE OFFICER", "Actor1_Country": null, "Actor2": "UNITED STATES", "Actor2_Country": "USA", "Code": 193, "Class": 4, "Action_Location": "Georgia, United States", "Lat": 32.9866, "Long": -83.6487, "Timestamp": 20181105181500, "Source": "https://heavy.com/news/2018/11/lucy-mcbath-jordan-davis/"}, {"ID": 800211452, "Actor1": "DEPUTY", "Actor1_Country": null, "Actor2": "DEPUTY", "Actor2_Country": null, "Code": 13, "Class": 1, "Action_Location": "Sweden", "Lat": 62.0, "Long": 15.0, "Timestamp": 20181105181500, "Source": "https://au.news.yahoo.com/russia-china-abstain-un-vote-punish-libya-rapists-172421700--spt.html"}, {"ID": 800211460, "Actor1": "CRIMINAL", "Actor1_Country": null, "Actor2": "LIBYA", "Actor2_Country": "LBY", "Code": 1821, "Class": 4, "Action_Location": "Tripoli, Tarabulus, Libya", "Lat": 32.8925, "Long": 13.18, "Timestamp": 20181105181500, "Source": "https://au.news.yahoo.com/russia-china-abstain-un-vote-punish-libya-rapists-172421700--spt.html"}, {"ID": 800211513, "Actor1": "RESIDENTS", "Actor1_Country": null, "Actor2": "MILITIA", "Actor2_Country": null, "Code": 12, "Class": 1, "Action_Location": "California, United States", "Lat": 36.17, "Long": -119.746, "Timestamp": 20181105181500, "Source": "https://www.sfgate.com/news/article/Militia-members-arrive-at-New-Mexico-border-town-13363902.php"}, {"ID": 800211528, "Actor1": "COMMUNITY", "Actor1_Country": null, "Actor2": "UNITED STATES", "Actor2_Country": "USA", "Code": 182, "Class": 4, "Action_Location": "Wisconsin, United States", "Lat": 44.2563, "Long": -89.6385, "Timestamp": 20181105181500, "Source": "http://www.wtvm.com/2018/11/05/wisconsin-girl-scouts-struck-killed-by-reckless-vehicle-during-highway-community-clean-up/"}, {"ID": 800211529, "Actor1": "COMMUNITY", "Actor1_Country": null, "Actor2": "WISCONSIN", "Actor2_Country": "USA", "Code": 182, "Class": 4, "Action_Location": "Wisconsin, United States", "Lat": 44.2563, "Long": -89.6385, "Timestamp": 20181105181500, "Source": "http://www.wtvm.com/2018/11/05/wisconsin-girl-scouts-struck-killed-by-reckless-vehicle-during-highway-community-clean-up/"}, {"ID": 800211530, "Actor1": "COMMUNITY", "Actor1_Country": null, "Actor2": "WISCONSIN", "Actor2_Country": "USA", "Code": 190, "Class": 4, "Action_Location": "Chippewa Falls, Wisconsin, United States", "Lat": 44.9369, "Long": -91.3929, "Timestamp": 20181105181500, "Source": "http://www.wtvm.com/2018/11/05/wisconsin-girl-scouts-struck-killed-by-reckless-vehicle-during-highway-community-clean-up/"}, {"ID": 800211533, "Actor1": "MIGRANT", "Actor1_Country": null, "Actor2": "MILITIA", "Actor2_Country": null, "Code": 130, "Class": 3, "Action_Location": "Tripoli, Tarabulus, Libya", "Lat": 32.8925, "Long": 13.18, "Timestamp": 20181105181500, "Source": "https://au.news.yahoo.com/russia-china-abstain-un-vote-punish-libya-rapists-172421700--spt.html"}, {"ID": 800211551, "Actor1": "GERMANY", "Actor1_Country": "DEU", "Actor2": "GERMANY", "Actor2_Country": "DEU", "Code": 90, "Class": 2, "Action_Location": "Chemnitz, Sachsen, Germany", "Lat": 50.8333, "Long": 12.9167, "Timestamp": 20181105181500, "Source": "http://www.naharnet.com/stories/en/252734-germany-ousts-domestic-spy-chief-at-center-of-govt-row"}, {"ID": 800211618, "Actor1": "SCHOOL", "Actor1_Country": null, "Actor2": "RHODES", "Actor2_Country": "GRC", "Code": 111, "Class": 3, "Action_Location": "New York, United States", "Lat": 42.1497, "Long": -74.9384, "Timestamp": 20181105181500, "Source": "https://www.nhregister.com/news/article/Election-2018-What-to-watch-in-New-York-state-13363905.php"}, {"ID": 800211645, "Actor1": "SCHOOL", "Actor1_Country": null, "Actor2": "UNITED STATES", "Actor2_Country": "USA", "Code": 111, "Class": 3, "Action_Location": "East Greenbush, New York, United States", "Lat": 42.5909, "Long": -73.7018, "Timestamp": 20181105181500, "Source": "https://www.nhregister.com/news/article/Election-2018-What-to-watch-in-New-York-state-13363905.php"}, {"ID": 800211646, "Actor1": "SCHOOL", "Actor1_Country": null, "Actor2": "UNITED STATES", "Actor2_Country": "USA", "Code": 111, "Class": 3, "Action_Location": "New York, United States", "Lat": 42.1497, "Long": -74.9384, "Timestamp": 20181105181500, "Source": "https://www.nhregister.com/news/article/Election-2018-What-to-watch-in-New-York-state-13363905.php"}, {"ID": 800211662, "Actor1": "FIRST LADY", "Actor1_Country": null, "Actor2": "PRIME MINISTER", "Actor2_Country": null, "Code": 51, "Class": 1, "Action_Location": "Ayodhya, Uttar Pradesh, India", "Lat": 26.8, "Long": 82.2, "Timestamp": 20181105181500, "Source": "https://www.aninews.in/news/national/general-news/pm-modi-meets-first-lady-of-south-korea201811052226140001/"}, {"ID": 800211714, "Actor1": "UNITED KINGDOM", "Actor1_Country": "GBR", "Actor2": "MIGRANT", "Actor2_Country": null, "Code": 10, "Class": 1, "Action_Location": "United Kingdom", "Lat": 54.0, "Long": -4.0, "Timestamp": 20181105181500, "Source": "http://www.midwestradio.ie/index.php/news/27286-galway-start-up-creating-25-new-jobs"}, {"ID": 800211724, "Actor1": "UNITED KINGDOM", "Actor1_Country": "GBR", "Actor2": "UNITED KINGDOM", "Actor2_Country": "GBR", "Code": 20, "Class": 1, "Action_Location": "United Kingdom", "Lat": 54.0, "Long": -4.0, "Timestamp": 20181105181500, "Source": "https://www.premier.org.uk/News/World/UK-remains-silent-on-Asia-Bibi-as-asylum-calls-intensify"}, {"ID": 800211748, "Actor1": "UNITED KINGDOM", "Actor1_Country": "GBR", "Actor2": "PRIME MINISTER", "Actor2_Country": null, "Code": 20, "Class": 1, "Action_Location": "United Kingdom", "Lat": 54.0, "Long": -4.0, "Timestamp": 20181105181500, "Source": "https://www.premier.org.uk/News/World/UK-remains-silent-on-Asia-Bibi-as-asylum-calls-intensify"}, {"ID": 800211830, "Actor1": "FINANCE MINIST", "Actor1_Country": null, "Actor2": "EUROPEAN", "Actor2_Country": "EUR", "Code": 20, "Class": 1, "Action_Location": "Brussels, Bruxelles-Capitale, Belgium", "Lat": 50.8333, "Long": 4.33333, "Timestamp": 20181105181500, "Source": "https://www.fin24.com/International/eu-plan-to-tax-facebook-as-amazon-heads-for-brussels-showdown-20181105"}, {"ID": 800211834, "Actor1": "MINIST", "Actor1_Country": null, "Actor2": "UNITED KINGDOM", "Actor2_Country": "GBR", "Code": 30, "Class": 1, "Action_Location": "United Kingdom", "Lat": 54.0, "Long": -4.0, "Timestamp": 20181105181500, "Source": "https://www.express.co.uk/news/uk/1041199/brexit-news-latest-chequers-deal-theresa-may-nigel-farage"}, {"ID": 800211853, "Actor1": "GOVERNMENT", "Actor1_Country": null, "Actor2": "TRIBUNAL", "Actor2_Country": null, "Code": 10, "Class": 1, "Action_Location": "Emure, Ekiti, Nigeria", "Lat": 7.43614, "Long": 5.45932, "Timestamp": 20181105181500, "Source": "https://punchng.com/ekiti-gov-election-inec-did-nothing-to-favour-apc-fayemi-witnesses/"}, {"ID": 800211854, "Actor1": "NATIONAL ELECTORAL COMMISSION", "Actor1_Country": null, "Actor2": "TRIBUNAL", "Actor2_Country": null, "Code": 10, "Class": 1, "Action_Location": "Ikole, Ekiti, Nigeria", "Lat": 7.7897, "Long": 5.5106, "Timestamp": 20181105181500, "Source": "http://dailypost.ng/2018/11/05/pdp-vs-apc-ekiti-election-inec-officials/"}, {"ID": 800211855, "Actor1": "GOVERNMENT", "Actor1_Country": null, "Actor2": "TRIBUNAL", "Actor2_Country": null, "Code": 13, "Class": 1, "Action_Location": "Emure, Ekiti, Nigeria", "Lat": 7.43614, "Long": 5.45932, "Timestamp": 20181105181500, "Source": "http://dailypost.ng/2018/11/05/pdp-vs-apc-ekiti-election-inec-officials/"}, {"ID": 800211857, "Actor1": "CHIEF MINISTER", "Actor1_Country": null, "Actor2": "SUPREME COURT", "Actor2_Country": null, "Code": 1014, "Class": 3, "Action_Location": "Hyderabad, Andhra Pradesh, India", "Lat": 17.3753, "Long": 78.4744, "Timestamp": 20181105181500, "Source": "https://www.business-standard.com/article/pti-stories/killing-of-tigress-maharashtra-forest-minister-hits-back-at-maneka-118110501435_1.html"}, {"ID": 800211859, "Actor1": "CHIEF MINISTER", "Actor1_Country": null, "Actor2": "SUPREME COURT", "Actor2_Country": null, "Code": 115, "Class": 3, "Action_Location": "Hyderabad, Andhra Pradesh, India", "Lat": 17.3753, "Long": 78.4744, "Timestamp": 20181105181500, "Source": "https://www.business-standard.com/article/pti-stories/killing-of-tigress-maharashtra-forest-minister-hits-back-at-maneka-118110501435_1.html"}, {"ID": 800211867, "Actor1": "NATIONAL ELECTORAL COMMISSION", "Actor1_Country": null, "Actor2": "CONGRESS", "Actor2_Country": null, "Code": 110, "Class": 3, "Action_Location": "Ekiti State, Ekiti, Nigeria", "Lat": 7.66667, "Long": 5.25, "Timestamp": 20181105181500, "Source": "http://dailypost.ng/2018/11/05/pdp-vs-apc-ekiti-election-inec-officials/"}, {"ID": 800211870, "Actor1": "MINISTRY", "Actor1_Country": null, "Actor2": "MEDIA", "Actor2_Country": null, "Code": 10, "Class": 1, "Action_Location": "Calabar, Cross River, Nigeria", "Lat": 4.9517, "Long": 8.322, "Timestamp": 20181105181500, "Source": "https://www.today.ng/news/nigeria/ministry-donors-contribute-95-nigerias-hiv-funding-168352"}, {"ID": 800211877, "Actor1": "GOVERNMENT", "Actor1_Country": null, "Actor2": "MEXICO", "Actor2_Country": "MEX", "Code": 150, "Class": 4, "Action_Location": "California, United States", "Lat": 36.17, "Long": -119.746, "Timestamp": 20181105181500, "Source": "https://www.sfgate.com/news/article/Militia-members-arrive-at-New-Mexico-border-town-13363902.php"}, {"ID": 800211881, "Actor1": "NATIONAL ELECTORAL COMMISSION", "Actor1_Country": null, "Actor2": "NIGERIA", "Actor2_Country": "NGA", "Code": 10, "Class": 1, "Action_Location": "Ikole, Ekiti, Nigeria", "Lat": 7.7897, "Long": 5.5106, "Timestamp": 20181105181500, "Source": "http://dailypost.ng/2018/11/05/pdp-vs-apc-ekiti-election-inec-officials/"}, {"ID": 800211886, "Actor1": "PRIME MINISTER", "Actor1_Country": null, "Actor2": "PAKISTAN", "Actor2_Country": "PAK", "Code": 42, "Class": 1, "Action_Location": "Beijing, Beijing, China", "Lat": 39.9289, "Long": 116.388, "Timestamp": 20181105181500, "Source": "https://www.msn.com/en-us/news/world/update-4-chinas-xi-promises-to-raise-imports-amid-trade-row-with-us/ar-BBPlTss"}, {"ID": 800211891, "Actor1": "PRIME MINISTER", "Actor1_Country": null, "Actor2": "RUSSIA", "Actor2_Country": "RUS", "Code": 42, "Class": 1, "Action_Location": "Beijing, Beijing, China", "Lat": 39.9289, "Long": 116.388, "Timestamp": 20181105181500, "Source": "https://www.msn.com/en-us/news/world/update-4-chinas-xi-promises-to-raise-imports-amid-trade-row-with-us/ar-BBPlTss"}, {"ID": 800211896, "Actor1": "GOVERNMENT", "Actor1_Country": null, "Actor2": "TANZANIA", "Actor2_Country": "TZA", "Code": 20, "Class": 1, "Action_Location": "Dar Es Salaam, Dar es Salaam, Tanzania", "Lat": -6.8, "Long": 39.2833, "Timestamp": 20181105181500, "Source": "http://news.trust.org/item/20181105170902-89mzy"}, {"ID": 800211899, "Actor1": "AUTHORITIES", "Actor1_Country": null, "Actor2": "UNITED STATES", "Actor2_Country": "USA", "Code": 20, "Class": 1, "Action_Location": "Chippewa County, Wisconsin, United States", "Lat": 45.0666, "Long": -91.2668, "Timestamp": 20181105181500, "Source": "https://fox11online.com/news/state/official-intoxicated-driver-accused-of-killing-4"}, {"ID": 800211901, "Actor1": "AUTHORITIES", "Actor1_Country": null, "Actor2": "UNITED STATES", "Actor2_Country": "USA", "Code": 20, "Class": 1, "Action_Location": "Chippewa County, Wisconsin, United States", "Lat": 45.0666, "Long": -91.2668, "Timestamp": 20181105181500, "Source": "https://fox11online.com/news/state/official-intoxicated-driver-accused-of-killing-4"}, {"ID": 800211906, "Actor1": "REGULATOR", "Actor1_Country": null, "Actor2": "SEATTLE", "Actor2_Country": "USA", "Code": 42, "Class": 1, "Action_Location": "Houston, Texas, United States", "Lat": 29.7633, "Long": -95.3633, "Timestamp": 20181105181500, "Source": "https://www.seattlepi.com/seattlenews/article/Singapore-Airlines-to-offer-longest-flight-Sea-Tac-13363815.php"}, {"ID": 800211907, "Actor1": "REGULATOR", "Actor1_Country": null, "Actor2": "SEATTLE", "Actor2_Country": "USA", "Code": 42, "Class": 1, "Action_Location": "New York, United States", "Lat": 42.1497, "Long": -74.9384, "Timestamp": 20181105181500, "Source": "https://www.seattlepi.com/seattlenews/article/Singapore-Airlines-to-offer-longest-flight-Sea-Tac-13363815.php"}, {"ID": 800211908, "Actor1": "MAYOR", "Actor1_Country": null, "Actor2": "COLUMBUS", "Actor2_Country": "USA", "Code": 42, "Class": 1, "Action_Location": "Alabama, United States", "Lat": 32.799, "Long": -86.8073, "Timestamp": 20181105181500, "Source": "https://www.sfgate.com/news/article/Militia-members-arrive-at-New-Mexico-border-town-13363902.php"}, {"ID": 800211911, "Actor1": "REGULATOR", "Actor1_Country": null, "Actor2": "SEATTLE", "Actor2_Country": "USA", "Code": 42, "Class": 1, "Action_Location": "New York, United States", "Lat": 42.1497, "Long": -74.9384, "Timestamp": 20181105181500, "Source": "https://www.seattlepi.com/seattlenews/article/Singapore-Airlines-to-offer-longest-flight-Sea-Tac-13363815.php"}, {"ID": 800211912, "Actor1": "REGULATOR", "Actor1_Country": null, "Actor2": "SEATTLE", "Actor2_Country": "USA", "Code": 42, "Class": 1, "Action_Location": "New York, United States", "Lat": 42.1497, "Long": -74.9384, "Timestamp": 20181105181500, "Source": "https://www.seattlepi.com/seattlenews/article/Singapore-Airlines-to-offer-longest-flight-Sea-Tac-13363815.php"}, {"ID": 800211917, "Actor1": "SECRETARY OF STATE", "Actor1_Country": null, "Actor2": "UNITED STATES", "Actor2_Country": "USA", "Code": 90, "Class": 2, "Action_Location": "Georgia, United States", "Lat": 32.9866, "Long": -83.6487, "Timestamp": 20181105181500, "Source": "https://www.nbcnews.com/politics/politics-news/witch-hunt-stacey-abrams-blasts-brian-kemp-s-11th-hour-n931386"}, {"ID": 800211918, "Actor1": "GOVERNMENT", "Actor1_Country": null, "Actor2": "COLUMBUS", "Actor2_Country": "USA", "Code": 150, "Class": 4, "Action_Location": "California, United States", "Lat": 36.17, "Long": -119.746, "Timestamp": 20181105181500, "Source": "https://www.sfgate.com/news/article/Militia-members-arrive-at-New-Mexico-border-town-13363902.php"}, {"ID": 800211922, "Actor1": "GOVERNOR", "Actor1_Country": null, "Actor2": "UNITED STATES", "Actor2_Country": "USA", "Code": 10, "Class": 1, "Action_Location": "Maine, United States", "Lat": 44.6074, "Long": -69.3977, "Timestamp": 20181105181500, "Source": "https://bangordailynews.com/2018/11/05/politics/lepage-says-hes-going-to-retire-and-go-to-florida-when-he-leaves-office/"}, {"ID": 800211923, "Actor1": "GOVERNOR", "Actor1_Country": null, "Actor2": "UNITED STATES", "Actor2_Country": "USA", "Code": 10, "Class": 1, "Action_Location": "Florida, United States", "Lat": 27.8333, "Long": -81.717, "Timestamp": 20181105181500, "Source": "https://bangordailynews.com/2018/11/05/politics/lepage-says-hes-going-to-retire-and-go-to-florida-when-he-leaves-office/"}, {"ID": 800211924, "Actor1": "GOVERNOR", "Actor1_Country": null, "Actor2": "FLORIDA", "Actor2_Country": "USA", "Code": 10, "Class": 1, "Action_Location": "Maine, United States", "Lat": 44.6074, "Long": -69.3977, "Timestamp": 20181105181500, "Source": "https://bangordailynews.com/2018/11/05/politics/lepage-says-hes-going-to-retire-and-go-to-florida-when-he-leaves-office/"}, {"ID": 800211927, "Actor1": "MINIST OF HEALTH", "Actor1_Country": null, "Actor2": "NIGERIA", "Actor2_Country": "NGA", "Code": 70, "Class": 2, "Action_Location": "Calabar, Cross River, Nigeria", "Lat": 4.9517, "Long": 8.322, "Timestamp": 20181105181500, "Source": "https://www.today.ng/news/nigeria/ministry-donors-contribute-95-nigerias-hiv-funding-168352"}, {"ID": 800211928, "Actor1": "MINIST OF HEALTH", "Actor1_Country": null, "Actor2": "NIGERIA", "Actor2_Country": "NGA", "Code": 71, "Class": 2, "Action_Location": "Calabar, Cross River, Nigeria", "Lat": 4.9517, "Long": 8.322, "Timestamp": 20181105181500, "Source": "https://www.today.ng/news/nigeria/ministry-donors-contribute-95-nigerias-hiv-funding-168352"}, {"ID": 800211929, "Actor1": "NATIONAL SECURITY ADVISER", "Actor1_Country": null, "Actor2": "BUSINESS", "Actor2_Country": null, "Code": 13, "Class": 1, "Action_Location": "Tehran, Tehran, Iran", "Lat": 35.75, "Long": 51.5148, "Timestamp": 20181105181500, "Source": "https://www.business-standard.com/article/reuters/u-s-renews-iran-sanctions-grants-oil-waivers-to-india-seven-others-118110501464_1.html"}, {"ID": 800211937, "Actor1": "YOGA", "Actor1_Country": null, "Actor2": "GUNMAN", "Actor2_Country": null, "Code": 190, "Class": 4, "Action_Location": "United States", "Lat": 39.828175, "Long": -98.5795, "Timestamp": 20181105181500, "Source": "https://wtvr.com/2018/11/05/yoga-studio-shooting-survivor-says-he-fought-off-the-gunman-with-a-vacuum-and-a-broom/"}, {"ID": 800211938, "Actor1": "YOGA", "Actor1_Country": null, "Actor2": "GUNMAN", "Actor2_Country": null, "Code": 193, "Class": 4, "Action_Location": "United States", "Lat": 39.828175, "Long": -98.5795, "Timestamp": 20181105181500, "Source": "https://wtvr.com/2018/11/05/yoga-studio-shooting-survivor-says-he-fought-off-the-gunman-with-a-vacuum-and-a-broom/"}, {"ID": 800211939, "Actor1": "YOGA", "Actor1_Country": null, "Actor2": "UNITED STATES", "Actor2_Country": "USA", "Code": 193, "Class": 4, "Action_Location": "United States", "Lat": 39.828175, "Long": -98.5795, "Timestamp": 20181105181500, "Source": "https://wtvr.com/2018/11/05/yoga-studio-shooting-survivor-says-he-fought-off-the-gunman-with-a-vacuum-and-a-broom/"}, {"ID": 800211951, "Actor1": "HOSPITAL", "Actor1_Country": null, "Actor2": "UKRAINE", "Actor2_Country": "UKR", "Code": 190, "Class": 4, "Action_Location": "Kiev, Ukraine (general), Ukraine", "Lat": 50.4333, "Long": 30.5167, "Timestamp": 20181105181500, "Source": "https://www.nytimes.com/2018/11/05/world/europe/kateryna-handziuk-dies-ukraine.html"}, {"ID": 800211952, "Actor1": "HOSPITAL", "Actor1_Country": null, "Actor2": "COLUMBUS", "Actor2_Country": "USA", "Code": 43, "Class": 1, "Action_Location": "Columbus, Ohio, United States", "Lat": 39.9612, "Long": -82.9988, "Timestamp": 20181105181500, "Source": "https://myfox28columbus.com/news/local/80-year-old-man-hospitalized-after-car-fire-in-clintonville"}, {"ID": 800211953, "Actor1": "HOSPITAL", "Actor1_Country": null, "Actor2": "UNITED STATES", "Actor2_Country": "USA", "Code": 43, "Class": 1, "Action_Location": "Ohio, United States", "Lat": 40.3736, "Long": -82.7755, "Timestamp": 20181105181500, "Source": "https://myfox28columbus.com/news/local/80-year-old-man-hospitalized-after-car-fire-in-clintonville"}, {"ID": 800211969, "Actor1": "THE UN", "Actor1_Country": null, "Actor2": "THOMSON REUTERS", "Actor2_Country": "CAN", "Code": 40, "Class": 1, "Action_Location": "Dar Es Salaam, Dar es Salaam, Tanzania", "Lat": -6.8, "Long": 39.2833, "Timestamp": 20181105181500, "Source": "http://news.trust.org/item/20181105170902-89mzy"}, {"ID": 800211980, "Actor1": "UN ENVOY", "Actor1_Country": null, "Actor2": "SOMALIA", "Actor2_Country": "SOM", "Code": 27, "Class": 1, "Action_Location": "Garowe, Nugaal, Somalia", "Lat": 8.40536, "Long": 48.4845, "Timestamp": 20181105181500, "Source": "http://www.china.org.cn/world/Off_the_Wire/2018-11/06/content_70433857.htm"}, {"ID": 800211981, "Actor1": "UN ENVOY", "Actor1_Country": null, "Actor2": "SOMALIA", "Actor2_Country": "SOM", "Code": 27, "Class": 1, "Action_Location": "Garowe, Nugaal, Somalia", "Lat": 8.40536, "Long": 48.4845, "Timestamp": 20181105181500, "Source": "http://www.china.org.cn/world/Off_the_Wire/2018-11/06/content_70433857.htm"}, {"ID": 800211982, "Actor1": "UN ENVOY", "Actor1_Country": null, "Actor2": "SOMALIA", "Actor2_Country": "SOM", "Code": 42, "Class": 1, "Action_Location": "Mogadishu, Banaadir, Somalia", "Lat": 2.06667, "Long": 45.3667, "Timestamp": 20181105181500, "Source": "http://www.china.org.cn/world/Off_the_Wire/2018-11/06/content_70433857.htm"}, {"ID": 800211983, "Actor1": "UNITED NATIONS", "Actor1_Country": null, "Actor2": "TANZANIAN", "Actor2_Country": "TZA", "Code": 20, "Class": 1, "Action_Location": "Dar Es Salaam, Dar es Salaam, Tanzania", "Lat": -6.8, "Long": 39.2833, "Timestamp": 20181105181500, "Source": "http://news.trust.org/item/20181105170902-89mzy"}, {"ID": 800211984, "Actor1": "UNITED NATIONS", "Actor1_Country": null, "Actor2": "TANZANIAN", "Actor2_Country": "TZA", "Code": 20, "Class": 1, "Action_Location": "Dar Es Salaam, Dar es Salaam, Tanzania", "Lat": -6.8, "Long": 39.2833, "Timestamp": 20181105181500, "Source": "http://news.trust.org/item/20181105170902-89mzy"}, {"ID": 800211994, "Actor1": "NEW DELHI", "Actor1_Country": "IND", "Actor2": "CORPORATION", "Actor2_Country": null, "Code": 10, "Class": 1, "Action_Location": "Delhi, Delhi, India", "Lat": 28.6667, "Long": 77.2167, "Timestamp": 20181105181500, "Source": "https://www.aninews.in/news/national/general-news/delhi-metro-to-be-functional-till-10pm-on-diwali201811052234090001/"}, {"ID": 800212001, "Actor1": "MUMBAI", "Actor1_Country": "IND", "Actor2": "MEXICO", "Actor2_Country": "MEX", "Code": 42, "Class": 1, "Action_Location": "Mexico", "Lat": 23.0, "Long": -102.0, "Timestamp": 20181105181500, "Source": "https://www.business-standard.com/article/news-ani/priyanka-chopra-s-super-fun-bachelorette-party-118110501457_1.html"}, {"ID": 800212004, "Actor1": "MUMBAI", "Actor1_Country": "IND", "Actor2": "VODAFONE", "Actor2_Country": "GBR", "Code": 111, "Class": 3, "Action_Location": "Delhi, Delhi, India", "Lat": 28.6667, "Long": 77.2167, "Timestamp": 20181105181500, "Source": "https://timesofindia.indiatimes.com/blogs/author/sabaazad/"}, {"ID": 800212009, "Actor1": "WEST BENGAL", "Actor1_Country": "IND", "Actor2": "BENGALI", "Actor2_Country": null, "Code": 112, "Class": 3, "Action_Location": "Tinsukia, Assam, India", "Lat": 27.5, "Long": 95.3667, "Timestamp": 20181105181500, "Source": "https://www.prokerala.com/news/articles/a871275.html"}, {"ID": 800212010, "Actor1": "WEST BENGAL", "Actor1_Country": "IND", "Actor2": "POLICEMEN", "Actor2_Country": null, "Code": 190, "Class": 4, "Action_Location": "Howrah, West Bengal, India", "Lat": 22.5892, "Long": 88.3103, "Timestamp": 20181105181500, "Source": "https://www.business-standard.com/article/pti-stories/vehicle-in-mamata-s-convoy-overturns-2-cops-injured-118110501427_1.html"}, {"ID": 800212021, "Actor1": "IRELAND", "Actor1_Country": "IRL", "Actor2": "PRISON", "Actor2_Country": null, "Code": 10, "Class": 1, "Action_Location": "Templeogue, County South Dublin, Ireland", "Lat": 53.2953, "Long": -6.30889, "Timestamp": 20181105181500, "Source": "https://www.irishtimes.com/news/crime-and-law/courts/circuit-court/murderer-brian-willoughby-guilty-of-assaulting-prison-officer-1.3687148"}, {"ID": 800212027, "Actor1": "IRELAND", "Actor1_Country": "IRL", "Actor2": "IRELAND", "Actor2_Country": "IRL", "Code": 111, "Class": 3, "Action_Location": "Templeogue, County South Dublin, Ireland", "Lat": 53.2953, "Long": -6.30889, "Timestamp": 20181105181500, "Source": "https://www.irishtimes.com/news/crime-and-law/courts/circuit-court/murderer-brian-willoughby-guilty-of-assaulting-prison-officer-1.3687148"}, {"ID": 800212028, "Actor1": "IRISH", "Actor1_Country": "IRL", "Actor2": "JUDGE", "Actor2_Country": null, "Code": 190, "Class": 4, "Action_Location": "Dublin, Dublin, Ireland", "Lat": 53.3331, "Long": -6.24889, "Timestamp": 20181105181500, "Source": "https://www.irishtimes.com/news/crime-and-law/courts/circuit-court/murderer-brian-willoughby-guilty-of-assaulting-prison-officer-1.3687148"}, {"ID": 800212046, "Actor1": "IRAN", "Actor1_Country": "IRN", "Actor2": "REUTERS", "Actor2_Country": "USA", "Code": 42, "Class": 1, "Action_Location": "Tehran, Tehran, Iran", "Lat": 35.75, "Long": 51.5148, "Timestamp": 20181105181500, "Source": "https://www.reuters.com/article/us-usa-iran-sanctions-oil/u-s-renews-iran-sanctions-grants-oil-waivers-to-china-seven-others-idUSKCN1NA0O8"}, {"ID": 800212047, "Actor1": "IRAN", "Actor1_Country": "IRN", "Actor2": "REUTERS", "Actor2_Country": "USA", "Code": 42, "Class": 1, "Action_Location": "Tehran, Tehran, Iran", "Lat": 35.75, "Long": 51.5148, "Timestamp": 20181105181500, "Source": "https://www.reuters.com/article/us-usa-iran-sanctions-oil/u-s-renews-iran-sanctions-grants-oil-waivers-to-china-seven-others-idUSKCN1NA0O8"}, {"ID": 800212062, "Actor1": "ISRAEL", "Actor1_Country": "ISR", "Actor2": "ISRAEL", "Actor2_Country": "ISR", "Code": 30, "Class": 1, "Action_Location": "Israel", "Lat": 31.5, "Long": 34.75, "Timestamp": 20181105181500, "Source": "https://forward.com/news/national/413506/jewish-groups-push-for-anti-bds-legislation-in-wake-of-synagogue-massacre/"}, {"ID": 800212078, "Actor1": "BRINDISI", "Actor1_Country": "ITA", "Actor2": "NEW YORK", "Actor2_Country": "USA", "Code": 190, "Class": 4, "Action_Location": "New York, United States", "Lat": 42.1497, "Long": -74.9384, "Timestamp": 20181105181500, "Source": "https://www.nhregister.com/news/article/Election-2018-What-to-watch-in-New-York-state-13363905.php"}, {"ID": 800212089, "Actor1": "JORDAN", "Actor1_Country": "JOR", "Actor2": "POLICE", "Actor2_Country": null, "Code": 190, "Class": 4, "Action_Location": "Columbus, Ohio, United States", "Lat": 39.9612, "Long": -82.9988, "Timestamp": 20181105181500, "Source": "https://myfox28columbus.com/news/local/man-accused-of-murdering-couple-in-west-columbus-held-on-3-million-bond"}, {"ID": 800212091, "Actor1": "JORDAN", "Actor1_Country": "JOR", "Actor2": "UNITED STATES", "Actor2_Country": "USA", "Code": 173, "Class": 4, "Action_Location": "Columbus, Ohio, United States", "Lat": 39.9612, "Long": -82.9988, "Timestamp": 20181105181500, "Source": "https://myfox28columbus.com/news/local/man-accused-of-murdering-couple-in-west-columbus-held-on-3-million-bond"}, {"ID": 800212093, "Actor1": "HASSAN", "Actor1_Country": "JOR", "Actor2": "PANAMA", "Actor2_Country": "PAN", "Code": 10, "Class": 1, "Action_Location": "Adiala, Punjab, Pakistan", "Lat": 33.4581, "Long": 72.9965, "Timestamp": 20181105181500, "Source": "http://dunyanews.tv/en/Pakistan/465241-Flagship-reference-against-Nawaz-Sharif-enters-final-phase"}, {"ID": 800212094, "Actor1": "HASSAN", "Actor1_Country": "JOR", "Actor2": "PANAMA", "Actor2_Country": "PAN", "Code": 10, "Class": 1, "Action_Location": "Panama", "Lat": 9.0, "Long": -80.0, "Timestamp": 20181105181500, "Source": "http://dunyanews.tv/en/Pakistan/465241-Flagship-reference-against-Nawaz-Sharif-enters-final-phase"}, {"ID": 800212134, "Actor1": "JUDGE", "Actor1_Country": null, "Actor2": "NEW ZEALAND", "Actor2_Country": "NZL", "Code": 13, "Class": 1, "Action_Location": "Otago, Otago, New Zealand", "Lat": -45.25, "Long": 169.5, "Timestamp": 20181105181500, "Source": "https://www.radionz.co.nz/news/national/370285/commissioner-demands-mps-to-act-on-smoking-in-car-with-kids-ban"}, {"ID": 800212135, "Actor1": "JUDGE", "Actor1_Country": null, "Actor2": "NEW ZEALAND", "Actor2_Country": "NZL", "Code": 36, "Class": 1, "Action_Location": "Otago, Otago, New Zealand", "Lat": -45.25, "Long": 169.5, "Timestamp": 20181105181500, "Source": "https://www.radionz.co.nz/news/national/370285/commissioner-demands-mps-to-act-on-smoking-in-car-with-kids-ban"}, {"ID": 800212136, "Actor1": "JUDGE", "Actor1_Country": null, "Actor2": "NEW ZEALAND", "Actor2_Country": "NZL", "Code": 112, "Class": 3, "Action_Location": "Otago, Otago, New Zealand", "Lat": -45.25, "Long": 169.5, "Timestamp": 20181105181500, "Source": "https://www.radionz.co.nz/news/national/370285/commissioner-demands-mps-to-act-on-smoking-in-car-with-kids-ban"}, {"ID": 800212137, "Actor1": "TRIBUNAL", "Actor1_Country": null, "Actor2": "DEMOCRATIC PARTY", "Actor2_Country": null, "Code": 20, "Class": 1, "Action_Location": "Ekiti State, Ekiti, Nigeria", "Lat": 7.66667, "Long": 5.25, "Timestamp": 20181105181500, "Source": "https://punchng.com/ekiti-gov-election-inec-did-nothing-to-favour-apc-fayemi-witnesses/"}, {"ID": 800212141, "Actor1": "SUPERIOR COURT", "Actor1_Country": null, "Actor2": "UNITED STATES", "Actor2_Country": "USA", "Code": 173, "Class": 4, "Action_Location": "Connecticut, United States", "Lat": 41.5834, "Long": -72.7622, "Timestamp": 20181105181500, "Source": "https://newcanaan.dailyvoice.com/police-fire/man-charged-in-parking-lot-fatal-stabbing-connecticut-state-police-say/744069/"}, {"ID": 800212142, "Actor1": "SUPREME COURT", "Actor1_Country": null, "Actor2": "UNITED STATES", "Actor2_Country": "USA", "Code": 174, "Class": 4, "Action_Location": "Washington, District of Columbia, United States", "Lat": 38.8951, "Long": -77.0364, "Timestamp": 20181105181500, "Source": "https://www.yahoo.com/news/u-supreme-court-ends-fight-over-obama-era-144751852--finance.html"}, {"ID": 800212156, "Actor1": "EMPLOYEE", "Actor1_Country": null, "Actor2": "INDUSTRY", "Actor2_Country": null, "Code": 71, "Class": 2, "Action_Location": "California, United States", "Lat": 36.17, "Long": -119.746, "Timestamp": 20181105181500, "Source": "https://www.washingtonpost.com/technology/2018/11/05/top-facebook-apple-google-executives-have-donated-little-midterms-two-years-after-clashing-with-trump/"}, {"ID": 800212157, "Actor1": "EMPLOYEE", "Actor1_Country": null, "Actor2": "INDUSTRY", "Actor2_Country": null, "Code": 71, "Class": 2, "Action_Location": "Washington, United States", "Lat": 47.3917, "Long": -121.571, "Timestamp": 20181105181500, "Source": "https://www.washingtonpost.com/technology/2018/11/05/top-facebook-apple-google-executives-have-donated-little-midterms-two-years-after-clashing-with-trump/"}, {"ID": 800212174, "Actor1": "LIBYA", "Actor1_Country": "LBY", "Actor2": "LIBYAN", "Actor2_Country": "LBY", "Code": 163, "Class": 4, "Action_Location": "Tripoli, Tarabulus, Libya", "Lat": 32.8925, "Long": 13.18, "Timestamp": 20181105181500, "Source": "https://au.news.yahoo.com/russia-china-abstain-un-vote-punish-libya-rapists-172421700--spt.html"}, {"ID": 800212183, "Actor1": "REPRESENTATIVES", "Actor1_Country": null, "Actor2": "BAHRAIN", "Actor2_Country": "BHR", "Code": 173, "Class": 4, "Action_Location": "Bahrain", "Lat": 26.0, "Long": 50.5, "Timestamp": 20181105181500, "Source": "http://stillmannews.com/2018/11/05/bahrain-court-gives-opposition-figures-life-sentences-for/"}, {"ID": 800212194, "Actor1": "CONGRESS", "Actor1_Country": null, "Actor2": "GOVERNOR", "Actor2_Country": null, "Code": 91, "Class": 2, "Action_Location": "Tarpon Springs, Florida, United States", "Lat": 28.1461, "Long": -82.7568, "Timestamp": 20181105181500, "Source": "http://www.tampabay.com/opinion/editorials/editorial-tampa-bay-voters-can-make-a-difference-locally-and-beyond-20181105/"}, {"ID": 800212195, "Actor1": "CONGRESS", "Actor1_Country": null, "Actor2": "GOVERNOR", "Actor2_Country": null, "Code": 110, "Class": 3, "Action_Location": "Tampa Bay, Florida, United States", "Lat": 27.765, "Long": -82.5825, "Timestamp": 20181105181500, "Source": "http://www.tampabay.com/opinion/editorials/editorial-tampa-bay-voters-can-make-a-difference-locally-and-beyond-20181105/"}, {"ID": 800212200, "Actor1": "SENATOR", "Actor1_Country": null, "Actor2": "ISRAEL", "Actor2_Country": "ISR", "Code": 30, "Class": 1, "Action_Location": "Washington, District of Columbia, United States", "Lat": 38.8951, "Long": -77.0364, "Timestamp": 20181105181500, "Source": "https://forward.com/news/national/413506/jewish-groups-push-for-anti-bds-legislation-in-wake-of-synagogue-massacre/"}, {"ID": 800212201, "Actor1": "SENATOR", "Actor1_Country": null, "Actor2": "ISRAEL", "Actor2_Country": "ISR", "Code": 30, "Class": 1, "Action_Location": "Israel", "Lat": 31.5, "Long": 34.75, "Timestamp": 20181105181500, "Source": "https://forward.com/news/national/413506/jewish-groups-push-for-anti-bds-legislation-in-wake-of-synagogue-massacre/"}, {"ID": 800212209, "Actor1": "SENATE", "Actor1_Country": null, "Actor2": "UNITED STATES", "Actor2_Country": "USA", "Code": 42, "Class": 1, "Action_Location": "New York, United States", "Lat": 42.1497, "Long": -74.9384, "Timestamp": 20181105181500, "Source": "https://www.nhregister.com/news/article/Election-2018-What-to-watch-in-New-York-state-13363905.php"}, {"ID": 800212213, "Actor1": "CONGRESSMAN", "Actor1_Country": null, "Actor2": "UNITED STATES", "Actor2_Country": "USA", "Code": 51, "Class": 1, "Action_Location": "Grand Island, New York, United States", "Lat": 43.0331, "Long": -78.9625, "Timestamp": 20181105181500, "Source": "https://www.nhregister.com/news/article/Election-2018-What-to-watch-in-New-York-state-13363905.php"}, {"ID": 800212214, "Actor1": "LAWMAKER", "Actor1_Country": null, "Actor2": "UNITED STATES", "Actor2_Country": "USA", "Code": 190, "Class": 4, "Action_Location": "New York, United States", "Lat": 42.1497, "Long": -74.9384, "Timestamp": 20181105181500, "Source": "https://www.nhregister.com/news/article/Election-2018-What-to-watch-in-New-York-state-13363905.php"}, {"ID": 800212215, "Actor1": "SENATE", "Actor1_Country": null, "Actor2": "THE WHITE HOUSE", "Actor2_Country": "USA", "Code": 190, "Class": 4, "Action_Location": "White House, District of Columbia, United States", "Lat": 38.8951, "Long": -77.0364, "Timestamp": 20181105181500, "Source": "http://news.trust.org/item/20181105105810-26n3x"}, {"ID": 800212216, "Actor1": "SENATE", "Actor1_Country": null, "Actor2": "THE WHITE HOUSE", "Actor2_Country": "USA", "Code": 190, "Class": 4, "Action_Location": "Ohio, United States", "Lat": 40.3736, "Long": -82.7755, "Timestamp": 20181105181500, "Source": "http://news.trust.org/item/20181105105810-26n3x"}, {"ID": 800212242, "Actor1": "TELEVISION", "Actor1_Country": null, "Actor2": "MEXICO", "Actor2_Country": "MEX", "Code": 10, "Class": 1, "Action_Location": "United States", "Lat": 39.828175, "Long": -98.5795, "Timestamp": 20181105181500, "Source": "http://globenewswire.com/news-release/2018/11/05/1645372/0/en/La-Ciudad-de-las-Ideas-2018-Will-Develop-Themes-to-Better-Understand-Humankind-and-Its-Environment.html"}, {"ID": 800212243, "Actor1": "TELEVISION", "Actor1_Country": null, "Actor2": "MEXICO", "Actor2_Country": "MEX", "Code": 173, "Class": 4, "Action_Location": "Puebla, Puebla, Mexico", "Lat": 19.05, "Long": -98.2, "Timestamp": 20181105181500, "Source": "http://globenewswire.com/news-release/2018/11/05/1645372/0/en/La-Ciudad-de-las-Ideas-2018-Will-Develop-Themes-to-Better-Understand-Humankind-and-Its-Environment.html"}, {"ID": 800212244, "Actor1": "WEBSITE", "Actor1_Country": null, "Actor2": "NIGERIA", "Actor2_Country": "NGA", "Code": 13, "Class": 1, "Action_Location": "Lagos, Lagos, Nigeria", "Lat": 6.45306, "Long": 3.39583, "Timestamp": 20181105181500, "Source": "http://nigerianobservernews.com/2018/11/google-impact-challenge-nigeria-opens-for-public-voting-country-director/"}, {"ID": 800212259, "Actor1": "MEXICO", "Actor1_Country": "MEX", "Actor2": "MUMBAI", "Actor2_Country": "IND", "Code": 43, "Class": 1, "Action_Location": "Mexico", "Lat": 23.0, "Long": -102.0, "Timestamp": 20181105181500, "Source": "https://www.business-standard.com/article/news-ani/priyanka-chopra-s-super-fun-bachelorette-party-118110501457_1.html"}, {"ID": 800212260, "Actor1": "MEXICO", "Actor1_Country": "MEX", "Actor2": "UNITED STATES", "Actor2_Country": "USA", "Code": 43, "Class": 1, "Action_Location": "Mumbai, Maharashtra, India", "Lat": 18.975, "Long": 72.8258, "Timestamp": 20181105181500, "Source": "https://www.business-standard.com/article/news-ani/priyanka-chopra-s-super-fun-bachelorette-party-118110501457_1.html"}, {"ID": 800212261, "Actor1": "MEXICO", "Actor1_Country": "MEX", "Actor2": "UNITED STATES", "Actor2_Country": "USA", "Code": 43, "Class": 1, "Action_Location": "Mexico", "Lat": 23.0, "Long": -102.0, "Timestamp": 20181105181500, "Source": "https://www.business-standard.com/article/news-ani/priyanka-chopra-s-super-fun-bachelorette-party-118110501457_1.html"}, {"ID": 800212262, "Actor1": "MEXICO", "Actor1_Country": "MEX", "Actor2": "CALIFORNIA", "Actor2_Country": "USA", "Code": 43, "Class": 1, "Action_Location": "Mexico", "Lat": 23.0, "Long": -102.0, "Timestamp": 20181105181500, "Source": "https://www.business-standard.com/article/news-ani/priyanka-chopra-s-super-fun-bachelorette-party-118110501457_1.html"}, {"ID": 800212307, "Actor1": "THOMSON REUTERS", "Actor1_Country": "CAN", "Actor2": "THE UN", "Actor2_Country": null, "Code": 40, "Class": 1, "Action_Location": "Dar Es Salaam, Dar es Salaam, Tanzania", "Lat": -6.8, "Long": 39.2833, "Timestamp": 20181105181500, "Source": "http://news.trust.org/item/20181105170902-89mzy"}, {"ID": 800212308, "Actor1": "THOMSON REUTERS", "Actor1_Country": "CAN", "Actor2": "TANZANIA", "Actor2_Country": "TZA", "Code": 40, "Class": 1, "Action_Location": "Dar Es Salaam, Dar es Salaam, Tanzania", "Lat": -6.8, "Long": 39.2833, "Timestamp": 20181105181500, "Source": "http://news.trust.org/item/20181105170902-89mzy"}, {"ID": 800212320, "Actor1": "NETFLIX", "Actor1_Country": "USA", "Actor2": "UNITED STATES", "Actor2_Country": "USA", "Code": 43, "Class": 1, "Action_Location": "New York, United States", "Lat": 42.1497, "Long": -74.9384, "Timestamp": 20181105181500, "Source": "http://www.thevalleydispatch.com/lifestyles/ci_32251317/amenities-cleanliness-matter-most-oh-and-bean-bag-chairs"}, {"ID": 800212332, "Actor1": "ISLAMIC", "Actor1_Country": null, "Actor2": "QATAR", "Actor2_Country": "QAT", "Code": 173, "Class": 4, "Action_Location": "Qatar", "Lat": 25.5, "Long": 51.25, "Timestamp": 20181105181500, "Source": "http://uspolitics24.com/2018/11/05/bahrain-opposition-leader-sentenced-to-life-in-qatar-spying.html"}, {"ID": 800212338, "Actor1": "MAURITANIA", "Actor1_Country": "MRT", "Actor2": "THE US", "Actor2_Country": "USA", "Code": 190, "Class": 4, "Action_Location": "Nouakchott, Trarza, Mauritania", "Lat": 18.1194, "Long": -16.0406, "Timestamp": 20181105181500, "Source": "http://www.focus-fen.net/news/2018/11/05/435554/afp-mauritania-us-in-spat-over-slavery-charge.html"}, {"ID": 800212349, "Actor1": "NIGERIAN", "Actor1_Country": "NGA", "Actor2": "DEPUTY", "Actor2_Country": null, "Code": 111, "Class": 3, "Action_Location": "Calabar, Cross River, Nigeria", "Lat": 4.9517, "Long": 8.322, "Timestamp": 20181105181500, "Source": "https://www.today.ng/news/nigeria/ministry-donors-contribute-95-nigerias-hiv-funding-168352"}, {"ID": 800212355, "Actor1": "NIGERIA", "Actor1_Country": "NGA", "Actor2": "TRIBUNAL", "Actor2_Country": null, "Code": 10, "Class": 1, "Action_Location": "Emure, Ekiti, Nigeria", "Lat": 7.43614, "Long": 5.45932, "Timestamp": 20181105181500, "Source": "https://punchng.com/ekiti-gov-election-inec-did-nothing-to-favour-apc-fayemi-witnesses/"}, {"ID": 800212356, "Actor1": "NIGERIA", "Actor1_Country": "NGA", "Actor2": "TRIBUNAL", "Actor2_Country": null, "Code": 10, "Class": 1, "Action_Location": "Emure, Ekiti, Nigeria", "Lat": 7.43614, "Long": 5.45932, "Timestamp": 20181105181500, "Source": "https://punchng.com/ekiti-gov-election-inec-did-nothing-to-favour-apc-fayemi-witnesses/"}, {"ID": 800212358, "Actor1": "NIGERIA", "Actor1_Country": "NGA", "Actor2": "COUNSEL", "Actor2_Country": null, "Code": 90, "Class": 2, "Action_Location": "Moba, Ogun, Nigeria", "Lat": 6.44134, "Long": 4.31869, "Timestamp": 20181105181500, "Source": "http://dailypost.ng/2018/11/05/pdp-vs-apc-ekiti-election-inec-officials/"}, {"ID": 800212359, "Actor1": "NIGERIA", "Actor1_Country": "NGA", "Actor2": "SENATE", "Actor2_Country": null, "Code": 10, "Class": 1, "Action_Location": "Ilorin, Kwara, Nigeria", "Lat": 8.5, "Long": 4.55, "Timestamp": 20181105181500, "Source": "http://www.olufamous.com/2018/11/buhari-govt-diverted-n378bn-saraki.html"}, {"ID": 800212360, "Actor1": "NIGERIA", "Actor1_Country": "NGA", "Actor2": "WEBSITE", "Actor2_Country": null, "Code": 13, "Class": 1, "Action_Location": "Lagos, Lagos, Nigeria", "Lat": 6.45306, "Long": 3.39583, "Timestamp": 20181105181500, "Source": "http://nigerianobservernews.com/2018/11/google-impact-challenge-nigeria-opens-for-public-voting-country-director/"}, {"ID": 800212372, "Actor1": "DUTCH", "Actor1_Country": "NLD", "Actor2": "PERPETRATOR", "Actor2_Country": null, "Code": 163, "Class": 4, "Action_Location": "Netherlands", "Lat": 52.5, "Long": 5.75, "Timestamp": 20181105181500, "Source": "https://au.news.yahoo.com/russia-china-abstain-un-vote-punish-libya-rapists-172421700--spt.html"}, {"ID": 800212373, "Actor1": "DUTCH", "Actor1_Country": "NLD", "Actor2": "THE UN", "Actor2_Country": null, "Code": 13, "Class": 1, "Action_Location": "Netherlands", "Lat": 52.5, "Long": 5.75, "Timestamp": 20181105181500, "Source": "https://au.news.yahoo.com/russia-china-abstain-un-vote-punish-libya-rapists-172421700--spt.html"}, {"ID": 800212375, "Actor1": "DUTCH", "Actor1_Country": "NLD", "Actor2": "REFUGEE", "Actor2_Country": null, "Code": 1821, "Class": 4, "Action_Location": "Tripoli, Tarabulus, Libya", "Lat": 32.8925, "Long": 13.18, "Timestamp": 20181105181500, "Source": "https://au.news.yahoo.com/russia-china-abstain-un-vote-punish-libya-rapists-172421700--spt.html"}, {"ID": 800212376, "Actor1": "DUTCH", "Actor1_Country": "NLD", "Actor2": "REFUGEE", "Actor2_Country": null, "Code": 1821, "Class": 4, "Action_Location": "Netherlands", "Lat": 52.5, "Long": 5.75, "Timestamp": 20181105181500, "Source": "https://au.news.yahoo.com/russia-china-abstain-un-vote-punish-libya-rapists-172421700--spt.html"}, {"ID": 800212377, "Actor1": "NETHERLANDS", "Actor1_Country": "NLD", "Actor2": "SWEDEN", "Actor2_Country": "SWE", "Code": 10, "Class": 1, "Action_Location": "Netherlands", "Lat": 52.5, "Long": 5.75, "Timestamp": 20181105181500, "Source": "https://au.news.yahoo.com/russia-china-abstain-un-vote-punish-libya-rapists-172421700--spt.html"}, {"ID": 800212378, "Actor1": "DUTCH", "Actor1_Country": "NLD", "Actor2": "PERPETRATOR", "Actor2_Country": null, "Code": 163, "Class": 4, "Action_Location": "Netherlands", "Lat": 52.5, "Long": 5.75, "Timestamp": 20181105181500, "Source": "https://au.news.yahoo.com/russia-china-abstain-un-vote-punish-libya-rapists-172421700--spt.html"}, {"ID": 800212379, "Actor1": "DUTCH", "Actor1_Country": "NLD", "Actor2": "THE UN", "Actor2_Country": null, "Code": 13, "Class": 1, "Action_Location": "Netherlands", "Lat": 52.5, "Long": 5.75, "Timestamp": 20181105181500, "Source": "https://au.news.yahoo.com/russia-china-abstain-un-vote-punish-libya-rapists-172421700--spt.html"}, {"ID": 800212381, "Actor1": "DUTCH", "Actor1_Country": "NLD", "Actor2": "DUTCH", "Actor2_Country": "NLD", "Code": 13, "Class": 1, "Action_Location": "Netherlands", "Lat": 52.5, "Long": 5.75, "Timestamp": 20181105181500, "Source": "https://au.news.yahoo.com/russia-china-abstain-un-vote-punish-libya-rapists-172421700--spt.html"}, {"ID": 800212382, "Actor1": "DUTCH", "Actor1_Country": "NLD", "Actor2": "REFUGEE", "Actor2_Country": null, "Code": 1821, "Class": 4, "Action_Location": "Tripoli, Tarabulus, Libya", "Lat": 32.8925, "Long": 13.18, "Timestamp": 20181105181500, "Source": "https://au.news.yahoo.com/russia-china-abstain-un-vote-punish-libya-rapists-172421700--spt.html"}, {"ID": 800212388, "Actor1": "NEW ZEALAND", "Actor1_Country": "NZL", "Actor2": "JUDGE", "Actor2_Country": null, "Code": 36, "Class": 1, "Action_Location": "Otago, Otago, New Zealand", "Lat": -45.25, "Long": 169.5, "Timestamp": 20181105181500, "Source": "https://www.radionz.co.nz/news/national/370285/commissioner-demands-mps-to-act-on-smoking-in-car-with-kids-ban"}, {"ID": 800212392, "Actor1": "NEW ZEALAND", "Actor1_Country": "NZL", "Actor2": "NEW ZEALAND", "Actor2_Country": "NZL", "Code": 112, "Class": 3, "Action_Location": "Otago, Otago, New Zealand", "Lat": -45.25, "Long": 169.5, "Timestamp": 20181105181500, "Source": "https://www.radionz.co.nz/news/national/370285/commissioner-demands-mps-to-act-on-smoking-in-car-with-kids-ban"}, {"ID": 800212401, "Actor1": "ACTIVIST", "Actor1_Country": null, "Actor2": "HOSPITAL", "Actor2_Country": null, "Code": 190, "Class": 4, "Action_Location": "Kiev, Ukraine (general), Ukraine", "Lat": 50.4333, "Long": 30.5167, "Timestamp": 20181105181500, "Source": "https://www.nytimes.com/2018/11/05/world/europe/kateryna-handziuk-dies-ukraine.html"}, {"ID": 800212404, "Actor1": "PROTESTER", "Actor1_Country": null, "Actor2": "UKRAINE", "Actor2_Country": "UKR", "Code": 43, "Class": 1, "Action_Location": "Kiev, Ukraine (general), Ukraine", "Lat": 50.4333, "Long": 30.5167, "Timestamp": 20181105181500, "Source": "https://www.nytimes.com/2018/11/05/world/europe/kateryna-handziuk-dies-ukraine.html"}, {"ID": 800212408, "Actor1": "PAKISTAN", "Actor1_Country": "PAK", "Actor2": "PRIME MINISTER", "Actor2_Country": null, "Code": 43, "Class": 1, "Action_Location": "Beijing, Beijing, China", "Lat": 39.9289, "Long": 116.388, "Timestamp": 20181105181500, "Source": "https://www.msn.com/en-us/news/world/update-4-chinas-xi-promises-to-raise-imports-amid-trade-row-with-us/ar-BBPlTss"}, {"ID": 800212410, "Actor1": "PAKISTAN", "Actor1_Country": "PAK", "Actor2": "HASSAN", "Actor2_Country": "JOR", "Code": 10, "Class": 1, "Action_Location": "Islamabad, Islamabad, Pakistan", "Lat": 33.7, "Long": 73.1667, "Timestamp": 20181105181500, "Source": "http://dunyanews.tv/en/Pakistan/465241-Flagship-reference-against-Nawaz-Sharif-enters-final-phase"}, {"ID": 800212416, "Actor1": "PAKISTAN", "Actor1_Country": "PAK", "Actor2": "PANAMA", "Actor2_Country": "PAN", "Code": 10, "Class": 1, "Action_Location": "London, London, City of, United Kingdom", "Lat": 51.5, "Long": -0.116667, "Timestamp": 20181105181500, "Source": "http://dunyanews.tv/en/Pakistan/465241-Flagship-reference-against-Nawaz-Sharif-enters-final-phase"}, {"ID": 800212445, "Actor1": "LISBON", "Actor1_Country": "PRT", "Actor2": "BUSINESS", "Actor2_Country": null, "Code": 50, "Class": 1, "Action_Location": "Lisbon, Lisboa, Portugal", "Lat": 38.7167, "Long": -9.13333, "Timestamp": 20181105181500, "Source": "https://www.reuters.com/article/us-portugal-websummit/web-summit-helping-lisbon-to-reboot-as-tech-start-up-hub-says-founder-idUSKCN1NA28G"}, {"ID": 800212475, "Actor1": "ROMANIA", "Actor1_Country": null, "Actor2": "PRISON", "Actor2_Country": null, "Code": 42, "Class": 1, "Action_Location": "Ramnicu Sarat, Romania (general), Romania", "Lat": 45.3833, "Long": 27.05, "Timestamp": 20181105181500, "Source": "http://en.rfi.fr/wire/20181105-romanian-ex-communist-prison-chief-dies-jail-93"}, {"ID": 800212476, "Actor1": "ROMANIA", "Actor1_Country": null, "Actor2": "PRISON", "Actor2_Country": null, "Code": 42, "Class": 1, "Action_Location": "Sighet, Romania (general), Romania", "Lat": 47.9333, "Long": 23.8833, "Timestamp": 20181105181500, "Source": "http://en.rfi.fr/wire/20181105-romanian-ex-communist-prison-chief-dies-jail-93"}, {"ID": 800212480, "Actor1": "RUSSIA", "Actor1_Country": "RUS", "Actor2": "PRIME MINISTER", "Actor2_Country": null, "Code": 43, "Class": 1, "Action_Location": "Beijing, Beijing, China", "Lat": 39.9289, "Long": 116.388, "Timestamp": 20181105181500, "Source": "https://www.msn.com/en-us/news/world/update-4-chinas-xi-promises-to-raise-imports-amid-trade-row-with-us/ar-BBPlTss"}, {"ID": 800212483, "Actor1": "RUSSIAN", "Actor1_Country": "RUS", "Actor2": "THE NETHERLAND", "Actor2_Country": "NLD", "Code": 112, "Class": 3, "Action_Location": "Tripoli, Tarabulus, Libya", "Lat": 32.8925, "Long": 13.18, "Timestamp": 20181105181500, "Source": "https://au.news.yahoo.com/russia-china-abstain-un-vote-punish-libya-rapists-172421700--spt.html"}, {"ID": 800212488, "Actor1": "RUSSIAN", "Actor1_Country": "RUS", "Actor2": "SWEDEN", "Actor2_Country": "SWE", "Code": 112, "Class": 3, "Action_Location": "Netherlands", "Lat": 52.5, "Long": 5.75, "Timestamp": 20181105181500, "Source": "https://au.news.yahoo.com/russia-china-abstain-un-vote-punish-libya-rapists-172421700--spt.html"}, {"ID": 800212489, "Actor1": "RUSSIAN", "Actor1_Country": "RUS", "Actor2": "SWEDEN", "Actor2_Country": "SWE", "Code": 112, "Class": 3, "Action_Location": "Netherlands", "Lat": 52.5, "Long": 5.75, "Timestamp": 20181105181500, "Source": "https://au.news.yahoo.com/russia-china-abstain-un-vote-punish-libya-rapists-172421700--spt.html"}, {"ID": 800212491, "Actor1": "RUSSIAN", "Actor1_Country": "RUS", "Actor2": "WASHINGTON", "Actor2_Country": "USA", "Code": 163, "Class": 4, "Action_Location": "Washington, District of Columbia, United States", "Lat": 38.8951, "Long": -77.0364, "Timestamp": 20181105181500, "Source": "https://af.reuters.com/article/metalsNews/idAFL4N1XG3CH"}, {"ID": 800212496, "Actor1": "RUSSIAN", "Actor1_Country": "RUS", "Actor2": "THE NETHERLAND", "Actor2_Country": "NLD", "Code": 112, "Class": 3, "Action_Location": "Tripoli, Tarabulus, Libya", "Lat": 32.8925, "Long": 13.18, "Timestamp": 20181105181500, "Source": "https://au.news.yahoo.com/russia-china-abstain-un-vote-punish-libya-rapists-172421700--spt.html"}, {"ID": 800212500, "Actor1": "RUSSIA", "Actor1_Country": "RUS", "Actor2": "RUSSIAN", "Actor2_Country": "RUS", "Code": 120, "Class": 3, "Action_Location": "Russia", "Lat": 60.0, "Long": 100.0, "Timestamp": 20181105181500, "Source": "http://www.investmentwatchblog.com/the-military-industrial-complex-has-hijacked-trumps-foreign-policy-as-u-s-coalition-commits-war-crimes-in-syria/"}, {"ID": 800212501, "Actor1": "RUSSIA", "Actor1_Country": "RUS", "Actor2": "SWEDEN", "Actor2_Country": "SWE", "Code": 112, "Class": 3, "Action_Location": "Russia", "Lat": 60.0, "Long": 100.0, "Timestamp": 20181105181500, "Source": "https://au.news.yahoo.com/russia-china-abstain-un-vote-punish-libya-rapists-172421700--spt.html"}, {"ID": 800212502, "Actor1": "RUSSIAN", "Actor1_Country": "RUS", "Actor2": "SWEDEN", "Actor2_Country": "SWE", "Code": 112, "Class": 3, "Action_Location": "Netherlands", "Lat": 52.5, "Long": 5.75, "Timestamp": 20181105181500, "Source": "https://au.news.yahoo.com/russia-china-abstain-un-vote-punish-libya-rapists-172421700--spt.html"}, {"ID": 800212508, "Actor1": "RUSSIAN", "Actor1_Country": "RUS", "Actor2": "NAVY", "Actor2_Country": null, "Code": 36, "Class": 1, "Action_Location": "Russia", "Lat": 60.0, "Long": 100.0, "Timestamp": 20181105181500, "Source": "https://www.businessinsider.com/russian-su-27-blasts-jets-in-unsafe-us-navy-ep-3-aries-intercept-2018-11"}, {"ID": 800212549, "Actor1": "SOMALIA", "Actor1_Country": "SOM", "Actor2": "UN ENVOY", "Actor2_Country": null, "Code": 37, "Class": 1, "Action_Location": "Mogadishu, Banaadir, Somalia", "Lat": 2.06667, "Long": 45.3667, "Timestamp": 20181105181500, "Source": "http://www.china.org.cn/world/Off_the_Wire/2018-11/06/content_70433857.htm"}, {"ID": 800212550, "Actor1": "SOMALIA", "Actor1_Country": "SOM", "Actor2": "UN ENVOY", "Actor2_Country": null, "Code": 43, "Class": 1, "Action_Location": "Mogadishu, Banaadir, Somalia", "Lat": 2.06667, "Long": 45.3667, "Timestamp": 20181105181500, "Source": "http://www.china.org.cn/world/Off_the_Wire/2018-11/06/content_70433857.htm"}, {"ID": 800212551, "Actor1": "SOMALIA", "Actor1_Country": "SOM", "Actor2": "ABDIWELI MOHAMED ALI", "Actor2_Country": "SOM", "Code": 40, "Class": 1, "Action_Location": "Garowe, Nugaal, Somalia", "Lat": 8.40536, "Long": 48.4845, "Timestamp": 20181105181500, "Source": "http://www.china.org.cn/world/Off_the_Wire/2018-11/06/content_70433857.htm"}, {"ID": 800212552, "Actor1": "SOMALIA", "Actor1_Country": "SOM", "Actor2": "ABDIWELI MOHAMED ALI", "Actor2_Country": "SOM", "Code": 100, "Class": 3, "Action_Location": "Tukaraq, Sool, Somalia", "Lat": 8.54763, "Long": 47.8327, "Timestamp": 20181105181500, "Source": "http://www.china.org.cn/world/Off_the_Wire/2018-11/06/content_70433857.htm"}, {"ID": 800212553, "Actor1": "SOMALIA", "Actor1_Country": "SOM", "Actor2": "ABDIWELI MOHAMED ALI", "Actor2_Country": "SOM", "Code": 100, "Class": 3, "Action_Location": "Puntland, Somalia (general), Somalia", "Lat": 9.0, "Long": 49.0, "Timestamp": 20181105181500, "Source": "http://www.china.org.cn/world/Off_the_Wire/2018-11/06/content_70433857.htm"}, {"ID": 800212554, "Actor1": "SOMALIA", "Actor1_Country": "SOM", "Actor2": "ABDIWELI MOHAMED ALI", "Actor2_Country": "SOM", "Code": 190, "Class": 4, "Action_Location": "Somaliland, Somalia (general), Somalia", "Lat": 9.0, "Long": 46.0, "Timestamp": 20181105181500, "Source": "http://www.china.org.cn/world/Off_the_Wire/2018-11/06/content_70433857.htm"}, {"ID": 800212555, "Actor1": "SOMALIA", "Actor1_Country": "SOM", "Actor2": "SOMALIA", "Actor2_Country": "SOM", "Code": 190, "Class": 4, "Action_Location": "Somaliland, Somalia (general), Somalia", "Lat": 9.0, "Long": 46.0, "Timestamp": 20181105181500, "Source": "http://www.china.org.cn/world/Off_the_Wire/2018-11/06/content_70433857.htm"}, {"ID": 800212556, "Actor1": "SOMALIA", "Actor1_Country": "SOM", "Actor2": "SOMALIA", "Actor2_Country": "SOM", "Code": 190, "Class": 4, "Action_Location": "Puntland, Somalia (general), Somalia", "Lat": 9.0, "Long": 49.0, "Timestamp": 20181105181500, "Source": "http://www.china.org.cn/world/Off_the_Wire/2018-11/06/content_70433857.htm"}, {"ID": 800212557, "Actor1": "SOMALIA", "Actor1_Country": "SOM", "Actor2": "SOMALIA", "Actor2_Country": "SOM", "Code": 190, "Class": 4, "Action_Location": "Tukaraq, Sool, Somalia", "Lat": 8.54763, "Long": 47.8327, "Timestamp": 20181105181500, "Source": "http://www.china.org.cn/world/Off_the_Wire/2018-11/06/content_70433857.htm"}, {"ID": 800212558, "Actor1": "ABDIWELI MOHAMED ALI", "Actor1_Country": "SOM", "Actor2": "SOMALIA", "Actor2_Country": "SOM", "Code": 40, "Class": 1, "Action_Location": "Garowe, Nugaal, Somalia", "Lat": 8.40536, "Long": 48.4845, "Timestamp": 20181105181500, "Source": "http://www.china.org.cn/world/Off_the_Wire/2018-11/06/content_70433857.htm"}, {"ID": 800212559, "Actor1": "ABDIWELI MOHAMED ALI", "Actor1_Country": "SOM", "Actor2": "SOMALIA", "Actor2_Country": "SOM", "Code": 190, "Class": 4, "Action_Location": "Somaliland, Somalia (general), Somalia", "Lat": 9.0, "Long": 46.0, "Timestamp": 20181105181500, "Source": "http://www.china.org.cn/world/Off_the_Wire/2018-11/06/content_70433857.htm"}, {"ID": 800212563, "Actor1": "SWEDEN", "Actor1_Country": "SWE", "Actor2": "SWEDEN", "Actor2_Country": "SWE", "Code": 13, "Class": 1, "Action_Location": "Tripoli, Tarabulus, Libya", "Lat": 32.8925, "Long": 13.18, "Timestamp": 20181105181500, "Source": "https://au.news.yahoo.com/russia-china-abstain-un-vote-punish-libya-rapists-172421700--spt.html"}, {"ID": 800212564, "Actor1": "SWEDEN", "Actor1_Country": "SWE", "Actor2": "SWEDEN", "Actor2_Country": "SWE", "Code": 13, "Class": 1, "Action_Location": "Sweden", "Lat": 62.0, "Long": 15.0, "Timestamp": 20181105181500, "Source": "https://au.news.yahoo.com/russia-china-abstain-un-vote-punish-libya-rapists-172421700--spt.html"}, {"ID": 800212565, "Actor1": "SWEDEN", "Actor1_Country": "SWE", "Actor2": "SWEDEN", "Actor2_Country": "SWE", "Code": 13, "Class": 1, "Action_Location": "Sweden", "Lat": 62.0, "Long": 15.0, "Timestamp": 20181105181500, "Source": "https://au.news.yahoo.com/russia-china-abstain-un-vote-punish-libya-rapists-172421700--spt.html"}, {"ID": 800212566, "Actor1": "SWEDEN", "Actor1_Country": "SWE", "Actor2": "SWEDEN", "Actor2_Country": "SWE", "Code": 13, "Class": 1, "Action_Location": "Sweden", "Lat": 62.0, "Long": 15.0, "Timestamp": 20181105181500, "Source": "https://au.news.yahoo.com/russia-china-abstain-un-vote-punish-libya-rapists-172421700--spt.html"}, {"ID": 800212581, "Actor1": "TANZANIA", "Actor1_Country": "TZA", "Actor2": "THOMSON REUTERS", "Actor2_Country": "CAN", "Code": 40, "Class": 1, "Action_Location": "Dar Es Salaam, Dar es Salaam, Tanzania", "Lat": -6.8, "Long": 39.2833, "Timestamp": 20181105181500, "Source": "http://news.trust.org/item/20181105170902-89mzy"}, {"ID": 800212583, "Actor1": "ARMED MEN", "Actor1_Country": null, "Actor2": "STUDENT", "Actor2_Country": null, "Code": 181, "Class": 4, "Action_Location": "Bamenda, Nord-Ouest, Cameroon", "Lat": 5.95265, "Long": 10.1582, "Timestamp": 20181105181500, "Source": "https://www.weeklytimesnow.com.au/news/breaking-news/armed-men-kidnap-78-students-in-cameroon/news-story/e8964a7e0b3355f0aaf19087cd9be0b8?nk=f5d0a714aeafa78fa6c3820f326b8a35-1541440995"}, {"ID": 800212584, "Actor1": "ARMED MEN", "Actor1_Country": null, "Actor2": "STUDENT", "Actor2_Country": null, "Code": 181, "Class": 4, "Action_Location": "France", "Lat": 46.0, "Long": 2.0, "Timestamp": 20181105181500, "Source": "https://www.weeklytimesnow.com.au/news/breaking-news/armed-men-kidnap-78-students-in-cameroon/news-story/e8964a7e0b3355f0aaf19087cd9be0b8?nk=f5d0a714aeafa78fa6c3820f326b8a35-1541440995"}, {"ID": 800212585, "Actor1": "ARMED MEN", "Actor1_Country": null, "Actor2": "GOVERNMENT OFFICIAL", "Actor2_Country": null, "Code": 10, "Class": 1, "Action_Location": "France", "Lat": 46.0, "Long": 2.0, "Timestamp": 20181105181500, "Source": "https://www.wral.com/79-students-kidnapped-from-boarding-school-in-cameroon-official-says/17971768/"}, {"ID": 800212586, "Actor1": "GUNMAN", "Actor1_Country": null, "Actor2": "YOGA", "Actor2_Country": null, "Code": 190, "Class": 4, "Action_Location": "United States", "Lat": 39.828175, "Long": -98.5795, "Timestamp": 20181105181500, "Source": "https://wtvr.com/2018/11/05/yoga-studio-shooting-survivor-says-he-fought-off-the-gunman-with-a-vacuum-and-a-broom/"}, {"ID": 800212591, "Actor1": "GUNMAN", "Actor1_Country": null, "Actor2": "UNITED STATES", "Actor2_Country": "USA", "Code": 40, "Class": 1, "Action_Location": "United States", "Lat": 39.828175, "Long": -98.5795, "Timestamp": 20181105181500, "Source": "https://wtvr.com/2018/11/05/yoga-studio-shooting-survivor-says-he-fought-off-the-gunman-with-a-vacuum-and-a-broom/"}, {"ID": 800212592, "Actor1": "MILITIA", "Actor1_Country": null, "Actor2": "NEW MEXICO", "Actor2_Country": "USA", "Code": 42, "Class": 1, "Action_Location": "Pancho Villa, Chihuahua, Mexico", "Lat": 30.7833, "Long": -108.633, "Timestamp": 20181105181500, "Source": "https://www.sfgate.com/news/article/Militia-members-arrive-at-New-Mexico-border-town-13363902.php"}, {"ID": 800212593, "Actor1": "MILITIA", "Actor1_Country": null, "Actor2": "NEW MEXICO", "Actor2_Country": "USA", "Code": 42, "Class": 1, "Action_Location": "Albuquerque, New Mexico, United States", "Lat": 35.0845, "Long": -106.651, "Timestamp": 20181105181500, "Source": "https://www.sfgate.com/news/article/Militia-members-arrive-at-New-Mexico-border-town-13363902.php"}, {"ID": 800212595, "Actor1": "UKRAINE", "Actor1_Country": "UKR", "Actor2": "HOSPITAL", "Actor2_Country": null, "Code": 190, "Class": 4, "Action_Location": "Kiev, Ukraine (general), Ukraine", "Lat": 50.4333, "Long": 30.5167, "Timestamp": 20181105181500, "Source": "https://www.nytimes.com/2018/11/05/world/europe/kateryna-handziuk-dies-ukraine.html"}, {"ID": 800212596, "Actor1": "UKRAINE", "Actor1_Country": "UKR", "Actor2": "MEMBER OF PARLIAMENT", "Actor2_Country": null, "Code": 10, "Class": 1, "Action_Location": "Kiev, Ukraine (general), Ukraine", "Lat": 50.4333, "Long": 30.5167, "Timestamp": 20181105181500, "Source": "https://www.nytimes.com/2018/11/05/world/europe/kateryna-handziuk-dies-ukraine.html"}, {"ID": 800212597, "Actor1": "UKRAINE", "Actor1_Country": "UKR", "Actor2": "PROTESTER", "Actor2_Country": null, "Code": 42, "Class": 1, "Action_Location": "Kiev, Ukraine (general), Ukraine", "Lat": 50.4333, "Long": 30.5167, "Timestamp": 20181105181500, "Source": "https://www.nytimes.com/2018/11/05/world/europe/kateryna-handziuk-dies-ukraine.html"}, {"ID": 800212598, "Actor1": "UKRAINIAN", "Actor1_Country": "UKR", "Actor2": "ACTIVIST", "Actor2_Country": null, "Code": 101, "Class": 3, "Action_Location": "Kiev, Ukraine (general), Ukraine", "Lat": 50.4333, "Long": 30.5167, "Timestamp": 20181105181500, "Source": "https://www.nytimes.com/2018/11/05/world/europe/kateryna-handziuk-dies-ukraine.html"}, {"ID": 800212599, "Actor1": "UKRAINE", "Actor1_Country": "UKR", "Actor2": "PROTESTER", "Actor2_Country": null, "Code": 1014, "Class": 3, "Action_Location": "Kiev, Ukraine (general), Ukraine", "Lat": 50.4333, "Long": 30.5167, "Timestamp": 20181105181500, "Source": "https://www.nytimes.com/2018/11/05/world/europe/kateryna-handziuk-dies-ukraine.html"}, {"ID": 800212600, "Actor1": "UKRAINE", "Actor1_Country": "UKR", "Actor2": "UKRAINE", "Actor2_Country": "UKR", "Code": 180, "Class": 4, "Action_Location": "Kherson, Khersons'ka Oblast', Ukraine", "Lat": 46.6558, "Long": 32.6178, "Timestamp": 20181105181500, "Source": "https://www.nytimes.com/2018/11/05/world/europe/kateryna-handziuk-dies-ukraine.html"}, {"ID": 800212601, "Actor1": "UKRAINE", "Actor1_Country": "UKR", "Actor2": "UKRAINE", "Actor2_Country": "UKR", "Code": 180, "Class": 4, "Action_Location": "Kherson, Khersons'ka Oblast', Ukraine", "Lat": 46.6558, "Long": 32.6178, "Timestamp": 20181105181500, "Source": "https://www.nytimes.com/2018/11/05/world/europe/kateryna-handziuk-dies-ukraine.html"}, {"ID": 800212602, "Actor1": "UKRAINIAN", "Actor1_Country": "UKR", "Actor2": "ACTIVIST", "Actor2_Country": null, "Code": 101, "Class": 3, "Action_Location": "Kiev, Ukraine (general), Ukraine", "Lat": 50.4333, "Long": 30.5167, "Timestamp": 20181105181500, "Source": "https://www.nytimes.com/2018/11/05/world/europe/kateryna-handziuk-dies-ukraine.html"}, {"ID": 800212706, "Actor1": "UNITED STATES", "Actor1_Country": "USA", "Actor2": "BANK", "Actor2_Country": null, "Code": 10, "Class": 1, "Action_Location": "Delaware, United States", "Lat": 39.3498, "Long": -75.5148, "Timestamp": 20181105181500, "Source": "https://www.marketwatch.com/press-release/santander-bank-opens-first-branch-in-flushing-neighborhood-of-queens-2018-11-05"}, {"ID": 800212709, "Actor1": "MICHIGAN", "Actor1_Country": "USA", "Actor2": "BUSINESS", "Actor2_Country": null, "Code": 42, "Class": 1, "Action_Location": "Michigan, United States", "Lat": 43.3504, "Long": -84.5603, "Timestamp": 20181105181500, "Source": "https://www.mlive.com/news/saginaw/index.ssf/2018/11/mid-michigan_businesses_host_j.html"}, {"ID": 800212716, "Actor1": "UNITED STATES", "Actor1_Country": "USA", "Actor2": "CHINA", "Actor2_Country": "CHN", "Code": 14, "Class": 1, "Action_Location": "Beijing, Beijing, China", "Lat": 39.9289, "Long": 116.388, "Timestamp": 20181105181500, "Source": "https://www.msn.com/en-us/news/world/update-4-chinas-xi-promises-to-raise-imports-amid-trade-row-with-us/ar-BBPlTss"}, {"ID": 800212718, "Actor1": "UNITED STATES", "Actor1_Country": "USA", "Actor2": "POLICE", "Actor2_Country": null, "Code": 13, "Class": 1, "Action_Location": "Lake Hallie, Wisconsin, United States", "Lat": 44.8758, "Long": -91.4407, "Timestamp": 20181105181500, "Source": "https://fox11online.com/news/state/official-intoxicated-driver-accused-of-killing-4"}, {"ID": 800212719, "Actor1": "UNITED STATES", "Actor1_Country": "USA", "Actor2": "POLICE", "Actor2_Country": null, "Code": 13, "Class": 1, "Action_Location": "Chippewa County, Wisconsin, United States", "Lat": 45.0666, "Long": -91.2668, "Timestamp": 20181105181500, "Source": "https://fox11online.com/news/state/official-intoxicated-driver-accused-of-killing-4"}, {"ID": 800212746, "Actor1": "UNITED STATES", "Actor1_Country": "USA", "Actor2": "CITIZEN", "Actor2_Country": null, "Code": 130, "Class": 3, "Action_Location": "Dar Es Salaam, Dar es Salaam, Tanzania", "Lat": -6.8, "Long": 39.2833, "Timestamp": 20181105181500, "Source": "http://news.trust.org/item/20181105170902-89mzy"}, {"ID": 800212747, "Actor1": "UNITED STATES", "Actor1_Country": "USA", "Actor2": "CITIZEN", "Actor2_Country": null, "Code": 130, "Class": 3, "Action_Location": "United States", "Lat": 39.828175, "Long": -98.5795, "Timestamp": 20181105181500, "Source": "http://news.trust.org/item/20181105170902-89mzy"}, {"ID": 800212774, "Actor1": "TAMPA", "Actor1_Country": "USA", "Actor2": "SCHOOL", "Actor2_Country": null, "Code": 51, "Class": 1, "Action_Location": "Tampa, Florida, United States", "Lat": 27.9475, "Long": -82.4584, "Timestamp": 20181105181500, "Source": "http://www.tampabay.com/opinion/editorials/editorial-tampa-bay-voters-can-make-a-difference-locally-and-beyond-20181105/"}, {"ID": 800212775, "Actor1": "TAMPA", "Actor1_Country": "USA", "Actor2": "SCHOOL", "Actor2_Country": null, "Code": 51, "Class": 1, "Action_Location": "Tampa, Florida, United States", "Lat": 27.9475, "Long": -82.4584, "Timestamp": 20181105181500, "Source": "http://www.tampabay.com/opinion/editorials/editorial-tampa-bay-voters-can-make-a-difference-locally-and-beyond-20181105/"}, {"ID": 800212778, "Actor1": "TAMPA", "Actor1_Country": "USA", "Actor2": "SCHOOL", "Actor2_Country": null, "Code": 71, "Class": 2, "Action_Location": "Tampa, Florida, United States", "Lat": 27.9475, "Long": -82.4584, "Timestamp": 20181105181500, "Source": "http://www.tampabay.com/opinion/editorials/editorial-tampa-bay-voters-can-make-a-difference-locally-and-beyond-20181105/"}, {"ID": 800212779, "Actor1": "TAMPA", "Actor1_Country": "USA", "Actor2": "SCHOOL", "Actor2_Country": null, "Code": 71, "Class": 2, "Action_Location": "Pasco County, Florida, United States", "Lat": 28.292, "Long": -82.4165, "Timestamp": 20181105181500, "Source": "http://www.tampabay.com/opinion/editorials/editorial-tampa-bay-voters-can-make-a-difference-locally-and-beyond-20181105/"}, {"ID": 800212780, "Actor1": "TAMPA", "Actor1_Country": "USA", "Actor2": "SCHOOL", "Actor2_Country": null, "Code": 71, "Class": 2, "Action_Location": "Tampa, Florida, United States", "Lat": 27.9475, "Long": -82.4584, "Timestamp": 20181105181500, "Source": "http://www.tampabay.com/opinion/editorials/editorial-tampa-bay-voters-can-make-a-difference-locally-and-beyond-20181105/"}, {"ID": 800212789, "Actor1": "BOSTON", "Actor1_Country": "USA", "Actor2": "SECRETARY OF STATE", "Actor2_Country": null, "Code": 14, "Class": 1, "Action_Location": "Massachusetts, United States", "Lat": 42.2373, "Long": -71.5314, "Timestamp": 20181105181500, "Source": "https://boston.cbslocal.com/2018/11/05/midterm-election-massachusetts-turnout-early-voting/"}, {"ID": 800212792, "Actor1": "MONTANA", "Actor1_Country": "USA", "Actor2": "PRESIDENT", "Actor2_Country": null, "Code": 42, "Class": 1, "Action_Location": "Glacier National Park, Montana, United States", "Lat": 48.6961, "Long": -113.807, "Timestamp": 20181105181500, "Source": "https://ktvq.com/news/montana-news/2018/11/05/vice-presidents-visit-tops-last-day-of-campaigning-in-montana/"}, {"ID": 800212796, "Actor1": "COLUMBUS", "Actor1_Country": "USA", "Actor2": "MAYOR", "Actor2_Country": null, "Code": 43, "Class": 1, "Action_Location": "Alabama, United States", "Lat": 32.799, "Long": -86.8073, "Timestamp": 20181105181500, "Source": "https://www.sfgate.com/news/article/Militia-members-arrive-at-New-Mexico-border-town-13363902.php"}, {"ID": 800212797, "Actor1": "SEATTLE", "Actor1_Country": "USA", "Actor2": "REGULATOR", "Actor2_Country": null, "Code": 43, "Class": 1, "Action_Location": "Singapore", "Lat": 1.366667, "Long": 103.8, "Timestamp": 20181105181500, "Source": "https://www.seattlepi.com/seattlenews/article/Singapore-Airlines-to-offer-longest-flight-Sea-Tac-13363815.php"}, {"ID": 800212798, "Actor1": "WASHINGTON", "Actor1_Country": "USA", "Actor2": "FOREIGN MINIST", "Actor2_Country": null, "Code": 50, "Class": 1, "Action_Location": "Tehran, Tehran, Iran", "Lat": 35.75, "Long": 51.5148, "Timestamp": 20181105181500, "Source": "https://www.business-standard.com/article/reuters/u-s-renews-iran-sanctions-grants-oil-waivers-to-india-seven-others-118110501464_1.html"}, {"ID": 800212807, "Actor1": "UNITED STATES", "Actor1_Country": "USA", "Actor2": "NURSE", "Actor2_Country": null, "Code": 10, "Class": 1, "Action_Location": "Massachusetts, United States", "Lat": 42.2373, "Long": -71.5314, "Timestamp": 20181105181500, "Source": "https://boston.cbslocal.com/2018/11/05/midterm-election-massachusetts-turnout-early-voting/"}, {"ID": 800212808, "Actor1": "COLUMBUS", "Actor1_Country": "USA", "Actor2": "HOSPITAL", "Actor2_Country": null, "Code": 42, "Class": 1, "Action_Location": "Columbus, Ohio, United States", "Lat": 39.9612, "Long": -82.9988, "Timestamp": 20181105181500, "Source": "https://myfox28columbus.com/news/local/80-year-old-man-hospitalized-after-car-fire-in-clintonville"}, {"ID": 800212817, "Actor1": "NEW YORK", "Actor1_Country": "USA", "Actor2": "BRINDISI", "Actor2_Country": "ITA", "Code": 190, "Class": 4, "Action_Location": "New York, United States", "Lat": 42.1497, "Long": -74.9384, "Timestamp": 20181105181500, "Source": "https://www.nhregister.com/news/article/Election-2018-What-to-watch-in-New-York-state-13363905.php"}, {"ID": 800212828, "Actor1": "UNITED STATES", "Actor1_Country": "USA", "Actor2": "JORDAN", "Actor2_Country": "JOR", "Code": 193, "Class": 4, "Action_Location": "Georgia, United States", "Lat": 32.9866, "Long": -83.6487, "Timestamp": 20181105181500, "Source": "https://heavy.com/news/2018/11/lucy-mcbath-jordan-davis/"}, {"ID": 800212833, "Actor1": "UNITED STATES", "Actor1_Country": "USA", "Actor2": "LEGISLATURE", "Actor2_Country": null, "Code": 10, "Class": 1, "Action_Location": "Maine, United States", "Lat": 44.6074, "Long": -69.3977, "Timestamp": 20181105181500, "Source": "https://bangordailynews.com/2018/11/05/politics/lepage-says-hes-going-to-retire-and-go-to-florida-when-he-leaves-office/"}, {"ID": 800212834, "Actor1": "UNITED STATES", "Actor1_Country": "USA", "Actor2": "LEGISLATURE", "Actor2_Country": null, "Code": 10, "Class": 1, "Action_Location": "Maine, United States", "Lat": 44.6074, "Long": -69.3977, "Timestamp": 20181105181500, "Source": "https://bangordailynews.com/2018/11/05/politics/lepage-says-hes-going-to-retire-and-go-to-florida-when-he-leaves-office/"}, {"ID": 800212835, "Actor1": "UNITED STATES", "Actor1_Country": "USA", "Actor2": "CONGRESSMAN", "Actor2_Country": null, "Code": 20, "Class": 1, "Action_Location": "East Greenbush, New York, United States", "Lat": 42.5909, "Long": -73.7018, "Timestamp": 20181105181500, "Source": "https://www.nhregister.com/news/article/Election-2018-What-to-watch-in-New-York-state-13363905.php"}, {"ID": 800212838, "Actor1": "UNITED STATES", "Actor1_Country": "USA", "Actor2": "SENATE", "Actor2_Country": null, "Code": 190, "Class": 4, "Action_Location": "White House, District of Columbia, United States", "Lat": 38.8951, "Long": -77.0364, "Timestamp": 20181105181500, "Source": "http://news.trust.org/item/20181105105810-26n3x"}, {"ID": 800212839, "Actor1": "UNITED STATES", "Actor1_Country": "USA", "Actor2": "LAWMAKER", "Actor2_Country": null, "Code": 190, "Class": 4, "Action_Location": "New York, United States", "Lat": 42.1497, "Long": -74.9384, "Timestamp": 20181105181500, "Source": "https://www.nhregister.com/news/article/Election-2018-What-to-watch-in-New-York-state-13363905.php"}, {"ID": 800212842, "Actor1": "UNITED STATES", "Actor1_Country": "USA", "Actor2": "JOURNALIST", "Actor2_Country": null, "Code": 10, "Class": 1, "Action_Location": "Georgia, United States", "Lat": 32.9866, "Long": -83.6487, "Timestamp": 20181105181500, "Source": "https://www.onenewspage.com/n/World/1zjaqpdk6d/Georgia-GOP-gov-candidate-Kemp-defends-vote-hacking.htm"}, {"ID": 800212847, "Actor1": "UNITED STATES", "Actor1_Country": "USA", "Actor2": "MEXICO", "Actor2_Country": "MEX", "Code": 42, "Class": 1, "Action_Location": "Mumbai, Maharashtra, India", "Lat": 18.975, "Long": 72.8258, "Timestamp": 20181105181500, "Source": "https://www.business-standard.com/article/news-ani/priyanka-chopra-s-super-fun-bachelorette-party-118110501457_1.html"}, {"ID": 800212848, "Actor1": "UNITED STATES", "Actor1_Country": "USA", "Actor2": "MEXICO", "Actor2_Country": "MEX", "Code": 42, "Class": 1, "Action_Location": "Mexico", "Lat": 23.0, "Long": -102.0, "Timestamp": 20181105181500, "Source": "https://www.business-standard.com/article/news-ani/priyanka-chopra-s-super-fun-bachelorette-party-118110501457_1.html"}, {"ID": 800212849, "Actor1": "CALIFORNIA", "Actor1_Country": "USA", "Actor2": "MEXICO", "Actor2_Country": "MEX", "Code": 42, "Class": 1, "Action_Location": "Mexico", "Lat": 23.0, "Long": -102.0, "Timestamp": 20181105181500, "Source": "https://www.business-standard.com/article/news-ani/priyanka-chopra-s-super-fun-bachelorette-party-118110501457_1.html"}, {"ID": 800212851, "Actor1": "UNITED STATES", "Actor1_Country": "USA", "Actor2": "ARMY", "Actor2_Country": null, "Code": 160, "Class": 4, "Action_Location": "Staten Island, New York, United States", "Lat": 40.5834, "Long": -74.1496, "Timestamp": 20181105181500, "Source": "https://www.nhregister.com/news/article/Election-2018-What-to-watch-in-New-York-state-13363905.php"}, {"ID": 800212852, "Actor1": "NEW YORK CITY", "Actor1_Country": "USA", "Actor2": "ARMY", "Actor2_Country": null, "Code": 160, "Class": 4, "Action_Location": "New York, United States", "Lat": 42.1497, "Long": -74.9384, "Timestamp": 20181105181500, "Source": "https://www.nhregister.com/news/article/Election-2018-What-to-watch-in-New-York-state-13363905.php"}, {"ID": 800212855, "Actor1": "UNITED STATES", "Actor1_Country": "USA", "Actor2": "NETFLIX", "Actor2_Country": "USA", "Code": 42, "Class": 1, "Action_Location": "New York, United States", "Lat": 42.1497, "Long": -74.9384, "Timestamp": 20181105181500, "Source": "http://www.thevalleydispatch.com/lifestyles/ci_32251317/amenities-cleanliness-matter-most-oh-and-bean-bag-chairs"}, {"ID": 800212856, "Actor1": "UNITED STATES", "Actor1_Country": "USA", "Actor2": "GOOGLE", "Actor2_Country": "USA", "Code": 36, "Class": 1, "Action_Location": "Washington, District of Columbia, United States", "Lat": 38.8951, "Long": -77.0364, "Timestamp": 20181105181500, "Source": "https://www.msn.com/en-us/news/world/update-4-chinas-xi-promises-to-raise-imports-amid-trade-row-with-us/ar-BBPlTss"}, {"ID": 800212860, "Actor1": "UNITED STATES", "Actor1_Country": "USA", "Actor2": "DEMOCRATIC PARTY", "Actor2_Country": null, "Code": 110, "Class": 3, "Action_Location": "North Carolina, United States", "Lat": 35.6411, "Long": -79.8431, "Timestamp": 20181105181500, "Source": "https://www.mcclatchydc.com/news/politics-government/election/midterms/article221142460.html"}, {"ID": 800212874, "Actor1": "UNITED STATES", "Actor1_Country": "USA", "Actor2": "GUNMAN", "Actor2_Country": null, "Code": 40, "Class": 1, "Action_Location": "United States", "Lat": 39.828175, "Long": -98.5795, "Timestamp": 20181105181500, "Source": "https://wtvr.com/2018/11/05/yoga-studio-shooting-survivor-says-he-fought-off-the-gunman-with-a-vacuum-and-a-broom/"}, {"ID": 800212875, "Actor1": "NEW MEXICO", "Actor1_Country": "USA", "Actor2": "MILITIA", "Actor2_Country": null, "Code": 43, "Class": 1, "Action_Location": "Palomas, Hidalgo, Mexico", "Lat": 21.0806, "Long": -99.0236, "Timestamp": 20181105181500, "Source": "https://www.sfgate.com/news/article/Militia-members-arrive-at-New-Mexico-border-town-13363902.php"}, {"ID": 800212894, "Actor1": "UNITED STATES", "Actor1_Country": "USA", "Actor2": "BARACK OBAMA", "Actor2_Country": "USA", "Code": 20, "Class": 1, "Action_Location": "Missouri, United States", "Lat": 38.4623, "Long": -92.302, "Timestamp": 20181105181500, "Source": "http://news.trust.org/item/20181105105810-26n3x"}, {"ID": 800212899, "Actor1": "WASHINGTON", "Actor1_Country": "USA", "Actor2": "UNITED STATES", "Actor2_Country": "USA", "Code": 50, "Class": 1, "Action_Location": "Tehran, Tehran, Iran", "Lat": 35.75, "Long": 51.5148, "Timestamp": 20181105181500, "Source": "https://www.business-standard.com/article/reuters/u-s-renews-iran-sanctions-grants-oil-waivers-to-india-seven-others-118110501464_1.html"}, {"ID": 800212900, "Actor1": "UNITED STATES", "Actor1_Country": "USA", "Actor2": "OBAMA", "Actor2_Country": "USA", "Code": 51, "Class": 1, "Action_Location": "Springfield, Ohio, United States", "Lat": 39.9242, "Long": -83.8088, "Timestamp": 20181105181500, "Source": "http://news.trust.org/item/20181105105810-26n3x"}, {"ID": 800212901, "Actor1": "UNITED STATES", "Actor1_Country": "USA", "Actor2": "BARACK OBAMA", "Actor2_Country": "USA", "Code": 110, "Class": 3, "Action_Location": "Missouri, United States", "Lat": 38.4623, "Long": -92.302, "Timestamp": 20181105181500, "Source": "http://news.trust.org/item/20181105105810-26n3x"}, {"ID": 800212902, "Actor1": "CHICAGO", "Actor1_Country": "USA", "Actor2": "UNITED STATES", "Actor2_Country": "USA", "Code": 120, "Class": 3, "Action_Location": "New York, United States", "Lat": 42.1497, "Long": -74.9384, "Timestamp": 20181105181500, "Source": "http://www.startribune.com/chicago-mayor-drops-plan-to-sell-mural-worth-millions/499674951/"}, {"ID": 800212909, "Actor1": "UNITED STATES", "Actor1_Country": "USA", "Actor2": "UNITED STATES", "Actor2_Country": "USA", "Code": 40, "Class": 1, "Action_Location": "United States", "Lat": 39.828175, "Long": -98.5795, "Timestamp": 20181105181500, "Source": "https://wtvr.com/2018/11/05/yoga-studio-shooting-survivor-says-he-fought-off-the-gunman-with-a-vacuum-and-a-broom/"}, {"ID": 800212910, "Actor1": "UNITED STATES", "Actor1_Country": "USA", "Actor2": "VIETNAM", "Actor2_Country": "VNM", "Code": 141, "Class": 3, "Action_Location": "Vietnam, Republic Of", "Lat": 16.166667, "Long": 107.833333, "Timestamp": 20181105181500, "Source": "https://www.beaumontenterprise.com/news/article/Why-2018-may-be-the-most-important-election-of-13363907.php"}, {"ID": 800212911, "Actor1": "UNITED STATES", "Actor1_Country": "USA", "Actor2": "VIETNAM", "Actor2_Country": "VNM", "Code": 141, "Class": 3, "Action_Location": "Chicago, Illinois, United States", "Lat": 41.85, "Long": -87.6501, "Timestamp": 20181105181500, "Source": "https://www.beaumontenterprise.com/news/article/Why-2018-may-be-the-most-important-election-of-13363907.php"}, {"ID": 800212914, "Actor1": "NORTH DAKOTA", "Actor1_Country": "USA", "Actor2": "NATIVE AMERICAN", "Actor2_Country": null, "Code": 10, "Class": 1, "Action_Location": "North Dakota, United States", "Lat": 47.5362, "Long": -99.793, "Timestamp": 20181105181500, "Source": "https://www.esquire.com/news-politics/a24662536/2018-midterm-election-hack-voter-registration-systems/"}, {"ID": 800212925, "Actor1": "NEW YORK", "Actor1_Country": "USA", "Actor2": "NEW YORK", "Actor2_Country": "USA", "Code": 13, "Class": 1, "Action_Location": "New York, United States", "Lat": 42.1497, "Long": -74.9384, "Timestamp": 20181105181500, "Source": "http://www.startribune.com/chicago-mayor-drops-plan-to-sell-mural-worth-millions/499674951/"}, {"ID": 800212957, "Actor1": "BARACK OBAMA", "Actor1_Country": "USA", "Actor2": "GOVERNMENT", "Actor2_Country": null, "Code": 20, "Class": 1, "Action_Location": "Missouri, United States", "Lat": 38.4623, "Long": -92.302, "Timestamp": 20181105181500, "Source": "http://news.trust.org/item/20181105105810-26n3x"}, {"ID": 800212961, "Actor1": "THE WHITE HOUSE", "Actor1_Country": "USA", "Actor2": "SENATE", "Actor2_Country": null, "Code": 190, "Class": 4, "Action_Location": "White House, District of Columbia, United States", "Lat": 38.8951, "Long": -77.0364, "Timestamp": 20181105181500, "Source": "http://news.trust.org/item/20181105105810-26n3x"}, {"ID": 800212967, "Actor1": "OBAMA", "Actor1_Country": "USA", "Actor2": "UNITED STATES", "Actor2_Country": "USA", "Code": 20, "Class": 1, "Action_Location": "Texas, United States", "Lat": 31.106, "Long": -97.6475, "Timestamp": 20181105181500, "Source": "https://www.myjoyonline.com/world/2018/November-5th/frantic-final-day-for-us-mid-term-campaign.php"}, {"ID": 800212989, "Actor1": "UNITED STATES", "Actor1_Country": "USA", "Actor2": "UNITED STATES", "Actor2_Country": "USA", "Code": 20, "Class": 1, "Action_Location": "East Greenbush, New York, United States", "Lat": 42.5909, "Long": -73.7018, "Timestamp": 20181105181500, "Source": "https://www.nhregister.com/news/article/Election-2018-What-to-watch-in-New-York-state-13363905.php"}, {"ID": 800212990, "Actor1": "NEW YORK STATE", "Actor1_Country": "USA", "Actor2": "NEW YORK", "Actor2_Country": "USA", "Code": 40, "Class": 1, "Action_Location": "White House, District of Columbia, United States", "Lat": 38.8951, "Long": -77.0364, "Timestamp": 20181105181500, "Source": "https://www.nhregister.com/news/article/Election-2018-What-to-watch-in-New-York-state-13363905.php"}, {"ID": 800213006, "Actor1": "UNITED STATES", "Actor1_Country": "USA", "Actor2": "UNITED STATES", "Actor2_Country": "USA", "Code": 40, "Class": 1, "Action_Location": "United States", "Lat": 39.828175, "Long": -98.5795, "Timestamp": 20181105181500, "Source": "https://wtvr.com/2018/11/05/yoga-studio-shooting-survivor-says-he-fought-off-the-gunman-with-a-vacuum-and-a-broom/"}, {"ID": 800213007, "Actor1": "UNITED STATES", "Actor1_Country": "USA", "Actor2": "UNITED STATES", "Actor2_Country": "USA", "Code": 190, "Class": 4, "Action_Location": "United States", "Lat": 39.828175, "Long": -98.5795, "Timestamp": 20181105181500, "Source": "https://wtvr.com/2018/11/05/yoga-studio-shooting-survivor-says-he-fought-off-the-gunman-with-a-vacuum-and-a-broom/"}]