[{"ID": 800032158, "Actor1": "PAKISTAN", "Actor1_Country": "PAK", "Actor2": "AUTHORITIES", "Actor2_Country": null, "Code": 20, "Class": 1, "Action_Location": "Arif Abbasi, Sindh, Pakistan", "Lat": 24.3891, "Long": 68.1458, "Timestamp": 20181105014500, "Source": "https://www.thenews.com.pk/print/389762-10-year-record-of-projects-completed-in-rawalpindi-sought"}, {"ID": 800032169, "Actor1": "CRIMINAL", "Actor1_Country": null, "Actor2": "UNITED STATES", "Actor2_Country": "USA", "Code": 20, "Class": 1, "Action_Location": "Iowa, United States", "Lat": 42.0046, "Long": -93.214, "Timestamp": 20181105014500, "Source": "https://www.dailymail.co.uk/wires/ap/article-6350001/GOP-chairman-refers-Kavanaugh-accuser-criminal-probe.html"}, {"ID": 800032170, "Actor1": "CRIMINAL", "Actor1_Country": null, "Actor2": "UNITED STATES", "Actor2_Country": "USA", "Code": 112, "Class": 3, "Action_Location": "Montana, United States", "Lat": 46.9048, "Long": -110.326, "Timestamp": 20181105014500, "Source": "https://www.dailymail.co.uk/wires/ap/article-6350001/GOP-chairman-refers-Kavanaugh-accuser-criminal-probe.html"}, {"ID": 800032183, "Actor1": "UNITED STATES", "Actor1_Country": "USA", "Actor2": "CRIMINAL", "Actor2_Country": null, "Code": 112, "Class": 3, "Action_Location": "Montana, United States", "Lat": 46.9048, "Long": -110.326, "Timestamp": 20181105014500, "Source": "https://www.dailymail.co.uk/wires/ap/article-6350001/GOP-chairman-refers-Kavanaugh-accuser-criminal-probe.html"}, {"ID": 800032185, "Actor1": "COLORADO", "Actor1_Country": "USA", "Actor2": "GOVERNOR", "Actor2_Country": null, "Code": 120, "Class": 3, "Action_Location": "Colorado, United States", "Lat": 39.0646, "Long": -105.327, "Timestamp": 20181105014500, "Source": "https://www.dailymail.co.uk/wires/ap/article-6349689/Health-care-Trump-diverse-stands-Colorado-hopefuls.html"}, {"ID": 800032195, "Actor1": "SECRETARY OF STATE", "Actor1_Country": null, "Actor2": "YEMEN", "Actor2_Country": "YEM", "Code": 256, "Class": 1, "Action_Location": "Sanaa, San\u0091a', Yemen", "Lat": 15.3547, "Long": 44.2067, "Timestamp": 20181105014500, "Source": "https://uk.reuters.com/article/uk-yemen-security-britain/britain-pushes-for-u-n-security-council-action-on-yemen-crisis-idUKKCN1NA01T"}, {"ID": 800032196, "Actor1": "SECRETARY OF STATE", "Actor1_Country": null, "Actor2": "YEMEN", "Actor2_Country": "YEM", "Code": 43, "Class": 1, "Action_Location": "Sanaa, San\u0091a', Yemen", "Lat": 15.3547, "Long": 44.2067, "Timestamp": 20181105014500, "Source": "https://uk.reuters.com/article/uk-yemen-security-britain/britain-pushes-for-u-n-security-council-action-on-yemen-crisis-idUKKCN1NA01T"}, {"ID": 800032204, "Actor1": "YEMEN", "Actor1_Country": "YEM", "Actor2": "SECRETARY OF STATE", "Actor2_Country": null, "Code": 42, "Class": 1, "Action_Location": "Sanaa, San\u0091a', Yemen", "Lat": 15.3547, "Long": 44.2067, "Timestamp": 20181105014500, "Source": "https://uk.reuters.com/article/uk-yemen-security-britain/britain-pushes-for-u-n-security-council-action-on-yemen-crisis-idUKKCN1NA01T"}, {"ID": 800032205, "Actor1": "YEMEN", "Actor1_Country": "YEM", "Actor2": "YEMEN", "Actor2_Country": "YEM", "Code": 42, "Class": 1, "Action_Location": "Sanaa, San\u0091a', Yemen", "Lat": 15.3547, "Long": 44.2067, "Timestamp": 20181105014500, "Source": "https://uk.reuters.com/article/uk-yemen-security-britain/britain-pushes-for-u-n-security-council-action-on-yemen-crisis-idUKKCN1NA01T"}, {"ID": 800032206, "Actor1": "YEMEN", "Actor1_Country": "YEM", "Actor2": "YEMEN", "Actor2_Country": "YEM", "Code": 256, "Class": 1, "Action_Location": "Sanaa, San\u0091a', Yemen", "Lat": 15.3547, "Long": 44.2067, "Timestamp": 20181105014500, "Source": "https://uk.reuters.com/article/uk-yemen-security-britain/britain-pushes-for-u-n-security-council-action-on-yemen-crisis-idUKKCN1NA01T"}, {"ID": 800032207, "Actor1": "YEMEN", "Actor1_Country": "YEM", "Actor2": "YEMEN", "Actor2_Country": "YEM", "Code": 43, "Class": 1, "Action_Location": "Sanaa, San\u0091a', Yemen", "Lat": 15.3547, "Long": 44.2067, "Timestamp": 20181105014500, "Source": "https://uk.reuters.com/article/uk-yemen-security-britain/britain-pushes-for-u-n-security-council-action-on-yemen-crisis-idUKKCN1NA01T"}, {"ID": 800032389, "Actor1": "AFGHAN", "Actor1_Country": "AFG", "Actor2": "ISLAMIC", "Actor2_Country": null, "Code": 10, "Class": 1, "Action_Location": "Afghanistan", "Lat": 33.0, "Long": 66.0, "Timestamp": 20181105014500, "Source": "https://www.dailymail.co.uk/wires/afp/article-6349269/Pakistan-buries-Father-Taliban-PM-orders-probe-killing.html"}, {"ID": 800032390, "Actor1": "AFGHANISTAN", "Actor1_Country": "AFG", "Actor2": "PAKISTANI", "Actor2_Country": "PAK", "Code": 12, "Class": 1, "Action_Location": "Afghanistan", "Lat": 33.0, "Long": 66.0, "Timestamp": 20181105014500, "Source": "https://www.dailymail.co.uk/wires/afp/article-6349269/Pakistan-buries-Father-Taliban-PM-orders-probe-killing.html"}, {"ID": 800032391, "Actor1": "AFGHANISTAN", "Actor1_Country": "AFG", "Actor2": "PAKISTANI", "Actor2_Country": "PAK", "Code": 12, "Class": 1, "Action_Location": "Afghanistan", "Lat": 33.0, "Long": 66.0, "Timestamp": 20181105014500, "Source": "https://www.dailymail.co.uk/wires/afp/article-6349269/Pakistan-buries-Father-Taliban-PM-orders-probe-killing.html"}, {"ID": 800032393, "Actor1": "AFGHANISTAN", "Actor1_Country": "AFG", "Actor2": "PAKISTANI", "Actor2_Country": "PAK", "Code": 164, "Class": 4, "Action_Location": "Afghanistan", "Lat": 33.0, "Long": 66.0, "Timestamp": 20181105014500, "Source": "https://www.dailymail.co.uk/wires/afp/article-6349269/Pakistan-buries-Father-Taliban-PM-orders-probe-killing.html"}, {"ID": 800032394, "Actor1": "AFGHANISTAN", "Actor1_Country": "AFG", "Actor2": "PAKISTANI", "Actor2_Country": "PAK", "Code": 164, "Class": 4, "Action_Location": "Afghanistan", "Lat": 33.0, "Long": 66.0, "Timestamp": 20181105014500, "Source": "https://www.dailymail.co.uk/wires/afp/article-6349269/Pakistan-buries-Father-Taliban-PM-orders-probe-killing.html"}, {"ID": 800032395, "Actor1": "AFGHAN", "Actor1_Country": "AFG", "Actor2": "UNITED STATES", "Actor2_Country": "USA", "Code": 193, "Class": 4, "Action_Location": "Utah, United States", "Lat": 40.1135, "Long": -111.854, "Timestamp": 20181105014500, "Source": "https://www.northcountrypublicradio.org/news/npr/664198091/a-utah-town-remembers-its-mayor-killed-in-action-in-afghanistan"}, {"ID": 800032397, "Actor1": "AFGHANISTAN", "Actor1_Country": "AFG", "Actor2": "UNITED STATES", "Actor2_Country": "USA", "Code": 190, "Class": 4, "Action_Location": "Utah, United States", "Lat": 40.1135, "Long": -111.854, "Timestamp": 20181105014500, "Source": "https://www.northcountrypublicradio.org/news/npr/664198091/a-utah-town-remembers-its-mayor-killed-in-action-in-afghanistan"}, {"ID": 800032402, "Actor1": "AFRICA", "Actor1_Country": "AFR", "Actor2": "CAMEROON", "Actor2_Country": "CMR", "Code": 43, "Class": 1, "Action_Location": "Nkolo, Centre, Cameroon", "Lat": 4.41667, "Long": 11.4167, "Timestamp": 20181105014500, "Source": "http://usa.chinadaily.com.cn/a/201811/05/WS5bdf98eca310eff3032867aa.html"}, {"ID": 800032403, "Actor1": "AFRICA", "Actor1_Country": "AFR", "Actor2": "CAMEROON", "Actor2_Country": "CMR", "Code": 43, "Class": 1, "Action_Location": "Nkolo, Centre, Cameroon", "Lat": 4.41667, "Long": 11.4167, "Timestamp": 20181105014500, "Source": "http://usa.chinadaily.com.cn/a/201811/05/WS5bdf98eca310eff3032867aa.html"}, {"ID": 800032404, "Actor1": "AFRICA", "Actor1_Country": "AFR", "Actor2": "DEPUTY", "Actor2_Country": null, "Code": 43, "Class": 1, "Action_Location": "Nkolo, Centre, Cameroon", "Lat": 4.41667, "Long": 11.4167, "Timestamp": 20181105014500, "Source": "http://usa.chinadaily.com.cn/a/201811/05/WS5bdf98eca310eff3032867aa.html"}, {"ID": 800032405, "Actor1": "AFRICA", "Actor1_Country": "AFR", "Actor2": "DEPUTY", "Actor2_Country": null, "Code": 43, "Class": 1, "Action_Location": "Nkolo, Centre, Cameroon", "Lat": 4.41667, "Long": 11.4167, "Timestamp": 20181105014500, "Source": "http://usa.chinadaily.com.cn/a/201811/05/WS5bdf98eca310eff3032867aa.html"}, {"ID": 800032422, "Actor1": "UNITED ARAB EMIRATES", "Actor1_Country": "ARE", "Actor2": "PAKISTAN", "Actor2_Country": "PAK", "Code": 60, "Class": 2, "Action_Location": "Beijing, Beijing, China", "Lat": 39.9289, "Long": 116.388, "Timestamp": 20181105014500, "Source": "https://nationalinterest.org/feature/pakistan%E2%80%99s-imran-khan-heads-china-major-implications-belt-and-road-initiative-34897"}, {"ID": 800032423, "Actor1": "UNITED ARAB EMIRATES", "Actor1_Country": "ARE", "Actor2": "PAKISTAN", "Actor2_Country": "PAK", "Code": 60, "Class": 2, "Action_Location": "Beijing, Beijing, China", "Lat": 39.9289, "Long": 116.388, "Timestamp": 20181105014500, "Source": "https://nationalinterest.org/feature/pakistan%E2%80%99s-imran-khan-heads-china-major-implications-belt-and-road-initiative-34897"}, {"ID": 800032455, "Actor1": "AUSTRALIA", "Actor1_Country": "AUS", "Actor2": "AUSTRALIA", "Actor2_Country": "AUS", "Code": 13, "Class": 1, "Action_Location": "Australia", "Lat": -25.0, "Long": 135.0, "Timestamp": 20181105014500, "Source": "https://www.abc.net.au/news/2018-11-05/china-claims-free-trade-push-amid-us-trade-war-pressure/10464848"}, {"ID": 800032456, "Actor1": "AUSTRALIA", "Actor1_Country": "AUS", "Actor2": "AUSTRALIA", "Actor2_Country": "AUS", "Code": 14, "Class": 1, "Action_Location": "Marulan, New South Wales, Australia", "Lat": -34.7084, "Long": 150.01, "Timestamp": 20181105014500, "Source": "https://www.goulburnpost.com.au/story/5732620/new-village-centre-for-marulan/"}, {"ID": 800032457, "Actor1": "AUSTRALIA", "Actor1_Country": "AUS", "Actor2": "AUSTRALIA", "Actor2_Country": "AUS", "Code": 14, "Class": 1, "Action_Location": "Marulan, New South Wales, Australia", "Lat": -34.7084, "Long": 150.01, "Timestamp": 20181105014500, "Source": "https://www.goulburnpost.com.au/story/5732620/new-village-centre-for-marulan/"}, {"ID": 800032458, "Actor1": "AUSTRALIA", "Actor1_Country": "AUS", "Actor2": "AUSTRALIA", "Actor2_Country": "AUS", "Code": 14, "Class": 1, "Action_Location": "Sydney, New South Wales, Australia", "Lat": -33.8833, "Long": 151.217, "Timestamp": 20181105014500, "Source": "https://www.goulburnpost.com.au/story/5732620/new-village-centre-for-marulan/"}, {"ID": 800032461, "Actor1": "AUSTRALIA", "Actor1_Country": "AUS", "Actor2": "CHINA", "Actor2_Country": "CHN", "Code": 36, "Class": 1, "Action_Location": "Beijing, Beijing, China", "Lat": 39.9289, "Long": 116.388, "Timestamp": 20181105014500, "Source": "https://www.abc.net.au/news/2018-11-05/china-claims-free-trade-push-amid-us-trade-war-pressure/10464848"}, {"ID": 800032462, "Actor1": "AUSTRALIAN", "Actor1_Country": "AUS", "Actor2": "CHINA", "Actor2_Country": "CHN", "Code": 12, "Class": 1, "Action_Location": "Beijing, Beijing, China", "Lat": 39.9289, "Long": 116.388, "Timestamp": 20181105014500, "Source": "https://www.abc.net.au/news/2018-11-05/china-claims-free-trade-push-amid-us-trade-war-pressure/10464848"}, {"ID": 800032463, "Actor1": "AUSTRALIAN", "Actor1_Country": "AUS", "Actor2": "CHINA", "Actor2_Country": "CHN", "Code": 12, "Class": 1, "Action_Location": "Australia", "Lat": -25.0, "Long": 135.0, "Timestamp": 20181105014500, "Source": "https://www.abc.net.au/news/2018-11-05/china-claims-free-trade-push-amid-us-trade-war-pressure/10464848"}, {"ID": 800032464, "Actor1": "AUSTRALIA", "Actor1_Country": "AUS", "Actor2": "VOTER", "Actor2_Country": null, "Code": 14, "Class": 1, "Action_Location": "Sydney, New South Wales, Australia", "Lat": -33.8833, "Long": 151.217, "Timestamp": 20181105014500, "Source": "https://www.bordermail.com.au/story/5739143/phelps-confirmed-as-new-wentworth-mp/?cs=9676"}, {"ID": 800032467, "Actor1": "AUSTRALIAN", "Actor1_Country": "AUS", "Actor2": "PRESIDENT", "Actor2_Country": null, "Code": 192, "Class": 4, "Action_Location": "Sydney, New South Wales, Australia", "Lat": -33.8833, "Long": 151.217, "Timestamp": 20181105014500, "Source": "https://www.bordermail.com.au/story/5739143/phelps-confirmed-as-new-wentworth-mp/?cs=9676"}, {"ID": 800032474, "Actor1": "AUSTRALIA", "Actor1_Country": "AUS", "Actor2": "THAILAND", "Actor2_Country": "THA", "Code": 51, "Class": 1, "Action_Location": "Marree, South Australia, Australia", "Lat": -29.65, "Long": 138.067, "Timestamp": 20181105014500, "Source": "https://www.stockjournal.com.au/story/5739354/rural-health-ambassador-receives-state-honour/"}, {"ID": 800032475, "Actor1": "AUSTRALIA", "Actor1_Country": "AUS", "Actor2": "THAILAND", "Actor2_Country": "THA", "Code": 51, "Class": 1, "Action_Location": "Thailand", "Lat": 15.0, "Long": 100.0, "Timestamp": 20181105014500, "Source": "https://www.stockjournal.com.au/story/5739354/rural-health-ambassador-receives-state-honour/"}, {"ID": 800032476, "Actor1": "AUSTRALIA", "Actor1_Country": "AUS", "Actor2": "THAILAND", "Actor2_Country": "THA", "Code": 73, "Class": 2, "Action_Location": "Marree, South Australia, Australia", "Lat": -29.65, "Long": 138.067, "Timestamp": 20181105014500, "Source": "https://www.stockjournal.com.au/story/5739354/rural-health-ambassador-receives-state-honour/"}, {"ID": 800032478, "Actor1": "AUSTRALIAN", "Actor1_Country": "AUS", "Actor2": "CHINA", "Actor2_Country": "CHN", "Code": 12, "Class": 1, "Action_Location": "Beijing, Beijing, China", "Lat": 39.9289, "Long": 116.388, "Timestamp": 20181105014500, "Source": "https://www.abc.net.au/news/2018-11-05/china-claims-free-trade-push-amid-us-trade-war-pressure/10464848"}, {"ID": 800032479, "Actor1": "AUSTRALIA", "Actor1_Country": "AUS", "Actor2": "RESIDENTS", "Actor2_Country": null, "Code": 51, "Class": 1, "Action_Location": "Marulan, New South Wales, Australia", "Lat": -34.7084, "Long": 150.01, "Timestamp": 20181105014500, "Source": "https://www.goulburnpost.com.au/story/5732620/new-village-centre-for-marulan/"}, {"ID": 800032482, "Actor1": "AUSTRALIA", "Actor1_Country": "AUS", "Actor2": "AUSTRALIA", "Actor2_Country": "AUS", "Code": 51, "Class": 1, "Action_Location": "Marree, South Australia, Australia", "Lat": -29.65, "Long": 138.067, "Timestamp": 20181105014500, "Source": "https://www.stockjournal.com.au/story/5739354/rural-health-ambassador-receives-state-honour/"}, {"ID": 800032483, "Actor1": "AUSTRALIA", "Actor1_Country": "AUS", "Actor2": "AUSTRALIA", "Actor2_Country": "AUS", "Code": 192, "Class": 4, "Action_Location": "Sydney, New South Wales, Australia", "Lat": -33.8833, "Long": 151.217, "Timestamp": 20181105014500, "Source": "https://www.bordermail.com.au/story/5739143/phelps-confirmed-as-new-wentworth-mp/?cs=9676"}, {"ID": 800032484, "Actor1": "AUSTRALIA", "Actor1_Country": "AUS", "Actor2": "AUSTRALIAN", "Actor2_Country": "AUS", "Code": 51, "Class": 1, "Action_Location": "Marree, South Australia, Australia", "Lat": -29.65, "Long": 138.067, "Timestamp": 20181105014500, "Source": "https://www.stockjournal.com.au/story/5739354/rural-health-ambassador-receives-state-honour/"}, {"ID": 800032497, "Actor1": "BELGIUM", "Actor1_Country": "BEL", "Actor2": "UNITED KINGDOM", "Actor2_Country": "GBR", "Code": 43, "Class": 1, "Action_Location": "Dendermonde, Region Flamande, Belgium", "Lat": 51.0287, "Long": 4.10106, "Timestamp": 20181105014500, "Source": "https://www.bbc.co.uk/news/uk-england-leeds-46018891"}, {"ID": 800032498, "Actor1": "BELGIUM", "Actor1_Country": "BEL", "Actor2": "UNITED KINGDOM", "Actor2_Country": "GBR", "Code": 43, "Class": 1, "Action_Location": "Yorkshire, North Yorkshire, United Kingdom", "Lat": 54.0, "Long": -1.5, "Timestamp": 20181105014500, "Source": "https://www.bbc.co.uk/news/uk-england-leeds-46018891"}, {"ID": 800032502, "Actor1": "BELGIUM", "Actor1_Country": "BEL", "Actor2": "HOSPITAL", "Actor2_Country": null, "Code": 43, "Class": 1, "Action_Location": "East Flanders, Region Flamande, Belgium", "Lat": 51.0, "Long": 3.75, "Timestamp": 20181105014500, "Source": "https://www.bbc.co.uk/news/uk-england-leeds-46018891"}, {"ID": 800032530, "Actor1": "COMPANY", "Actor1_Country": null, "Actor2": "SHANGHAI", "Actor2_Country": "CHN", "Code": 33, "Class": 1, "Action_Location": "Shanghai, Shanghai, China", "Lat": 31.2222, "Long": 121.458, "Timestamp": 20181105014500, "Source": "http://en.ce.cn/main/latest/201811/05/t20181105_30703062.shtml"}, {"ID": 800032533, "Actor1": "COMPANY", "Actor1_Country": null, "Actor2": "HUNTER", "Actor2_Country": null, "Code": 190, "Class": 4, "Action_Location": "Toronto, Ontario, Canada", "Lat": 43.6667, "Long": -79.4167, "Timestamp": 20181105014500, "Source": "https://www.theherald.com.au/story/5738441/tax-agent-jailed-to-appeal/"}, {"ID": 800032534, "Actor1": "INDUSTRY", "Actor1_Country": null, "Actor2": "GOVERNMENT", "Actor2_Country": null, "Code": 12, "Class": 1, "Action_Location": "Sydney, New South Wales, Australia", "Lat": -33.8833, "Long": 151.217, "Timestamp": 20181105014500, "Source": "https://www.smh.com.au/business/banking-and-finance/devil-in-the-detail-the-worry-about-westpac-s-results-20181105-p50e12.html"}, {"ID": 800032537, "Actor1": "COMPANY", "Actor1_Country": null, "Actor2": "WEBSITE", "Actor2_Country": null, "Code": 10, "Class": 1, "Action_Location": "United States", "Lat": 39.828175, "Long": -98.5795, "Timestamp": 20181105014500, "Source": "https://www.dailypolitical.com/2018/11/04/15-92-billion-in-sales-expected-for-archer-daniels-midland-co-adm-this-quarter.html"}, {"ID": 800032540, "Actor1": "BANK", "Actor1_Country": null, "Actor2": "NEW ZEALAND", "Actor2_Country": "NZL", "Code": 90, "Class": 2, "Action_Location": "Wellington, New Zealand (general), New Zealand", "Lat": -41.3, "Long": 174.783, "Timestamp": 20181105014500, "Source": "https://www.nzherald.co.nz/business/news/article.cfm?c_id=3&objectid=12154769"}, {"ID": 800032542, "Actor1": "COMPANY", "Actor1_Country": null, "Actor2": "UNITED STATES", "Actor2_Country": "USA", "Code": 10, "Class": 1, "Action_Location": "Denver, Colorado, United States", "Lat": 39.7392, "Long": -104.985, "Timestamp": 20181105014500, "Source": "https://www.beaumontenterprise.com/news/world/article/New-Orleans-restaurateur-aims-for-inclusivity-in-13361571.php"}, {"ID": 800032560, "Actor1": "TORONTO", "Actor1_Country": "CAN", "Actor2": "DISTRICT COURT", "Actor2_Country": null, "Code": 20, "Class": 1, "Action_Location": "Toronto, Ontario, Canada", "Lat": 43.6667, "Long": -79.4167, "Timestamp": 20181105014500, "Source": "https://www.theherald.com.au/story/5738441/tax-agent-jailed-to-appeal/"}, {"ID": 800032561, "Actor1": "TORONTO", "Actor1_Country": "CAN", "Actor2": "DISTRICT COURT", "Actor2_Country": null, "Code": 81, "Class": 2, "Action_Location": "Toronto, Ontario, Canada", "Lat": 43.6667, "Long": -79.4167, "Timestamp": 20181105014500, "Source": "https://www.theherald.com.au/story/5738441/tax-agent-jailed-to-appeal/"}, {"ID": 800032565, "Actor1": "CANADA", "Actor1_Country": "CAN", "Actor2": "COMMUNITY", "Actor2_Country": null, "Code": 51, "Class": 1, "Action_Location": "Vancouver, British Columbia, Canada", "Lat": 49.25, "Long": -123.133, "Timestamp": 20181105014500, "Source": "https://nationalpost.com/pmn/news-pmn/canada-news-pmn/residents-of-b-c-community-displaced-by-slow-moving-landslide-can-return-home"}, {"ID": 800032566, "Actor1": "BASEL", "Actor1_Country": "CHE", "Actor2": "BANK", "Actor2_Country": null, "Code": 84, "Class": 2, "Action_Location": "India", "Lat": 20.0, "Long": 77.0, "Timestamp": 20181105014500, "Source": "https://economictimes.indiatimes.com/news/economy/policy/section-7-invoked-only-after-rbi-ignored-government-wish-list/articleshow/66504582.cms"}, {"ID": 800032577, "Actor1": "CHINA", "Actor1_Country": "CHN", "Actor2": "AUSTRALIA", "Actor2_Country": "AUS", "Code": 36, "Class": 1, "Action_Location": "Beijing, Beijing, China", "Lat": 39.9289, "Long": 116.388, "Timestamp": 20181105014500, "Source": "https://www.abc.net.au/news/2018-11-05/china-claims-free-trade-push-amid-us-trade-war-pressure/10464848"}, {"ID": 800032578, "Actor1": "CHINA", "Actor1_Country": "CHN", "Actor2": "AUSTRALIA", "Actor2_Country": "AUS", "Code": 36, "Class": 1, "Action_Location": "Beijing, Beijing, China", "Lat": 39.9289, "Long": 116.388, "Timestamp": 20181105014500, "Source": "https://www.abc.net.au/news/2018-11-05/china-claims-free-trade-push-amid-us-trade-war-pressure/10464848"}, {"ID": 800032579, "Actor1": "CHINA", "Actor1_Country": "CHN", "Actor2": "AUSTRALIA", "Actor2_Country": "AUS", "Code": 90, "Class": 2, "Action_Location": "Beijing, Beijing, China", "Lat": 39.9289, "Long": 116.388, "Timestamp": 20181105014500, "Source": "https://www.abc.net.au/news/2018-11-05/china-claims-free-trade-push-amid-us-trade-war-pressure/10464848"}, {"ID": 800032580, "Actor1": "CHINA", "Actor1_Country": "CHN", "Actor2": "CAMEROON", "Actor2_Country": "CMR", "Code": 43, "Class": 1, "Action_Location": "Lankao, Shaanxi, China", "Lat": 32.3003, "Long": 108.893, "Timestamp": 20181105014500, "Source": "http://usa.chinadaily.com.cn/a/201811/05/WS5bdf98eca310eff3032867aa.html"}, {"ID": 800032581, "Actor1": "CHINA", "Actor1_Country": "CHN", "Actor2": "CAMEROON", "Actor2_Country": "CMR", "Code": 43, "Class": 1, "Action_Location": "Nkolo, Centre, Cameroon", "Lat": 4.41667, "Long": 11.4167, "Timestamp": 20181105014500, "Source": "http://usa.chinadaily.com.cn/a/201811/05/WS5bdf98eca310eff3032867aa.html"}, {"ID": 800032582, "Actor1": "CHINA", "Actor1_Country": "CHN", "Actor2": "DEPUTY", "Actor2_Country": null, "Code": 42, "Class": 1, "Action_Location": "Hainan Province, Hainan, China", "Lat": 19.2, "Long": 109.6, "Timestamp": 20181105014500, "Source": "http://en.ce.cn/main/latest/201811/05/t20181105_30703062.shtml"}, {"ID": 800032583, "Actor1": "CANTON", "Actor1_Country": "CHN", "Actor2": "DEPUTY", "Actor2_Country": null, "Code": 43, "Class": 1, "Action_Location": "Shanghai, Shanghai, China", "Lat": 31.2222, "Long": 121.458, "Timestamp": 20181105014500, "Source": "http://en.ce.cn/main/latest/201811/05/t20181105_30703062.shtml"}, {"ID": 800032584, "Actor1": "BEIJING", "Actor1_Country": "CHN", "Actor2": "MINIST", "Actor2_Country": null, "Code": 43, "Class": 1, "Action_Location": "Beijing, Beijing, China", "Lat": 39.9289, "Long": 116.388, "Timestamp": 20181105014500, "Source": "https://www.abc.net.au/news/2018-11-05/china-claims-free-trade-push-amid-us-trade-war-pressure/10464848"}, {"ID": 800032591, "Actor1": "CHINESE", "Actor1_Country": "CHN", "Actor2": "SUPREME COURT", "Actor2_Country": null, "Code": 20, "Class": 1, "Action_Location": "Washington, District of Columbia, United States", "Lat": 38.8951, "Long": -77.0364, "Timestamp": 20181105014500, "Source": "https://www.dailymail.co.uk/wires/ap/article-6349291/AP-FACT-CHECK-Trumps-distortions-immigration.html"}, {"ID": 800032592, "Actor1": "CHINESE", "Actor1_Country": "CHN", "Actor2": "SUPREME COURT", "Actor2_Country": null, "Code": 20, "Class": 1, "Action_Location": "China", "Lat": 35.0, "Long": 105.0, "Timestamp": 20181105014500, "Source": "https://www.dailymail.co.uk/wires/ap/article-6349291/AP-FACT-CHECK-Trumps-distortions-immigration.html"}, {"ID": 800032593, "Actor1": "CHINESE", "Actor1_Country": "CHN", "Actor2": "SUPREME COURT", "Actor2_Country": null, "Code": 110, "Class": 3, "Action_Location": "Washington, District of Columbia, United States", "Lat": 38.8951, "Long": -77.0364, "Timestamp": 20181105014500, "Source": "https://www.dailymail.co.uk/wires/ap/article-6349291/AP-FACT-CHECK-Trumps-distortions-immigration.html"}, {"ID": 800032594, "Actor1": "CHINESE", "Actor1_Country": "CHN", "Actor2": "SUPREME COURT", "Actor2_Country": null, "Code": 110, "Class": 3, "Action_Location": "Washington, District of Columbia, United States", "Lat": 38.8951, "Long": -77.0364, "Timestamp": 20181105014500, "Source": "https://www.dailymail.co.uk/wires/ap/article-6349291/AP-FACT-CHECK-Trumps-distortions-immigration.html"}, {"ID": 800032595, "Actor1": "CHINESE", "Actor1_Country": "CHN", "Actor2": "SUPREME COURT", "Actor2_Country": null, "Code": 173, "Class": 4, "Action_Location": "Washington, District of Columbia, United States", "Lat": 38.8951, "Long": -77.0364, "Timestamp": 20181105014500, "Source": "https://www.dailymail.co.uk/wires/ap/article-6349291/AP-FACT-CHECK-Trumps-distortions-immigration.html"}, {"ID": 800032596, "Actor1": "CHINESE", "Actor1_Country": "CHN", "Actor2": "SUPREME COURT", "Actor2_Country": null, "Code": 173, "Class": 4, "Action_Location": "China", "Lat": 35.0, "Long": 105.0, "Timestamp": 20181105014500, "Source": "https://www.dailymail.co.uk/wires/ap/article-6349291/AP-FACT-CHECK-Trumps-distortions-immigration.html"}, {"ID": 800032598, "Actor1": "CHINA", "Actor1_Country": "CHN", "Actor2": "BORDER SECURITY", "Actor2_Country": null, "Code": 110, "Class": 3, "Action_Location": "China", "Lat": 35.0, "Long": 105.0, "Timestamp": 20181105014500, "Source": "https://www.dailymail.co.uk/wires/ap/article-6349379/Democrat-McCaskill-reaches-right-GOP-leaning-Missouri.html"}, {"ID": 800032600, "Actor1": "CHINA", "Actor1_Country": "CHN", "Actor2": "PAKISTANI", "Actor2_Country": "PAK", "Code": 43, "Class": 1, "Action_Location": "Beijing, Beijing, China", "Lat": 39.9289, "Long": 116.388, "Timestamp": 20181105014500, "Source": "https://nationalinterest.org/feature/pakistan%E2%80%99s-imran-khan-heads-china-major-implications-belt-and-road-initiative-34897"}, {"ID": 800032601, "Actor1": "CHINA", "Actor1_Country": "CHN", "Actor2": "PAKISTAN", "Actor2_Country": "PAK", "Code": 43, "Class": 1, "Action_Location": "Fujian, Fujian, China", "Lat": 26.545, "Long": 117.843, "Timestamp": 20181105014500, "Source": "http://usa.chinadaily.com.cn/a/201811/05/WS5bdf98eca310eff3032867aa.html"}, {"ID": 800032602, "Actor1": "CHINA", "Actor1_Country": "CHN", "Actor2": "PAKISTANI", "Actor2_Country": "PAK", "Code": 43, "Class": 1, "Action_Location": "Islamabad, Islamabad, Pakistan", "Lat": 33.7, "Long": 73.1667, "Timestamp": 20181105014500, "Source": "https://nationalinterest.org/feature/pakistan%E2%80%99s-imran-khan-heads-china-major-implications-belt-and-road-initiative-34897"}, {"ID": 800032603, "Actor1": "CHINA", "Actor1_Country": "CHN", "Actor2": "PAKISTAN", "Actor2_Country": "PAK", "Code": 43, "Class": 1, "Action_Location": "Pakistan", "Lat": 30.0, "Long": 70.0, "Timestamp": 20181105014500, "Source": "http://usa.chinadaily.com.cn/a/201811/05/WS5bdf98eca310eff3032867aa.html"}, {"ID": 800032604, "Actor1": "CHINA", "Actor1_Country": "CHN", "Actor2": "PAKISTANI", "Actor2_Country": "PAK", "Code": 43, "Class": 1, "Action_Location": "Beijing, Beijing, China", "Lat": 39.9289, "Long": 116.388, "Timestamp": 20181105014500, "Source": "https://nationalinterest.org/feature/pakistan%E2%80%99s-imran-khan-heads-china-major-implications-belt-and-road-initiative-34897"}, {"ID": 800032611, "Actor1": "BEIJING", "Actor1_Country": "CHN", "Actor2": "US OFFICIAL", "Actor2_Country": "USA", "Code": 190, "Class": 4, "Action_Location": "Beijing, Beijing, China", "Lat": 39.9289, "Long": 116.388, "Timestamp": 20181105014500, "Source": "https://www.abc.net.au/news/2018-11-05/china-claims-free-trade-push-amid-us-trade-war-pressure/10464848"}, {"ID": 800032614, "Actor1": "SHANGHAI", "Actor1_Country": "CHN", "Actor2": "NGUYEN XUAN PHUC", "Actor2_Country": "VNM", "Code": 43, "Class": 1, "Action_Location": "Shanghai, Shanghai, China", "Lat": 31.2222, "Long": 121.458, "Timestamp": 20181105014500, "Source": "https://www.vir.com.vn/pm-phuc-to-attend-china-trade-expo-63548.html"}, {"ID": 800032618, "Actor1": "CHINESE", "Actor1_Country": "CHN", "Actor2": "SUPREME COURT", "Actor2_Country": null, "Code": 20, "Class": 1, "Action_Location": "China", "Lat": 35.0, "Long": 105.0, "Timestamp": 20181105014500, "Source": "https://www.dailymail.co.uk/wires/ap/article-6349291/AP-FACT-CHECK-Trumps-distortions-immigration.html"}, {"ID": 800032619, "Actor1": "CHINESE", "Actor1_Country": "CHN", "Actor2": "SUPREME COURT", "Actor2_Country": null, "Code": 110, "Class": 3, "Action_Location": "China", "Lat": 35.0, "Long": 105.0, "Timestamp": 20181105014500, "Source": "https://www.dailymail.co.uk/wires/ap/article-6349291/AP-FACT-CHECK-Trumps-distortions-immigration.html"}, {"ID": 800032620, "Actor1": "CHINESE", "Actor1_Country": "CHN", "Actor2": "SUPREME COURT", "Actor2_Country": null, "Code": 173, "Class": 4, "Action_Location": "China", "Lat": 35.0, "Long": 105.0, "Timestamp": 20181105014500, "Source": "https://www.dailymail.co.uk/wires/ap/article-6349291/AP-FACT-CHECK-Trumps-distortions-immigration.html"}, {"ID": 800032626, "Actor1": "PRESBYTERIAN", "Actor1_Country": null, "Actor2": "UNITED STATES", "Actor2_Country": "USA", "Code": 51, "Class": 1, "Action_Location": "Illinois, United States", "Lat": 40.3363, "Long": -89.0022, "Timestamp": 20181105014500, "Source": "https://www.beaumontenterprise.com/news/article/8216-A-very-grand-gesture-8217-Elijah-P-13362320.php"}, {"ID": 800032627, "Actor1": "PRESBYTERIAN", "Actor1_Country": null, "Actor2": "MAINE", "Actor2_Country": "USA", "Code": 51, "Class": 1, "Action_Location": "Maine, United States", "Lat": 44.6074, "Long": -69.3977, "Timestamp": 20181105014500, "Source": "https://www.beaumontenterprise.com/news/article/8216-A-very-grand-gesture-8217-Elijah-P-13362320.php"}, {"ID": 800032630, "Actor1": "CAMEROON", "Actor1_Country": "CMR", "Actor2": "AFRICA", "Actor2_Country": "AFR", "Code": 42, "Class": 1, "Action_Location": "Fujian, Fujian, China", "Lat": 26.545, "Long": 117.843, "Timestamp": 20181105014500, "Source": "http://usa.chinadaily.com.cn/a/201811/05/WS5bdf98eca310eff3032867aa.html"}, {"ID": 800032631, "Actor1": "CAMEROON", "Actor1_Country": "CMR", "Actor2": "AFRICA", "Actor2_Country": "AFR", "Code": 42, "Class": 1, "Action_Location": "Nkolo, Centre, Cameroon", "Lat": 4.41667, "Long": 11.4167, "Timestamp": 20181105014500, "Source": "http://usa.chinadaily.com.cn/a/201811/05/WS5bdf98eca310eff3032867aa.html"}, {"ID": 800032632, "Actor1": "CAMEROON", "Actor1_Country": "CMR", "Actor2": "CHINA", "Actor2_Country": "CHN", "Code": 42, "Class": 1, "Action_Location": "Lankao, Shaanxi, China", "Lat": 32.3003, "Long": 108.893, "Timestamp": 20181105014500, "Source": "http://usa.chinadaily.com.cn/a/201811/05/WS5bdf98eca310eff3032867aa.html"}, {"ID": 800032633, "Actor1": "CAMEROON", "Actor1_Country": "CMR", "Actor2": "CHINA", "Actor2_Country": "CHN", "Code": 42, "Class": 1, "Action_Location": "Nkolo, Centre, Cameroon", "Lat": 4.41667, "Long": 11.4167, "Timestamp": 20181105014500, "Source": "http://usa.chinadaily.com.cn/a/201811/05/WS5bdf98eca310eff3032867aa.html"}, {"ID": 800032655, "Actor1": "DEPUTY", "Actor1_Country": null, "Actor2": "AFRICA", "Actor2_Country": "AFR", "Code": 42, "Class": 1, "Action_Location": "Nkolo, Centre, Cameroon", "Lat": 4.41667, "Long": 11.4167, "Timestamp": 20181105014500, "Source": "http://usa.chinadaily.com.cn/a/201811/05/WS5bdf98eca310eff3032867aa.html"}, {"ID": 800032656, "Actor1": "DEPUTY", "Actor1_Country": null, "Actor2": "AFRICA", "Actor2_Country": "AFR", "Code": 42, "Class": 1, "Action_Location": "Nkolo, Centre, Cameroon", "Lat": 4.41667, "Long": 11.4167, "Timestamp": 20181105014500, "Source": "http://usa.chinadaily.com.cn/a/201811/05/WS5bdf98eca310eff3032867aa.html"}, {"ID": 800032663, "Actor1": "POLICE", "Actor1_Country": null, "Actor2": "OTTAWA", "Actor2_Country": "CAN", "Code": 190, "Class": 4, "Action_Location": "Ottawa, Ontario, Canada", "Lat": 45.4167, "Long": -75.7, "Timestamp": 20181105014500, "Source": "https://www.siasat.com/news/plane-crashes-after-mid-air-collision-canada-1428062/"}, {"ID": 800032664, "Actor1": "DEPUTY", "Actor1_Country": null, "Actor2": "CANTON", "Actor2_Country": "CHN", "Code": 42, "Class": 1, "Action_Location": "Shanghai, Shanghai, China", "Lat": 31.2222, "Long": 121.458, "Timestamp": 20181105014500, "Source": "http://en.ce.cn/main/latest/201811/05/t20181105_30703062.shtml"}, {"ID": 800032665, "Actor1": "DEPUTY", "Actor1_Country": null, "Actor2": "CHINA", "Actor2_Country": "CHN", "Code": 43, "Class": 1, "Action_Location": "Shanghai, Shanghai, China", "Lat": 31.2222, "Long": 121.458, "Timestamp": 20181105014500, "Source": "http://en.ce.cn/main/latest/201811/05/t20181105_30703062.shtml"}, {"ID": 800032673, "Actor1": "POLICE", "Actor1_Country": null, "Actor2": "ATHENS", "Actor2_Country": "GRC", "Code": 190, "Class": 4, "Action_Location": "Athens, Attik\u00edR, Greece", "Lat": 37.9833, "Long": 23.7333, "Timestamp": 20181105014500, "Source": "https://www.dailymail.co.uk/wires/ap/article-6349847/Greek-police-arrest-man-ancient-column.html"}, {"ID": 800032676, "Actor1": "POLICE", "Actor1_Country": null, "Actor2": "SINGAPORE", "Actor2_Country": "SGP", "Code": 10, "Class": 1, "Action_Location": "Jurong, Singapore (general), Singapore", "Lat": 1.33417, "Long": 103.723, "Timestamp": 20181105014500, "Source": "https://www.thestar.com.my/news/regional/2018/11/05/security-guard-arrested-for-aggravated-outrage-of-modesty-against-resident/"}, {"ID": 800032677, "Actor1": "POLICE", "Actor1_Country": null, "Actor2": "UNITED STATES", "Actor2_Country": "USA", "Code": 173, "Class": 4, "Action_Location": "New York, United States", "Lat": 42.1497, "Long": -74.9384, "Timestamp": 20181105014500, "Source": "https://fox5sandiego.com/2018/11/04/brother-shares-legacy-of-sailor-shot-by-driver-he-stopped-to-help/"}, {"ID": 800032678, "Actor1": "POLICE", "Actor1_Country": null, "Actor2": "FLORIDA", "Actor2_Country": "USA", "Code": 180, "Class": 4, "Action_Location": "Volusia County, Florida, United States", "Lat": 29.0836, "Long": -81.2081, "Timestamp": 20181105014500, "Source": "https://www.dailymail.co.uk/wires/ap/article-6349343/Florida-teenager-charged-strangling-burying-mother.html"}, {"ID": 800032722, "Actor1": "HUNTER", "Actor1_Country": null, "Actor2": "COMPANY", "Actor2_Country": null, "Code": 173, "Class": 4, "Action_Location": "Toronto, Ontario, Canada", "Lat": 43.6667, "Long": -79.4167, "Timestamp": 20181105014500, "Source": "https://www.theherald.com.au/story/5738441/tax-agent-jailed-to-appeal/"}, {"ID": 800032723, "Actor1": "HUNTER", "Actor1_Country": null, "Actor2": "COMPANY", "Actor2_Country": null, "Code": 190, "Class": 4, "Action_Location": "Toronto, Ontario, Canada", "Lat": 43.6667, "Long": -79.4167, "Timestamp": 20181105014500, "Source": "https://www.theherald.com.au/story/5738441/tax-agent-jailed-to-appeal/"}, {"ID": 800032725, "Actor1": "VOTER", "Actor1_Country": null, "Actor2": "SCHOOL", "Actor2_Country": null, "Code": 43, "Class": 1, "Action_Location": "Florida, United States", "Lat": 27.8333, "Long": -81.717, "Timestamp": 20181105014500, "Source": "https://www.weisradio.com/through-their-eyes-18-year-old-first-time-voters-weigh-in-on-key-issues-facing-the-nation/"}, {"ID": 800032726, "Actor1": "VOTER", "Actor1_Country": null, "Actor2": "SCHOOL", "Actor2_Country": null, "Code": 43, "Class": 1, "Action_Location": "Florida, United States", "Lat": 27.8333, "Long": -81.717, "Timestamp": 20181105014500, "Source": "https://www.weisradio.com/through-their-eyes-18-year-old-first-time-voters-weigh-in-on-key-issues-facing-the-nation/"}, {"ID": 800032728, "Actor1": "VOTER", "Actor1_Country": null, "Actor2": "NEW CALEDONIA", "Actor2_Country": "FRA", "Code": 20, "Class": 1, "Action_Location": "Ouvea, New Caledonia (general), New Caledonia", "Lat": -20.5833, "Long": 166.583, "Timestamp": 20181105014500, "Source": "http://news.trust.org/item/20181104132042-81myp/"}, {"ID": 800032730, "Actor1": "MIGRANT", "Actor1_Country": null, "Actor2": "PRESIDENT", "Actor2_Country": null, "Code": 30, "Class": 1, "Action_Location": "Missouri, United States", "Lat": 38.4623, "Long": -92.302, "Timestamp": 20181105014500, "Source": "https://www.dailymail.co.uk/wires/ap/article-6349379/Democrat-McCaskill-reaches-right-GOP-leaning-Missouri.html"}, {"ID": 800032731, "Actor1": "MIGRANT", "Actor1_Country": null, "Actor2": "PRESIDENT", "Actor2_Country": null, "Code": 32, "Class": 1, "Action_Location": "Missouri, United States", "Lat": 38.4623, "Long": -92.302, "Timestamp": 20181105014500, "Source": "https://www.dailymail.co.uk/wires/ap/article-6349379/Democrat-McCaskill-reaches-right-GOP-leaning-Missouri.html"}, {"ID": 800032735, "Actor1": "MIGRANT", "Actor1_Country": null, "Actor2": "GUATEMALA", "Actor2_Country": "GTM", "Code": 182, "Class": 4, "Action_Location": "Guatemala", "Lat": 15.5, "Long": -90.25, "Timestamp": 20181105014500, "Source": "https://www.dailymail.co.uk/wires/ap/article-6349291/AP-FACT-CHECK-Trumps-distortions-immigration.html"}, {"ID": 800032737, "Actor1": "MIGRANT", "Actor1_Country": null, "Actor2": "GUATEMALA", "Actor2_Country": "GTM", "Code": 182, "Class": 4, "Action_Location": "Guatemala", "Lat": 15.5, "Long": -90.25, "Timestamp": 20181105014500, "Source": "https://www.dailymail.co.uk/wires/ap/article-6349291/AP-FACT-CHECK-Trumps-distortions-immigration.html"}, {"ID": 800032738, "Actor1": "MIGRANT", "Actor1_Country": null, "Actor2": "GUATEMALA", "Actor2_Country": "GTM", "Code": 182, "Class": 4, "Action_Location": "Washington, District of Columbia, United States", "Lat": 38.8951, "Long": -77.0364, "Timestamp": 20181105014500, "Source": "https://www.dailymail.co.uk/wires/ap/article-6349291/AP-FACT-CHECK-Trumps-distortions-immigration.html"}, {"ID": 800032741, "Actor1": "MIGRANT", "Actor1_Country": null, "Actor2": "MEXICAN", "Actor2_Country": "MEX", "Code": 182, "Class": 4, "Action_Location": "Washington, District of Columbia, United States", "Lat": 38.8951, "Long": -77.0364, "Timestamp": 20181105014500, "Source": "https://www.dailymail.co.uk/wires/ap/article-6349291/AP-FACT-CHECK-Trumps-distortions-immigration.html"}, {"ID": 800032742, "Actor1": "MIGRANT", "Actor1_Country": null, "Actor2": "MEXICAN", "Actor2_Country": "MEX", "Code": 190, "Class": 4, "Action_Location": "Sayula, Sonora, Mexico", "Lat": 29.3667, "Long": -111.55, "Timestamp": 20181105014500, "Source": "https://www.dailymail.co.uk/wires/ap/article-6349291/AP-FACT-CHECK-Trumps-distortions-immigration.html"}, {"ID": 800032743, "Actor1": "MIGRANT", "Actor1_Country": null, "Actor2": "MEXICAN", "Actor2_Country": "MEX", "Code": 190, "Class": 4, "Action_Location": "Washington, District of Columbia, United States", "Lat": 38.8951, "Long": -77.0364, "Timestamp": 20181105014500, "Source": "https://www.dailymail.co.uk/wires/ap/article-6349291/AP-FACT-CHECK-Trumps-distortions-immigration.html"}, {"ID": 800032744, "Actor1": "MIGRANT", "Actor1_Country": null, "Actor2": "MEXICAN", "Actor2_Country": "MEX", "Code": 190, "Class": 4, "Action_Location": "Sayula, Sonora, Mexico", "Lat": 29.3667, "Long": -111.55, "Timestamp": 20181105014500, "Source": "https://www.dailymail.co.uk/wires/ap/article-6349291/AP-FACT-CHECK-Trumps-distortions-immigration.html"}, {"ID": 800032745, "Actor1": "MIGRANT", "Actor1_Country": null, "Actor2": "MILITARY", "Actor2_Country": null, "Code": 30, "Class": 1, "Action_Location": "Sayula, Sonora, Mexico", "Lat": 29.3667, "Long": -111.55, "Timestamp": 20181105014500, "Source": "https://www.dailymail.co.uk/wires/ap/article-6349291/AP-FACT-CHECK-Trumps-distortions-immigration.html"}, {"ID": 800032747, "Actor1": "ETHNIC GROUP", "Actor1_Country": null, "Actor2": "MILITARY", "Actor2_Country": null, "Code": 40, "Class": 1, "Action_Location": "Yathedaung, Mandalay, Myanmar", "Lat": 20.8, "Long": 95.35, "Timestamp": 20181105014500, "Source": "https://www.thestar.com.my/news/regional/2018/11/05/suu-kyis-party-loses-six-constituencies-in-byelection/"}, {"ID": 800032749, "Actor1": "VILLAGE", "Actor1_Country": null, "Actor2": "NIGERIEN", "Actor2_Country": "NER", "Code": 43, "Class": 1, "Action_Location": "Niger", "Lat": 16.0, "Long": 8.0, "Timestamp": 20181105014500, "Source": "https://www.africaleader.com/news/258246831/us-army-punishes-six-over-roles-in-fatal-niger-ambush-report"}, {"ID": 800032751, "Actor1": "VOTER", "Actor1_Country": null, "Actor2": "POLITICIAN", "Actor2_Country": null, "Code": 51, "Class": 1, "Action_Location": "Yathedaung, Mandalay, Myanmar", "Lat": 20.8, "Long": 95.35, "Timestamp": 20181105014500, "Source": "https://www.thestar.com.my/news/regional/2018/11/05/suu-kyis-party-loses-six-constituencies-in-byelection/"}, {"ID": 800032768, "Actor1": "THE POOR", "Actor1_Country": null, "Actor2": "UNITED STATES", "Actor2_Country": "USA", "Code": 20, "Class": 1, "Action_Location": "Georgia, United States", "Lat": 32.9866, "Long": -83.6487, "Timestamp": 20181105014500, "Source": "https://www.houstonchronicle.com/news/article/Racist-magical-Negro-robo-call-from-Oprah-13361839.php"}, {"ID": 800032773, "Actor1": "SETTLEMENT", "Actor1_Country": null, "Actor2": "ORLANDO", "Actor2_Country": "USA", "Code": 42, "Class": 1, "Action_Location": "Michigan, United States", "Lat": 43.3504, "Long": -84.5603, "Timestamp": 20181105014500, "Source": "https://www.arabamericannews.com/2009/01/10/News-briefs/?t=1541375155"}, {"ID": 800032774, "Actor1": "SETTLEMENT", "Actor1_Country": null, "Actor2": "ORLANDO", "Actor2_Country": "USA", "Code": 42, "Class": 1, "Action_Location": "Michigan, United States", "Lat": 43.3504, "Long": -84.5603, "Timestamp": 20181105014500, "Source": "https://www.arabamericannews.com/2009/01/10/News-briefs/?t=1541375155"}, {"ID": 800032779, "Actor1": "THE POOR", "Actor1_Country": null, "Actor2": "CHICAGO", "Actor2_Country": "USA", "Code": 51, "Class": 1, "Action_Location": "Chicago, Illinois, United States", "Lat": 41.85, "Long": -87.6501, "Timestamp": 20181105014500, "Source": "http://www.abc-7.com/story/39413249/how-the-economy-is-playing-in-five-close-house-races"}, {"ID": 800032781, "Actor1": "VOTER", "Actor1_Country": null, "Actor2": "UNITED STATES", "Actor2_Country": "USA", "Code": 874, "Class": 2, "Action_Location": "Phoenix, Arizona, United States", "Lat": 33.4484, "Long": -112.074, "Timestamp": 20181105014500, "Source": "http://ktar.com/story/2292801/2-days-before-election-day-sinema-leads-mcsally-by-3-points-in-poll/"}, {"ID": 800032793, "Actor1": "GERMANY", "Actor1_Country": "DEU", "Actor2": "GERMANY", "Actor2_Country": "DEU", "Code": 17, "Class": 1, "Action_Location": "Germany", "Lat": 51.5, "Long": 10.5, "Timestamp": 20181105014500, "Source": "https://www.dailymail.co.uk/wires/pa/article-6350313/May-join-Macron-Armistice-centenary-tribute-First-World-War-dead.html"}, {"ID": 800032796, "Actor1": "DENMARK", "Actor1_Country": "DNK", "Actor2": "UNITED KINGDOM", "Actor2_Country": "GBR", "Code": 36, "Class": 1, "Action_Location": "Sandringham, Norfolk, United Kingdom", "Lat": 52.8333, "Long": 0.516667, "Timestamp": 20181105014500, "Source": "https://www.ghanavisions.com/news/world/225412-prince-charles-says-britain-s-role-in-the-slave-trade-has-left-an-indelible-stain-on-our-history.html"}, {"ID": 800032797, "Actor1": "DENMARK", "Actor1_Country": "DNK", "Actor2": "UNITED KINGDOM", "Actor2_Country": "GBR", "Code": 36, "Class": 1, "Action_Location": "Denmark", "Lat": 56.0, "Long": 10.0, "Timestamp": 20181105014500, "Source": "https://www.ghanavisions.com/news/world/225412-prince-charles-says-britain-s-role-in-the-slave-trade-has-left-an-indelible-stain-on-our-history.html"}, {"ID": 800032814, "Actor1": "SCHOOL", "Actor1_Country": null, "Actor2": "VOTER", "Actor2_Country": null, "Code": 42, "Class": 1, "Action_Location": "Florida, United States", "Lat": 27.8333, "Long": -81.717, "Timestamp": 20181105014500, "Source": "https://www.weisradio.com/through-their-eyes-18-year-old-first-time-voters-weigh-in-on-key-issues-facing-the-nation/"}, {"ID": 800032815, "Actor1": "SCHOOL", "Actor1_Country": null, "Actor2": "VOTER", "Actor2_Country": null, "Code": 42, "Class": 1, "Action_Location": "Florida, United States", "Lat": 27.8333, "Long": -81.717, "Timestamp": 20181105014500, "Source": "https://www.weisradio.com/through-their-eyes-18-year-old-first-time-voters-weigh-in-on-key-issues-facing-the-nation/"}, {"ID": 800032817, "Actor1": "STUDENT", "Actor1_Country": null, "Actor2": "GOVERNMENT", "Actor2_Country": null, "Code": 42, "Class": 1, "Action_Location": "Tehran, Tehran, Iran", "Lat": 35.75, "Long": 51.5148, "Timestamp": 20181105014500, "Source": "https://www.newsbook.com.mt/artikli/2018/11/04/iranian-marchers-chant-death-to-america-on-eve-of-u-s-oil-sanctions/"}, {"ID": 800032819, "Actor1": "SCHOOL", "Actor1_Country": null, "Actor2": "WATERFORD", "Actor2_Country": "IRL", "Code": 43, "Class": 1, "Action_Location": "Dublin, Dublin, Ireland", "Lat": 53.3331, "Long": -6.24889, "Timestamp": 20181105014500, "Source": "https://www.irishexaminer.com/breakingnews/lifestyle/waterford-band-o-emperor-making-a-rock-star-album-on-a-day-job-wage-883095.html"}, {"ID": 800032822, "Actor1": "STUDENT", "Actor1_Country": null, "Actor2": "TELEVISION", "Actor2_Country": null, "Code": 10, "Class": 1, "Action_Location": "Tehran, Tehran, Iran", "Lat": 35.75, "Long": 51.5148, "Timestamp": 20181105014500, "Source": "https://www.newsbook.com.mt/artikli/2018/11/04/iranian-marchers-chant-death-to-america-on-eve-of-u-s-oil-sanctions/"}, {"ID": 800032830, "Actor1": "STUDENT", "Actor1_Country": null, "Actor2": "SAN DIEGO", "Actor2_Country": "USA", "Code": 20, "Class": 1, "Action_Location": "California, United States", "Lat": 36.17, "Long": -119.746, "Timestamp": 20181105014500, "Source": "http://www.mesapress.com/uncategorized/2018/11/04/voters-prepare-to-vote-on-propositions-1-6-7-and-10-in-california-2018-election/"}, {"ID": 800032834, "Actor1": "COLLEGE", "Actor1_Country": null, "Actor2": "UNITED STATES", "Actor2_Country": "USA", "Code": 841, "Class": 2, "Action_Location": "California, United States", "Lat": 36.17, "Long": -119.746, "Timestamp": 20181105014500, "Source": "https://slate.com/business/2018/11/kamala-harriss-big-policy-idea-is-even-worse-than-i-thought.html"}, {"ID": 800032843, "Actor1": "ACTOR", "Actor1_Country": null, "Actor2": "VOTER", "Actor2_Country": null, "Code": 138, "Class": 3, "Action_Location": "Russia", "Lat": 60.0, "Long": 100.0, "Timestamp": 20181105014500, "Source": "https://www.news-star.com/zz/news/20181104/voters-guide-to-election-security"}, {"ID": 800032850, "Actor1": "ERITREAN", "Actor1_Country": "ERI", "Actor2": "ERITREA", "Actor2_Country": "ERI", "Code": 120, "Class": 3, "Action_Location": "Badme, Gash Barka, Eritrea", "Lat": 14.7275, "Long": 37.8031, "Timestamp": 20181105014500, "Source": "https://www.africaleader.com/news/258241517/un-to-lift-sanctions-on-eritrea-after-us-shift"}, {"ID": 800032851, "Actor1": "ERITREAN", "Actor1_Country": "ERI", "Actor2": "GENERAL ASSEMBLY", "Actor2_Country": null, "Code": 10, "Class": 1, "Action_Location": "Badme, Gash Barka, Eritrea", "Lat": 14.7275, "Long": 37.8031, "Timestamp": 20181105014500, "Source": "https://www.africaleader.com/news/258241517/un-to-lift-sanctions-on-eritrea-after-us-shift"}, {"ID": 800032855, "Actor1": "ERITREA", "Actor1_Country": "ERI", "Actor2": "ETHIOPIA", "Actor2_Country": "ETH", "Code": 57, "Class": 1, "Action_Location": "Badme, Gash Barka, Eritrea", "Lat": 14.7275, "Long": 37.8031, "Timestamp": 20181105014500, "Source": "https://www.africaleader.com/news/258241517/un-to-lift-sanctions-on-eritrea-after-us-shift"}, {"ID": 800032856, "Actor1": "ERITREA", "Actor1_Country": "ERI", "Actor2": "ETHIOPIA", "Actor2_Country": "ETH", "Code": 57, "Class": 1, "Action_Location": "Badme, Gash Barka, Eritrea", "Lat": 14.7275, "Long": 37.8031, "Timestamp": 20181105014500, "Source": "https://www.africaleader.com/news/258241517/un-to-lift-sanctions-on-eritrea-after-us-shift"}, {"ID": 800032860, "Actor1": "ETHIOPIA", "Actor1_Country": "ETH", "Actor2": "ERITREA", "Actor2_Country": "ERI", "Code": 25, "Class": 1, "Action_Location": "Badme, Gash Barka, Eritrea", "Lat": 14.7275, "Long": 37.8031, "Timestamp": 20181105014500, "Source": "https://www.africaleader.com/news/258241517/un-to-lift-sanctions-on-eritrea-after-us-shift"}, {"ID": 800032861, "Actor1": "ETHIOPIA", "Actor1_Country": "ETH", "Actor2": "ERITREA", "Actor2_Country": "ERI", "Code": 25, "Class": 1, "Action_Location": "Somalia", "Lat": 6.0, "Long": 48.0, "Timestamp": 20181105014500, "Source": "https://www.africaleader.com/news/258241517/un-to-lift-sanctions-on-eritrea-after-us-shift"}, {"ID": 800032864, "Actor1": "ETHIOPIA", "Actor1_Country": "ETH", "Actor2": "ERITREA", "Actor2_Country": "ERI", "Code": 57, "Class": 1, "Action_Location": "Badme, Gash Barka, Eritrea", "Lat": 14.7275, "Long": 37.8031, "Timestamp": 20181105014500, "Source": "https://www.africaleader.com/news/258241517/un-to-lift-sanctions-on-eritrea-after-us-shift"}, {"ID": 800032865, "Actor1": "ETHIOPIA", "Actor1_Country": "ETH", "Actor2": "ERITREA", "Actor2_Country": "ERI", "Code": 57, "Class": 1, "Action_Location": "Badme, Gash Barka, Eritrea", "Lat": 14.7275, "Long": 37.8031, "Timestamp": 20181105014500, "Source": "https://www.africaleader.com/news/258241517/un-to-lift-sanctions-on-eritrea-after-us-shift"}, {"ID": 800032869, "Actor1": "FRENCH", "Actor1_Country": "FRA", "Actor2": "AFRICA", "Actor2_Country": "AFR", "Code": 173, "Class": 4, "Action_Location": "Paris, France (general), France", "Lat": 48.8667, "Long": 2.33333, "Timestamp": 20181105014500, "Source": "http://news.trust.org/item/20181104132042-81myp/"}, {"ID": 800032880, "Actor1": "PARIS", "Actor1_Country": "FRA", "Actor2": "GOVERNMENT", "Actor2_Country": null, "Code": 43, "Class": 1, "Action_Location": "Paris, France (general), France", "Lat": 48.8667, "Long": 2.33333, "Timestamp": 20181105014500, "Source": "http://www.latimes.com/world/europe/la-fg-italy-world-war-anniversary-20181104-story.html"}, {"ID": 800032882, "Actor1": "FRANCE", "Actor1_Country": "FRA", "Actor2": "EXXON", "Actor2_Country": null, "Code": 130, "Class": 3, "Action_Location": "France", "Lat": 46.0, "Long": 2.0, "Timestamp": 20181105014500, "Source": "https://www.siasat.com/news/erdogan-warns-sea-bandits-over-cyprus-energy-exploration-1428061/"}, {"ID": 800032883, "Actor1": "FRANCE", "Actor1_Country": "FRA", "Actor2": "EXXON", "Actor2_Country": null, "Code": 130, "Class": 3, "Action_Location": "France", "Lat": 46.0, "Long": 2.0, "Timestamp": 20181105014500, "Source": "https://www.siasat.com/news/erdogan-warns-sea-bandits-over-cyprus-energy-exploration-1428061/"}, {"ID": 800032884, "Actor1": "FRANCE", "Actor1_Country": "FRA", "Actor2": "WASHINGTON", "Actor2_Country": "USA", "Code": 110, "Class": 3, "Action_Location": "Washington, District of Columbia, United States", "Lat": 38.8951, "Long": -77.0364, "Timestamp": 20181105014500, "Source": "https://www.onenewspage.com/n/Front+Page/1zjaqpd7zc/Britain-pushes-for-Security-Council-action.htm"}, {"ID": 800032887, "Actor1": "NEW CALEDONIA", "Actor1_Country": "FRA", "Actor2": "FRANCE", "Actor2_Country": "FRA", "Code": 110, "Class": 3, "Action_Location": "Ouvea, New Caledonia (general), New Caledonia", "Lat": -20.5833, "Long": 166.583, "Timestamp": 20181105014500, "Source": "http://news.trust.org/item/20181104132042-81myp/"}, {"ID": 800032888, "Actor1": "NEW CALEDONIA", "Actor1_Country": "FRA", "Actor2": "FRANCE", "Actor2_Country": "FRA", "Code": 110, "Class": 3, "Action_Location": "Ouvea, New Caledonia (general), New Caledonia", "Lat": -20.5833, "Long": 166.583, "Timestamp": 20181105014500, "Source": "http://news.trust.org/item/20181104132042-81myp/"}, {"ID": 800032901, "Actor1": "UNITED KINGDOM", "Actor1_Country": "GBR", "Actor2": "BELGIUM", "Actor2_Country": "BEL", "Code": 42, "Class": 1, "Action_Location": "Dendermonde, Region Flamande, Belgium", "Lat": 51.0287, "Long": 4.10106, "Timestamp": 20181105014500, "Source": "https://www.bbc.co.uk/news/uk-england-leeds-46018891"}, {"ID": 800032902, "Actor1": "UNITED KINGDOM", "Actor1_Country": "GBR", "Actor2": "BELGIUM", "Actor2_Country": "BEL", "Code": 42, "Class": 1, "Action_Location": "Yorkshire, North Yorkshire, United Kingdom", "Lat": 54.0, "Long": -1.5, "Timestamp": 20181105014500, "Source": "https://www.bbc.co.uk/news/uk-england-leeds-46018891"}, {"ID": 800032907, "Actor1": "BIRMINGHAM", "Actor1_Country": "GBR", "Actor2": "CHINA", "Actor2_Country": "CHN", "Code": 90, "Class": 2, "Action_Location": "Beijing, Beijing, China", "Lat": 39.9289, "Long": 116.388, "Timestamp": 20181105014500, "Source": "https://www.abc.net.au/news/2018-11-05/china-claims-free-trade-push-amid-us-trade-war-pressure/10464848"}, {"ID": 800032908, "Actor1": "UNITED KINGDOM", "Actor1_Country": "GBR", "Actor2": "DENMARK", "Actor2_Country": "DNK", "Code": 36, "Class": 1, "Action_Location": "Sandringham, Norfolk, United Kingdom", "Lat": 52.8333, "Long": 0.516667, "Timestamp": 20181105014500, "Source": "https://www.ghanavisions.com/news/world/225412-prince-charles-says-britain-s-role-in-the-slave-trade-has-left-an-indelible-stain-on-our-history.html"}, {"ID": 800032909, "Actor1": "UNITED KINGDOM", "Actor1_Country": "GBR", "Actor2": "DENMARK", "Actor2_Country": "DNK", "Code": 36, "Class": 1, "Action_Location": "Denmark", "Lat": 56.0, "Long": 10.0, "Timestamp": 20181105014500, "Source": "https://www.ghanavisions.com/news/world/225412-prince-charles-says-britain-s-role-in-the-slave-trade-has-left-an-indelible-stain-on-our-history.html"}, {"ID": 800032914, "Actor1": "UNITED KINGDOM", "Actor1_Country": "GBR", "Actor2": "SECURITY COUNCIL", "Actor2_Country": null, "Code": 20, "Class": 1, "Action_Location": "London, London, City of, United Kingdom", "Lat": 51.5, "Long": -0.116667, "Timestamp": 20181105014500, "Source": "http://focus-fen.net/./news/2018/11/05/435539/afp-uk-to-urge-security-council-action-over-yemen.html"}, {"ID": 800032915, "Actor1": "UNITED KINGDOM", "Actor1_Country": "GBR", "Actor2": "SECRETARY OF STATE", "Actor2_Country": null, "Code": 190, "Class": 4, "Action_Location": "London, London, City of, United Kingdom", "Lat": 51.5, "Long": -0.116667, "Timestamp": 20181105014500, "Source": "https://www.bordercountiesadvertizer.co.uk/news/national/17200188.the-main-players-in-the-first-world-war/"}, {"ID": 800032916, "Actor1": "UNITED KINGDOM", "Actor1_Country": "GBR", "Actor2": "THE EUROPEAN UNION", "Actor2_Country": "EUR", "Code": 20, "Class": 1, "Action_Location": "London, London, City of, United Kingdom", "Lat": 51.5, "Long": -0.116667, "Timestamp": 20181105014500, "Source": "https://www.dailymail.co.uk/wires/pa/article-6350107/Business-grandees-warn-Brexit-threat-jobs-second-referendum.html"}, {"ID": 800032922, "Actor1": "UNITED KINGDOM", "Actor1_Country": "GBR", "Actor2": "THOMSON REUTERS", "Actor2_Country": "CAN", "Code": 13, "Class": 1, "Action_Location": "London, London, City of, United Kingdom", "Lat": 51.5, "Long": -0.116667, "Timestamp": 20181105014500, "Source": "https://www.freemalaysiatoday.com/category/business/2018/11/05/high-flying-women-are-closing-the-pay-gap-with-men/"}, {"ID": 800032932, "Actor1": "BRITANNIA", "Actor1_Country": "GBR", "Actor2": "UNITED STATES", "Actor2_Country": "USA", "Code": 43, "Class": 1, "Action_Location": "Hollywood, California, United States", "Lat": 34.0983, "Long": -118.327, "Timestamp": 20181105014500, "Source": "https://www.dailymail.co.uk/home/article-6341993/Piers-Morgan-attends-star-studded-Britannia-Awards.html"}, {"ID": 800032946, "Actor1": "BRITAIN", "Actor1_Country": "GBR", "Actor2": "YEMEN", "Actor2_Country": "YEM", "Code": 160, "Class": 4, "Action_Location": "Sanaa, San\u0091a', Yemen", "Lat": 15.3547, "Long": 44.2067, "Timestamp": 20181105014500, "Source": "https://uk.reuters.com/article/uk-yemen-security-britain/britain-pushes-for-u-n-security-council-action-on-yemen-crisis-idUKKCN1NA01T"}, {"ID": 800032947, "Actor1": "UNITED KINGDOM", "Actor1_Country": "GBR", "Actor2": "YEMEN", "Actor2_Country": "YEM", "Code": 160, "Class": 4, "Action_Location": "United States", "Lat": 39.828175, "Long": -98.5795, "Timestamp": 20181105014500, "Source": "https://uk.reuters.com/article/uk-yemen-security-britain/britain-pushes-for-u-n-security-council-action-on-yemen-crisis-idUKKCN1NA01T"}, {"ID": 800032948, "Actor1": "BRITAIN", "Actor1_Country": "GBR", "Actor2": "YEMEN", "Actor2_Country": "YEM", "Code": 160, "Class": 4, "Action_Location": "United States", "Lat": 39.828175, "Long": -98.5795, "Timestamp": 20181105014500, "Source": "https://uk.reuters.com/article/uk-yemen-security-britain/britain-pushes-for-u-n-security-council-action-on-yemen-crisis-idUKKCN1NA01T"}, {"ID": 800032949, "Actor1": "LEEDS", "Actor1_Country": "GBR", "Actor2": "BELGIAN", "Actor2_Country": "BEL", "Code": 20, "Class": 1, "Action_Location": "Dendermonde, Region Flamande, Belgium", "Lat": 51.0287, "Long": 4.10106, "Timestamp": 20181105014500, "Source": "https://www.bbc.co.uk/news/uk-england-leeds-46018891"}, {"ID": 800032950, "Actor1": "LEEDS", "Actor1_Country": "GBR", "Actor2": "BELGIAN", "Actor2_Country": "BEL", "Code": 20, "Class": 1, "Action_Location": "Dendermonde, Region Flamande, Belgium", "Lat": 51.0287, "Long": 4.10106, "Timestamp": 20181105014500, "Source": "https://www.bbc.co.uk/news/uk-england-leeds-46018891"}, {"ID": 800032952, "Actor1": "WALES", "Actor1_Country": "GBR", "Actor2": "CHRISTIAN", "Actor2_Country": null, "Code": 51, "Class": 1, "Action_Location": "Christiansborg, Ghana (general), Ghana", "Lat": 5.54672, "Long": -0.183647, "Timestamp": 20181105014500, "Source": "https://www.ghanavisions.com/news/world/225412-prince-charles-says-britain-s-role-in-the-slave-trade-has-left-an-indelible-stain-on-our-history.html"}, {"ID": 800032953, "Actor1": "WALES", "Actor1_Country": "GBR", "Actor2": "CHRISTIAN", "Actor2_Country": null, "Code": 51, "Class": 1, "Action_Location": "Christiansborg, Ghana (general), Ghana", "Lat": 5.54672, "Long": -0.183647, "Timestamp": 20181105014500, "Source": "https://www.ghanavisions.com/news/world/225412-prince-charles-says-britain-s-role-in-the-slave-trade-has-left-an-indelible-stain-on-our-history.html"}, {"ID": 800032958, "Actor1": "WALES", "Actor1_Country": "GBR", "Actor2": "GHANA", "Actor2_Country": "GHA", "Code": 51, "Class": 1, "Action_Location": "Christiansborg, Ghana (general), Ghana", "Lat": 5.54672, "Long": -0.183647, "Timestamp": 20181105014500, "Source": "https://www.ghanavisions.com/news/world/225412-prince-charles-says-britain-s-role-in-the-slave-trade-has-left-an-indelible-stain-on-our-history.html"}, {"ID": 800032959, "Actor1": "WALES", "Actor1_Country": "GBR", "Actor2": "GHANA", "Actor2_Country": "GHA", "Code": 51, "Class": 1, "Action_Location": "Christiansborg, Ghana (general), Ghana", "Lat": 5.54672, "Long": -0.183647, "Timestamp": 20181105014500, "Source": "https://www.ghanavisions.com/news/world/225412-prince-charles-says-britain-s-role-in-the-slave-trade-has-left-an-indelible-stain-on-our-history.html"}, {"ID": 800032960, "Actor1": "WALES", "Actor1_Country": "GBR", "Actor2": "ACCRA", "Actor2_Country": "GHA", "Code": 51, "Class": 1, "Action_Location": "Christiansborg, Ghana (general), Ghana", "Lat": 5.54672, "Long": -0.183647, "Timestamp": 20181105014500, "Source": "https://www.ghanavisions.com/news/world/225412-prince-charles-says-britain-s-role-in-the-slave-trade-has-left-an-indelible-stain-on-our-history.html"}, {"ID": 800032961, "Actor1": "WALES", "Actor1_Country": "GBR", "Actor2": "ACCRA", "Actor2_Country": "GHA", "Code": 51, "Class": 1, "Action_Location": "Christiansborg, Ghana (general), Ghana", "Lat": 5.54672, "Long": -0.183647, "Timestamp": 20181105014500, "Source": "https://www.ghanavisions.com/news/world/225412-prince-charles-says-britain-s-role-in-the-slave-trade-has-left-an-indelible-stain-on-our-history.html"}, {"ID": 800032968, "Actor1": "JEREMY HUNT", "Actor1_Country": "GBR", "Actor2": "THE UN", "Actor2_Country": null, "Code": 30, "Class": 1, "Action_Location": "Sanaa, San\u0091a', Yemen", "Lat": 15.3547, "Long": 44.2067, "Timestamp": 20181105014500, "Source": "https://www.rappler.com/world/regions/middle-east/215932-uk-urge-un-security-council-action-over-yemen-conflict"}, {"ID": 800033018, "Actor1": "PUBLIC SECTOR", "Actor1_Country": null, "Actor2": "AUSTRALIA", "Actor2_Country": "AUS", "Code": 20, "Class": 1, "Action_Location": "Australia", "Lat": -25.0, "Long": 135.0, "Timestamp": 20181105014500, "Source": "https://www.dailymail.co.uk/wires/aap/article-6350433/Chester-cautions-against-live-export-ban.html"}, {"ID": 800033020, "Actor1": "GOVERNOR", "Actor1_Country": null, "Actor2": "AUSTRALIA", "Actor2_Country": "AUS", "Code": 51, "Class": 1, "Action_Location": "Marree, South Australia, Australia", "Lat": -29.65, "Long": 138.067, "Timestamp": 20181105014500, "Source": "https://www.stockjournal.com.au/story/5739354/rural-health-ambassador-receives-state-honour/"}, {"ID": 800033025, "Actor1": "GOVERNANCE", "Actor1_Country": null, "Actor2": "BANK", "Actor2_Country": null, "Code": 20, "Class": 1, "Action_Location": "Wellington, New Zealand (general), New Zealand", "Lat": -41.3, "Long": 174.783, "Timestamp": 20181105014500, "Source": "https://www.msn.com/en-au/news/other/new-zealand-bank-review-urges-tighter-regulation-in-the-wake-of-australian-inquiry/ar-BBPlhrt"}, {"ID": 800033026, "Actor1": "GOVERNMENT", "Actor1_Country": null, "Actor2": "BANK", "Actor2_Country": null, "Code": 20, "Class": 1, "Action_Location": "India", "Lat": 20.0, "Long": 77.0, "Timestamp": 20181105014500, "Source": "https://economictimes.indiatimes.com/news/economy/policy/section-7-invoked-only-after-rbi-ignored-government-wish-list/articleshow/66504582.cms"}, {"ID": 800033028, "Actor1": "GOVERNMENT", "Actor1_Country": null, "Actor2": "BASEL", "Actor2_Country": "CHE", "Code": 90, "Class": 2, "Action_Location": "India", "Lat": 20.0, "Long": 77.0, "Timestamp": 20181105014500, "Source": "https://economictimes.indiatimes.com/news/economy/policy/section-7-invoked-only-after-rbi-ignored-government-wish-list/articleshow/66504582.cms"}, {"ID": 800033029, "Actor1": "OFFICIAL SOURCE", "Actor1_Country": null, "Actor2": "CHINA", "Actor2_Country": "CHN", "Code": 33, "Class": 1, "Action_Location": "Gwadar, Balochistan, Pakistan", "Lat": 25.1216, "Long": 62.3254, "Timestamp": 20181105014500, "Source": "https://www.thenews.com.pk/print/389768-1077-drug-peddlers-arrested"}, {"ID": 800033030, "Actor1": "MINIST", "Actor1_Country": null, "Actor2": "BEIJING", "Actor2_Country": "CHN", "Code": 42, "Class": 1, "Action_Location": "Beijing, Beijing, China", "Lat": 39.9289, "Long": 116.388, "Timestamp": 20181105014500, "Source": "https://www.abc.net.au/news/2018-11-05/china-claims-free-trade-push-amid-us-trade-war-pressure/10464848"}, {"ID": 800033034, "Actor1": "PRESIDENT", "Actor1_Country": null, "Actor2": "RESIDENTS", "Actor2_Country": null, "Code": 51, "Class": 1, "Action_Location": "Marulan, New South Wales, Australia", "Lat": -34.7084, "Long": 150.01, "Timestamp": 20181105014500, "Source": "https://www.goulburnpost.com.au/story/5732620/new-village-centre-for-marulan/"}, {"ID": 800033038, "Actor1": "GOVERNMENT", "Actor1_Country": null, "Actor2": "STUDENT", "Actor2_Country": null, "Code": 43, "Class": 1, "Action_Location": "Tehran, Tehran, Iran", "Lat": 35.75, "Long": 51.5148, "Timestamp": 20181105014500, "Source": "https://www.newsbook.com.mt/artikli/2018/11/04/iranian-marchers-chant-death-to-america-on-eve-of-u-s-oil-sanctions/"}, {"ID": 800033039, "Actor1": "GOVERNMENT", "Actor1_Country": null, "Actor2": "PARIS", "Actor2_Country": "FRA", "Code": 17, "Class": 1, "Action_Location": "Paris, France (general), France", "Lat": 48.8667, "Long": 2.33333, "Timestamp": 20181105014500, "Source": "http://www.latimes.com/world/europe/la-fg-italy-world-war-anniversary-20181104-story.html"}, {"ID": 800033040, "Actor1": "GOVERNMENT", "Actor1_Country": null, "Actor2": "PARIS", "Actor2_Country": "FRA", "Code": 42, "Class": 1, "Action_Location": "Paris, France (general), France", "Lat": 48.8667, "Long": 2.33333, "Timestamp": 20181105014500, "Source": "http://www.latimes.com/world/europe/la-fg-italy-world-war-anniversary-20181104-story.html"}, {"ID": 800033041, "Actor1": "SECRETARY OF STATE", "Actor1_Country": null, "Actor2": "UNITED KINGDOM", "Actor2_Country": "GBR", "Code": 190, "Class": 4, "Action_Location": "London, London, City of, United Kingdom", "Lat": 51.5, "Long": -0.116667, "Timestamp": 20181105014500, "Source": "https://www.bordercountiesadvertizer.co.uk/news/national/17200188.the-main-players-in-the-first-world-war/"}, {"ID": 800033045, "Actor1": "FINANCE MINIST", "Actor1_Country": null, "Actor2": "CENTRAL BANK", "Actor2_Country": null, "Code": 10, "Class": 1, "Action_Location": "India", "Lat": 20.0, "Long": 77.0, "Timestamp": 20181105014500, "Source": "https://economictimes.indiatimes.com/news/economy/policy/section-7-invoked-only-after-rbi-ignored-government-wish-list/articleshow/66504582.cms"}, {"ID": 800033046, "Actor1": "PRIME MINISTER", "Actor1_Country": null, "Actor2": "EUROPEAN COMMISSION", "Actor2_Country": "EUR", "Code": 40, "Class": 1, "Action_Location": "London, London, City of, United Kingdom", "Lat": 51.5, "Long": -0.116667, "Timestamp": 20181105014500, "Source": "https://www.dailymail.co.uk/wires/pa/article-6350107/Business-grandees-warn-Brexit-threat-jobs-second-referendum.html"}, {"ID": 800033047, "Actor1": "CENTRAL ELECTION COMMITTEE", "Actor1_Country": null, "Actor2": "NEW DELHI", "Actor2_Country": "IND", "Code": 36, "Class": 1, "Action_Location": "New Delhi, Delhi, India", "Lat": 28.6, "Long": 77.2, "Timestamp": 20181105014500, "Source": "https://economictimes.indiatimes.com/news/elections/rajasthan-assembly-elections/rajasthan-elections-bjps-list-of-candidates-not-before-november-11/articleshow/66504549.cms"}, {"ID": 800033049, "Actor1": "ADMINISTRATION", "Actor1_Country": null, "Actor2": "IRAN", "Actor2_Country": "IRN", "Code": 331, "Class": 1, "Action_Location": "Pahlavi, Gilan, Iran", "Lat": 37.4727, "Long": 49.4622, "Timestamp": 20181105014500, "Source": "https://www.cp24.com/world/iran-marks-79-u-s-embassy-takeover-as-renewed-sanctions-loom-1.4162621"}, {"ID": 800033052, "Actor1": "FOREIGN MINIST", "Actor1_Country": null, "Actor2": "GENERAL ASSEMBLY", "Actor2_Country": null, "Code": 10, "Class": 1, "Action_Location": "Badme, Gash Barka, Eritrea", "Lat": 14.7275, "Long": 37.8031, "Timestamp": 20181105014500, "Source": "https://www.africaleader.com/news/258241517/un-to-lift-sanctions-on-eritrea-after-us-shift"}, {"ID": 800033060, "Actor1": "EMBASSY", "Actor1_Country": null, "Actor2": "JOURNALIST", "Actor2_Country": null, "Code": 141, "Class": 3, "Action_Location": "Riyadh, Ar Riya?, Saudi Arabia", "Lat": 24.6408, "Long": 46.7728, "Timestamp": 20181105014500, "Source": "https://uk.reuters.com/article/uk-saudi-khashoggi-sons/sons-of-slain-saudi-journalist-khashoggi-appeal-for-return-of-his-body-idUKKCN1NA01Z"}, {"ID": 800033061, "Actor1": "EMBASSY", "Actor1_Country": null, "Actor2": "JOURNALIST", "Actor2_Country": null, "Code": 141, "Class": 3, "Action_Location": "Istanbul, Istanbul, Turkey", "Lat": 41.0186, "Long": 28.9647, "Timestamp": 20181105014500, "Source": "https://uk.reuters.com/article/uk-saudi-khashoggi-sons/sons-of-slain-saudi-journalist-khashoggi-appeal-for-return-of-his-body-idUKKCN1NA01Z"}, {"ID": 800033064, "Actor1": "CHIEF MINISTER", "Actor1_Country": null, "Actor2": "AMIT", "Actor2_Country": "USA", "Code": 36, "Class": 1, "Action_Location": "New Delhi, Delhi, India", "Lat": 28.6, "Long": 77.2, "Timestamp": 20181105014500, "Source": "https://economictimes.indiatimes.com/news/elections/rajasthan-assembly-elections/rajasthan-elections-bjps-list-of-candidates-not-before-november-11/articleshow/66504549.cms"}, {"ID": 800033065, "Actor1": "CHIEF MINISTER", "Actor1_Country": null, "Actor2": "AMIT", "Actor2_Country": "USA", "Code": 40, "Class": 1, "Action_Location": "New Delhi, Delhi, India", "Lat": 28.6, "Long": 77.2, "Timestamp": 20181105014500, "Source": "https://economictimes.indiatimes.com/news/elections/rajasthan-assembly-elections/rajasthan-elections-bjps-list-of-candidates-not-before-november-11/articleshow/66504549.cms"}, {"ID": 800033069, "Actor1": "PRESIDENT", "Actor1_Country": null, "Actor2": "RUSSIA", "Actor2_Country": "RUS", "Code": 114, "Class": 3, "Action_Location": "Russia", "Lat": 60.0, "Long": 100.0, "Timestamp": 20181105014500, "Source": "https://www.dailymail.co.uk/wires/afp/article-6349789/Ahead-vote-Twitter-says-accounts-removed-disinformation.html"}, {"ID": 800033070, "Actor1": "PRESIDENT", "Actor1_Country": null, "Actor2": "SAUDI ARABIA", "Actor2_Country": "SAU", "Code": 112, "Class": 3, "Action_Location": "Riyadh, Ar Riya?, Saudi Arabia", "Lat": 24.6408, "Long": 46.7728, "Timestamp": 20181105014500, "Source": "https://www.timesunion.com/news/crime/article/Report-Saudi-prosecutor-visits-Turkish-13350508.php"}, {"ID": 800033071, "Actor1": "PRINCE", "Actor1_Country": null, "Actor2": "SAUDI ARABIA", "Actor2_Country": "SAU", "Code": 173, "Class": 4, "Action_Location": "Riyadh, Ar Riya?, Saudi Arabia", "Lat": 24.6408, "Long": 46.7728, "Timestamp": 20181105014500, "Source": "https://www.dailymail.co.uk/wires/afp/article-6350159/Saudi-billionaire-prince-Al-Waleeds-brother-freed-detention.html"}, {"ID": 800033073, "Actor1": "EMBASSY", "Actor1_Country": null, "Actor2": "SAUDI ARABIA", "Actor2_Country": "SAU", "Code": 141, "Class": 3, "Action_Location": "Riyadh, Ar Riya?, Saudi Arabia", "Lat": 24.6408, "Long": 46.7728, "Timestamp": 20181105014500, "Source": "https://uk.reuters.com/article/uk-saudi-khashoggi-sons/sons-of-slain-saudi-journalist-khashoggi-appeal-for-return-of-his-body-idUKKCN1NA01Z"}, {"ID": 800033077, "Actor1": "DIPLOMAT", "Actor1_Country": null, "Actor2": "THE US", "Actor2_Country": "USA", "Code": 10, "Class": 1, "Action_Location": "Badme, Gash Barka, Eritrea", "Lat": 14.7275, "Long": 37.8031, "Timestamp": 20181105014500, "Source": "https://www.africaleader.com/news/258241517/un-to-lift-sanctions-on-eritrea-after-us-shift"}, {"ID": 800033078, "Actor1": "GOVERNOR", "Actor1_Country": null, "Actor2": "UNITED STATES", "Actor2_Country": "USA", "Code": 13, "Class": 1, "Action_Location": "Florida, United States", "Lat": 27.8333, "Long": -81.717, "Timestamp": 20181105014500, "Source": "https://www.dailymail.co.uk/wires/ap/article-6349649/Trump-Democrats-vying-support-final-midterm-push.html"}, {"ID": 800033081, "Actor1": "GOVERNOR", "Actor1_Country": null, "Actor2": "UNITED STATES", "Actor2_Country": "USA", "Code": 20, "Class": 1, "Action_Location": "Colorado, United States", "Lat": 39.0646, "Long": -105.327, "Timestamp": 20181105014500, "Source": "https://www.dailymail.co.uk/wires/ap/article-6349689/Health-care-Trump-diverse-stands-Colorado-hopefuls.html"}, {"ID": 800033082, "Actor1": "GOVERNOR", "Actor1_Country": null, "Actor2": "UNITED STATES", "Actor2_Country": "USA", "Code": 20, "Class": 1, "Action_Location": "Colorado, United States", "Lat": 39.0646, "Long": -105.327, "Timestamp": 20181105014500, "Source": "https://www.dailymail.co.uk/wires/ap/article-6349689/Health-care-Trump-diverse-stands-Colorado-hopefuls.html"}, {"ID": 800033095, "Actor1": "PRESIDENT", "Actor1_Country": null, "Actor2": "UNITED STATES", "Actor2_Country": "USA", "Code": 42, "Class": 1, "Action_Location": "Indiana, United States", "Lat": 39.8647, "Long": -86.2604, "Timestamp": 20181105014500, "Source": "https://www.beaumontenterprise.com/news/article/Obama-Trump-clash-in-final-pitches-to-midterm-13361847.php"}, {"ID": 800033099, "Actor1": "MAYOR", "Actor1_Country": null, "Actor2": "UNITED STATES", "Actor2_Country": "USA", "Code": 51, "Class": 1, "Action_Location": "Florida, United States", "Lat": 27.8333, "Long": -81.717, "Timestamp": 20181105014500, "Source": "https://www.thedailybeast.com/sen-bill-nelson-could-ride-the-andrew-gillum-wave-to-victory-in-florida"}, {"ID": 800033101, "Actor1": "GOVERNOR", "Actor1_Country": null, "Actor2": "UNITED STATES", "Actor2_Country": "USA", "Code": 60, "Class": 2, "Action_Location": "Vermont, United States", "Lat": 44.0407, "Long": -72.7093, "Timestamp": 20181105014500, "Source": "https://www.dailymail.co.uk/wires/ap/article-6349689/Health-care-Trump-diverse-stands-Colorado-hopefuls.html"}, {"ID": 800033102, "Actor1": "GOVERNOR", "Actor1_Country": null, "Actor2": "UNITED STATES", "Actor2_Country": "USA", "Code": 60, "Class": 2, "Action_Location": "Vermont, United States", "Lat": 44.0407, "Long": -72.7093, "Timestamp": 20181105014500, "Source": "https://www.dailymail.co.uk/wires/ap/article-6349689/Health-care-Trump-diverse-stands-Colorado-hopefuls.html"}, {"ID": 800033103, "Actor1": "GOVERNOR", "Actor1_Country": null, "Actor2": "UNITED STATES", "Actor2_Country": "USA", "Code": 60, "Class": 2, "Action_Location": "Colorado, United States", "Lat": 39.0646, "Long": -105.327, "Timestamp": 20181105014500, "Source": "https://www.dailymail.co.uk/wires/ap/article-6349689/Health-care-Trump-diverse-stands-Colorado-hopefuls.html"}, {"ID": 800033106, "Actor1": "PRESIDENT", "Actor1_Country": null, "Actor2": "UNITED STATES", "Actor2_Country": "USA", "Code": 112, "Class": 3, "Action_Location": "Missouri, United States", "Lat": 38.4623, "Long": -92.302, "Timestamp": 20181105014500, "Source": "https://slate.com/news-and-politics/2018/11/trump-appears-to-lay-groundwork-to-spin-midterms-i-mostly-focused-on-senate-races.html"}, {"ID": 800033107, "Actor1": "PRESIDENT", "Actor1_Country": null, "Actor2": "MISSOURI", "Actor2_Country": "USA", "Code": 130, "Class": 3, "Action_Location": "Missouri, United States", "Lat": 38.4623, "Long": -92.302, "Timestamp": 20181105014500, "Source": "https://www.dailymail.co.uk/wires/ap/article-6350167/The-Latest-NRA-president-campaigns-GOP-candidate-Hawley.html"}, {"ID": 800033108, "Actor1": "GOVERNOR", "Actor1_Country": null, "Actor2": "UNITED STATES", "Actor2_Country": "USA", "Code": 190, "Class": 4, "Action_Location": "Florida, United States", "Lat": 27.8333, "Long": -81.717, "Timestamp": 20181105014500, "Source": "https://www.dailymail.co.uk/wires/ap/article-6349649/Trump-Democrats-vying-support-final-midterm-push.html"}, {"ID": 800033109, "Actor1": "PRESIDENT", "Actor1_Country": null, "Actor2": "MISSOURI", "Actor2_Country": "USA", "Code": 192, "Class": 4, "Action_Location": "Missouri, United States", "Lat": 38.4623, "Long": -92.302, "Timestamp": 20181105014500, "Source": "https://www.dailymail.co.uk/wires/ap/article-6350167/The-Latest-NRA-president-campaigns-GOP-candidate-Hawley.html"}, {"ID": 800033112, "Actor1": "PRESIDENT", "Actor1_Country": null, "Actor2": "REUTERS", "Actor2_Country": "USA", "Code": 42, "Class": 1, "Action_Location": "Georgia, United States", "Lat": 32.9866, "Long": -83.6487, "Timestamp": 20181105014500, "Source": "https://uk.reuters.com/article/uk-usa-election/trump-obama-tout-clashing-visions-of-u-s-as-elections-near-idUKKCN1N90N3"}, {"ID": 800033113, "Actor1": "PRESIDENT", "Actor1_Country": null, "Actor2": "THE ASSOCIATED PRESS", "Actor2_Country": "USA", "Code": 42, "Class": 1, "Action_Location": "Indiana, United States", "Lat": 39.8647, "Long": -86.2604, "Timestamp": 20181105014500, "Source": "https://www.beaumontenterprise.com/news/article/Obama-Trump-clash-in-final-pitches-to-midterm-13361847.php"}, {"ID": 800033114, "Actor1": "DIPLOMAT", "Actor1_Country": null, "Actor2": "YEMEN", "Actor2_Country": "YEM", "Code": 160, "Class": 4, "Action_Location": "Sanaa, San\u0091a', Yemen", "Lat": 15.3547, "Long": 44.2067, "Timestamp": 20181105014500, "Source": "https://uk.reuters.com/article/uk-yemen-security-britain/britain-pushes-for-u-n-security-council-action-on-yemen-crisis-idUKKCN1NA01T"}, {"ID": 800033115, "Actor1": "DIPLOMAT", "Actor1_Country": null, "Actor2": "YEMEN", "Actor2_Country": "YEM", "Code": 160, "Class": 4, "Action_Location": "United States", "Lat": 39.828175, "Long": -98.5795, "Timestamp": 20181105014500, "Source": "https://uk.reuters.com/article/uk-yemen-security-britain/britain-pushes-for-u-n-security-council-action-on-yemen-crisis-idUKKCN1NA01T"}, {"ID": 800033116, "Actor1": "DIPLOMAT", "Actor1_Country": null, "Actor2": "YEMEN", "Actor2_Country": "YEM", "Code": 160, "Class": 4, "Action_Location": "United States", "Lat": 39.828175, "Long": -98.5795, "Timestamp": 20181105014500, "Source": "https://uk.reuters.com/article/uk-yemen-security-britain/britain-pushes-for-u-n-security-council-action-on-yemen-crisis-idUKKCN1NA01T"}, {"ID": 800033118, "Actor1": "CENTRAL BANK", "Actor1_Country": null, "Actor2": "COMPANY", "Actor2_Country": null, "Code": 50, "Class": 1, "Action_Location": "Lagos, Lagos, Nigeria", "Lat": 6.45306, "Long": 3.39583, "Timestamp": 20181105014500, "Source": "https://www.msn.com/en-my/finance/topstories/hsbc-ubs-shut-nigeria-offices-as-foreign-investment-drops/ar-BBPldrI"}, {"ID": 800033119, "Actor1": "CENTRAL BANK", "Actor1_Country": null, "Actor2": "COMPANY", "Actor2_Country": null, "Code": 50, "Class": 1, "Action_Location": "Lagos, Lagos, Nigeria", "Lat": 6.45306, "Long": 3.39583, "Timestamp": 20181105014500, "Source": "https://www.msn.com/en-my/finance/topstories/hsbc-ubs-shut-nigeria-offices-as-foreign-investment-drops/ar-BBPldrI"}, {"ID": 800033124, "Actor1": "TRANSPORTATION MINIST", "Actor1_Country": null, "Actor2": "COMMUNITY", "Actor2_Country": null, "Code": 51, "Class": 1, "Action_Location": "Vancouver, British Columbia, Canada", "Lat": 49.25, "Long": -123.133, "Timestamp": 20181105014500, "Source": "https://nationalpost.com/pmn/news-pmn/canada-news-pmn/residents-of-b-c-community-displaced-by-slow-moving-landslide-can-return-home"}, {"ID": 800033125, "Actor1": "GOVERNMENT", "Actor1_Country": null, "Actor2": "PROSECUTOR", "Actor2_Country": null, "Code": 190, "Class": 4, "Action_Location": "Riyadh, Ar Riya?, Saudi Arabia", "Lat": 24.6408, "Long": 46.7728, "Timestamp": 20181105014500, "Source": "https://www.timesunion.com/news/crime/article/Report-Saudi-prosecutor-visits-Turkish-13350508.php"}, {"ID": 800033126, "Actor1": "GOVERNMENT", "Actor1_Country": null, "Actor2": "SAUDI ARABIA", "Actor2_Country": "SAU", "Code": 190, "Class": 4, "Action_Location": "Riyadh, Ar Riya?, Saudi Arabia", "Lat": 24.6408, "Long": 46.7728, "Timestamp": 20181105014500, "Source": "https://www.timesunion.com/news/crime/article/Report-Saudi-prosecutor-visits-Turkish-13350508.php"}, {"ID": 800033128, "Actor1": "GREECE", "Actor1_Country": "GRC", "Actor2": "CYPRUS", "Actor2_Country": "CYP", "Code": 51, "Class": 1, "Action_Location": "Greece", "Lat": 39.0, "Long": 22.0, "Timestamp": 20181105014500, "Source": "https://www.rt.com/news/443095-turkey-cyprus-gas-sea-bandits/"}, {"ID": 800033131, "Actor1": "ATHENS", "Actor1_Country": "GRC", "Actor2": "GREEK", "Actor2_Country": "GRC", "Code": 80, "Class": 2, "Action_Location": "Atalanti, Perifereia Stereas Elladas, Greece", "Lat": 38.6511, "Long": 22.9992, "Timestamp": 20181105014500, "Source": "https://www.dailymail.co.uk/wires/ap/article-6349967/More-ancient-statues-graves-unearthed-Greek-field.html"}, {"ID": 800033132, "Actor1": "GREECE", "Actor1_Country": "GRC", "Actor2": "TURKEY", "Actor2_Country": "TUR", "Code": 16, "Class": 1, "Action_Location": "Greece", "Lat": 39.0, "Long": 22.0, "Timestamp": 20181105014500, "Source": "https://www.rt.com/news/443095-turkey-cyprus-gas-sea-bandits/"}, {"ID": 800033134, "Actor1": "GREECE", "Actor1_Country": "GRC", "Actor2": "TURKISH", "Actor2_Country": "TUR", "Code": 16, "Class": 1, "Action_Location": "Greece", "Lat": 39.0, "Long": 22.0, "Timestamp": 20181105014500, "Source": "https://www.rt.com/news/443095-turkey-cyprus-gas-sea-bandits/"}, {"ID": 800033135, "Actor1": "GREECE", "Actor1_Country": "GRC", "Actor2": "TURKEY", "Actor2_Country": "TUR", "Code": 130, "Class": 3, "Action_Location": "Ankara, Ankara, Turkey", "Lat": 39.9272, "Long": 32.8644, "Timestamp": 20181105014500, "Source": "https://www.rt.com/news/443095-turkey-cyprus-gas-sea-bandits/"}, {"ID": 800033136, "Actor1": "GREECE", "Actor1_Country": "GRC", "Actor2": "ANKARA", "Actor2_Country": "TUR", "Code": 130, "Class": 3, "Action_Location": "Ankara, Ankara, Turkey", "Lat": 39.9272, "Long": 32.8644, "Timestamp": 20181105014500, "Source": "https://www.rt.com/news/443095-turkey-cyprus-gas-sea-bandits/"}, {"ID": 800033137, "Actor1": "GREEK", "Actor1_Country": "GRC", "Actor2": "ATHENS", "Actor2_Country": "GRC", "Code": 173, "Class": 4, "Action_Location": "Monastiraki, Perifereia Stereas Elladas, Greece", "Lat": 39.0844, "Long": 21.5833, "Timestamp": 20181105014500, "Source": "https://www.dailymail.co.uk/wires/ap/article-6349847/Greek-police-arrest-man-ancient-column.html"}, {"ID": 800033140, "Actor1": "GUATEMALA", "Actor1_Country": "GTM", "Actor2": "GEORGE SOROS", "Actor2_Country": "USA", "Code": 71, "Class": 2, "Action_Location": "Fronteras, Izabal, Guatemala", "Lat": 15.65, "Long": -89.0, "Timestamp": 20181105014500, "Source": "https://www.independentsentinel.com/12000-migrants-over-300-miles-demand-entry-to-the-usa-as-refugees/"}, {"ID": 800033141, "Actor1": "GUATEMALA", "Actor1_Country": "GTM", "Actor2": "OBAMA", "Actor2_Country": "USA", "Code": 10, "Class": 1, "Action_Location": "Guatemala", "Lat": 15.5, "Long": -90.25, "Timestamp": 20181105014500, "Source": "https://www.dailymail.co.uk/wires/ap/article-6349291/AP-FACT-CHECK-Trumps-distortions-immigration.html"}, {"ID": 800033150, "Actor1": "HOSPITAL", "Actor1_Country": null, "Actor2": "BELGIUM", "Actor2_Country": "BEL", "Code": 42, "Class": 1, "Action_Location": "East Flanders, Region Flamande, Belgium", "Lat": 51.0, "Long": 3.75, "Timestamp": 20181105014500, "Source": "https://www.bbc.co.uk/news/uk-england-leeds-46018891"}, {"ID": 800033170, "Actor1": "EUROPEAN COMMISSION", "Actor1_Country": "EUR", "Actor2": "PRIME MINISTER", "Actor2_Country": null, "Code": 40, "Class": 1, "Action_Location": "London, London, City of, United Kingdom", "Lat": 51.5, "Long": -0.116667, "Timestamp": 20181105014500, "Source": "https://www.dailymail.co.uk/wires/pa/article-6350107/Business-grandees-warn-Brexit-threat-jobs-second-referendum.html"}, {"ID": 800033174, "Actor1": "THE EU", "Actor1_Country": "EUR", "Actor2": "WASHINGTON", "Actor2_Country": "USA", "Code": 110, "Class": 3, "Action_Location": "Washington, District of Columbia, United States", "Lat": 38.8951, "Long": -77.0364, "Timestamp": 20181105014500, "Source": "https://www.onenewspage.com/n/Front+Page/1zjaqpd7zc/Britain-pushes-for-Security-Council-action.htm"}, {"ID": 800033192, "Actor1": "CALCUTTA", "Actor1_Country": "IND", "Actor2": "GOVERNMENT", "Actor2_Country": null, "Code": 20, "Class": 1, "Action_Location": "Calcutta, West Bengal, India", "Lat": 22.5697, "Long": 88.3697, "Timestamp": 20181105014500, "Source": "https://economictimes.indiatimes.com/news/politics-and-nation/segregating-collegium-proposal-cji-ranjan-gogoi-raises-issue-with-pm-modi/articleshow/66504556.cms"}, {"ID": 800033193, "Actor1": "NEW DELHI", "Actor1_Country": "IND", "Actor2": "CENTRAL ELECTION COMMITTEE", "Actor2_Country": null, "Code": 36, "Class": 1, "Action_Location": "New Delhi, Delhi, India", "Lat": 28.6, "Long": 77.2, "Timestamp": 20181105014500, "Source": "https://economictimes.indiatimes.com/news/elections/rajasthan-assembly-elections/rajasthan-elections-bjps-list-of-candidates-not-before-november-11/articleshow/66504549.cms"}, {"ID": 800033203, "Actor1": "WATERFORD", "Actor1_Country": "IRL", "Actor2": "SCHOOL", "Actor2_Country": null, "Code": 42, "Class": 1, "Action_Location": "Dublin, Dublin, Ireland", "Lat": 53.3331, "Long": -6.24889, "Timestamp": 20181105014500, "Source": "https://www.irishexaminer.com/breakingnews/lifestyle/waterford-band-o-emperor-making-a-rock-star-album-on-a-day-job-wage-883095.html"}, {"ID": 800033205, "Actor1": "DUBLIN", "Actor1_Country": "IRL", "Actor2": "UNITED KINGDOM", "Actor2_Country": "GBR", "Code": 13, "Class": 1, "Action_Location": "Dublin, Dublin, Ireland", "Lat": 53.3331, "Long": -6.24889, "Timestamp": 20181105014500, "Source": "https://www.dailymail.co.uk/wires/pa/article-6349309/Brexit-process-undermining-peace-Northern-Ireland-warns-Varadkar.html"}, {"ID": 800033219, "Actor1": "IRANIAN", "Actor1_Country": "IRN", "Actor2": "EMBASSY", "Actor2_Country": null, "Code": 17, "Class": 1, "Action_Location": "United States", "Lat": 39.828175, "Long": -98.5795, "Timestamp": 20181105014500, "Source": "https://www.newsbook.com.mt/artikli/2018/11/04/iranian-marchers-chant-death-to-america-on-eve-of-u-s-oil-sanctions/"}, {"ID": 800033220, "Actor1": "IRAN", "Actor1_Country": "IRN", "Actor2": "EMBASSY", "Actor2_Country": null, "Code": 17, "Class": 1, "Action_Location": "United States", "Lat": 39.828175, "Long": -98.5795, "Timestamp": 20181105014500, "Source": "https://www.newsbook.com.mt/artikli/2018/11/04/iranian-marchers-chant-death-to-america-on-eve-of-u-s-oil-sanctions/"}, {"ID": 800033230, "Actor1": "IRANIAN", "Actor1_Country": "IRN", "Actor2": "UNITED STATES", "Actor2_Country": "USA", "Code": 111, "Class": 3, "Action_Location": "United States", "Lat": 39.828175, "Long": -98.5795, "Timestamp": 20181105014500, "Source": "https://www.newsbook.com.mt/artikli/2018/11/04/iranian-marchers-chant-death-to-america-on-eve-of-u-s-oil-sanctions/"}, {"ID": 800033238, "Actor1": "ISRAEL", "Actor1_Country": "ISR", "Actor2": "IRAN", "Actor2_Country": "IRN", "Code": 51, "Class": 1, "Action_Location": "Tehran, Tehran, Iran", "Lat": 35.75, "Long": 51.5148, "Timestamp": 20181105014500, "Source": "https://www.dailymail.co.uk/wires/ap/article-6349975/Israel-PM-praises-restoration-US-sanctions-Iran.html"}, {"ID": 800033240, "Actor1": "ISRAEL", "Actor1_Country": "ISR", "Actor2": "IRAN", "Actor2_Country": "IRN", "Code": 51, "Class": 1, "Action_Location": "Washington, District of Columbia, United States", "Lat": 38.8951, "Long": -77.0364, "Timestamp": 20181105014500, "Source": "https://www.dailymail.co.uk/wires/afp/article-6350007/Israels-Netanyahu-hails-Trump-Iran-sanctions.html"}, {"ID": 800033243, "Actor1": "ISRAELI", "Actor1_Country": "ISR", "Actor2": "US LEADER", "Actor2_Country": "USA", "Code": 51, "Class": 1, "Action_Location": "Israel", "Lat": 31.5, "Long": 34.75, "Timestamp": 20181105014500, "Source": "https://www.dailymail.co.uk/wires/afp/article-6350007/Israels-Netanyahu-hails-Trump-Iran-sanctions.html"}, {"ID": 800033249, "Actor1": "JEWISH", "Actor1_Country": null, "Actor2": "PALESTINE", "Actor2_Country": "PSE", "Code": 40, "Class": 1, "Action_Location": "Royal Oak, Michigan, United States", "Lat": 42.4895, "Long": -83.1446, "Timestamp": 20181105014500, "Source": "https://www.arabamericannews.com/2009/01/10/News-briefs/?t=1541375155"}, {"ID": 800033250, "Actor1": "JEWISH", "Actor1_Country": null, "Actor2": "PALESTINE", "Actor2_Country": "PSE", "Code": 40, "Class": 1, "Action_Location": "Gaza, Israel (general), Israel", "Lat": 31.4167, "Long": 34.3333, "Timestamp": 20181105014500, "Source": "https://www.arabamericannews.com/2009/01/10/News-briefs/?t=1541375155"}, {"ID": 800033251, "Actor1": "JEWISH", "Actor1_Country": null, "Actor2": "PALESTINE", "Actor2_Country": "PSE", "Code": 40, "Class": 1, "Action_Location": "Royal Oak, Michigan, United States", "Lat": 42.4895, "Long": -83.1446, "Timestamp": 20181105014500, "Source": "https://www.arabamericannews.com/2009/01/10/News-briefs/?t=1541375155"}, {"ID": 800033254, "Actor1": "JEWISH", "Actor1_Country": null, "Actor2": "PITTSBURGH", "Actor2_Country": "USA", "Code": 51, "Class": 1, "Action_Location": "New York, United States", "Lat": 42.1497, "Long": -74.9384, "Timestamp": 20181105014500, "Source": "https://www.dailymail.co.uk/wires/ap/article-6349531/About-100-gather-healing-service-outside-synagogue.html"}, {"ID": 800033255, "Actor1": "JEWISH", "Actor1_Country": null, "Actor2": "UNITED STATES", "Actor2_Country": "USA", "Code": 1121, "Class": 3, "Action_Location": "Bengaluru, Karnataka, India", "Lat": 12.9833, "Long": 77.5833, "Timestamp": 20181105014500, "Source": "https://www.reuters.com/article/us-pennsylvania-shooting-gab/gab-com-back-up-after-week-offline-following-pittsburgh-shooting-idUSKCN1NA01X"}, {"ID": 800033256, "Actor1": "JEWISH", "Actor1_Country": null, "Actor2": "UNITED STATES", "Actor2_Country": "USA", "Code": 1121, "Class": 3, "Action_Location": "New York, United States", "Lat": 42.1497, "Long": -74.9384, "Timestamp": 20181105014500, "Source": "https://www.reuters.com/article/us-pennsylvania-shooting-gab/gab-com-back-up-after-week-offline-following-pittsburgh-shooting-idUSKCN1NA01X"}, {"ID": 800033257, "Actor1": "JEWISH", "Actor1_Country": null, "Actor2": "UNITED STATES", "Actor2_Country": "USA", "Code": 190, "Class": 4, "Action_Location": "New York, United States", "Lat": 42.1497, "Long": -74.9384, "Timestamp": 20181105014500, "Source": "https://www.reuters.com/article/us-pennsylvania-shooting-gab/gab-com-back-up-after-week-offline-following-pittsburgh-shooting-idUSKCN1NA01X"}, {"ID": 800033277, "Actor1": "ADVOCATE", "Actor1_Country": null, "Actor2": "AUSTRALIAN", "Actor2_Country": "AUS", "Code": 51, "Class": 1, "Action_Location": "Marree, South Australia, Australia", "Lat": -29.65, "Long": 138.067, "Timestamp": 20181105014500, "Source": "https://www.stockjournal.com.au/story/5739354/rural-health-ambassador-receives-state-honour/"}, {"ID": 800033280, "Actor1": "DISTRICT COURT", "Actor1_Country": null, "Actor2": "TORONTO", "Actor2_Country": "CAN", "Code": 173, "Class": 4, "Action_Location": "Toronto, Ontario, Canada", "Lat": 43.6667, "Long": -79.4167, "Timestamp": 20181105014500, "Source": "https://www.theherald.com.au/story/5738441/tax-agent-jailed-to-appeal/"}, {"ID": 800033289, "Actor1": "ADVOCATE", "Actor1_Country": null, "Actor2": "GOVERNMENT", "Actor2_Country": null, "Code": 20, "Class": 1, "Action_Location": "Calcutta, West Bengal, India", "Lat": 22.5697, "Long": 88.3697, "Timestamp": 20181105014500, "Source": "https://economictimes.indiatimes.com/news/politics-and-nation/segregating-collegium-proposal-cji-ranjan-gogoi-raises-issue-with-pm-modi/articleshow/66504556.cms"}, {"ID": 800033291, "Actor1": "PROSECUTOR", "Actor1_Country": null, "Actor2": "SAUDI ARABIA", "Actor2_Country": "SAU", "Code": 10, "Class": 1, "Action_Location": "Riyadh, Ar Riya?, Saudi Arabia", "Lat": 24.6408, "Long": 46.7728, "Timestamp": 20181105014500, "Source": "https://www.timesunion.com/news/crime/article/Report-Saudi-prosecutor-visits-Turkish-13350508.php"}, {"ID": 800033292, "Actor1": "PROSECUTOR", "Actor1_Country": null, "Actor2": "SAUDI ARABIA", "Actor2_Country": "SAU", "Code": 1822, "Class": 4, "Action_Location": "Riyadh, Ar Riya?, Saudi Arabia", "Lat": 24.6408, "Long": 46.7728, "Timestamp": 20181105014500, "Source": "https://www.timesunion.com/news/crime/article/Report-Saudi-prosecutor-visits-Turkish-13350508.php"}, {"ID": 800033293, "Actor1": "PROSECUTOR", "Actor1_Country": null, "Actor2": "SAUDI ARABIA", "Actor2_Country": "SAU", "Code": 190, "Class": 4, "Action_Location": "Riyadh, Ar Riya?, Saudi Arabia", "Lat": 24.6408, "Long": 46.7728, "Timestamp": 20181105014500, "Source": "https://www.timesunion.com/news/crime/article/Report-Saudi-prosecutor-visits-Turkish-13350508.php"}, {"ID": 800033309, "Actor1": "SEOUL", "Actor1_Country": "KOR", "Actor2": "HUMAN RIGHTS WATCH", "Actor2_Country": null, "Code": 186, "Class": 4, "Action_Location": "Seoul, Soul-t'ukpyolsi, South Korea", "Lat": 37.5664, "Long": 127.0, "Timestamp": 20181105014500, "Source": "https://www.timesunion.com/news/crime/article/Women-in-N-Korea-suffer-serious-sexual-abuse-but-13353144.php"}, {"ID": 800033310, "Actor1": "SEOUL", "Actor1_Country": "KOR", "Actor2": "HUMAN RIGHTS WATCH", "Actor2_Country": null, "Code": 186, "Class": 4, "Action_Location": "United States", "Lat": 39.828175, "Long": -98.5795, "Timestamp": 20181105014500, "Source": "https://www.timesunion.com/news/crime/article/Women-in-N-Korea-suffer-serious-sexual-abuse-but-13353144.php"}, {"ID": 800033311, "Actor1": "SEOUL", "Actor1_Country": "KOR", "Actor2": "HUMAN RIGHTS WATCH", "Actor2_Country": null, "Code": 186, "Class": 4, "Action_Location": "North Korea", "Lat": 40.0, "Long": 127.0, "Timestamp": 20181105014500, "Source": "https://www.timesunion.com/news/crime/article/Women-in-N-Korea-suffer-serious-sexual-abuse-but-13353144.php"}, {"ID": 800033315, "Actor1": "SOUTH KOREA", "Actor1_Country": "KOR", "Actor2": "NORTH KOREA", "Actor2_Country": "PRK", "Code": 36, "Class": 1, "Action_Location": "Seoul, Soul-t'ukpyolsi, South Korea", "Lat": 37.5664, "Long": 127.0, "Timestamp": 20181105014500, "Source": "https://www.timesunion.com/news/world/article/S-Korea-s-Moon-N-Korean-leader-Kim-to-visit-13353081.php"}, {"ID": 800033316, "Actor1": "SOUTH KOREA", "Actor1_Country": "KOR", "Actor2": "NORTH KOREA", "Actor2_Country": "PRK", "Code": 80, "Class": 2, "Action_Location": "Pyongyang, P'yongyang-si, North Korea", "Lat": 39.0194, "Long": 125.755, "Timestamp": 20181105014500, "Source": "https://www.timesunion.com/news/world/article/S-Korea-s-Moon-N-Korean-leader-Kim-to-visit-13353081.php"}, {"ID": 800033328, "Actor1": "WORKER", "Actor1_Country": null, "Actor2": "THOMSON REUTERS", "Actor2_Country": "CAN", "Code": 13, "Class": 1, "Action_Location": "Siem Reap, K\u00e2al, Cambodia", "Lat": 11.3996, "Long": 104.864, "Timestamp": 20181105014500, "Source": "https://www.thestar.com.my/business/smebiz/2018/11/05/the-cambodian-textile-factory-that-craves-normal/"}, {"ID": 800033329, "Actor1": "WORKER", "Actor1_Country": null, "Actor2": "THOMSON REUTERS", "Actor2_Country": "CAN", "Code": 13, "Class": 1, "Action_Location": "Siem Reap, K\u00e2al, Cambodia", "Lat": 11.3996, "Long": 104.864, "Timestamp": 20181105014500, "Source": "https://www.thestar.com.my/business/smebiz/2018/11/05/the-cambodian-textile-factory-that-craves-normal/"}, {"ID": 800033330, "Actor1": "WORKER", "Actor1_Country": null, "Actor2": "THOMSON REUTERS", "Actor2_Country": "CAN", "Code": 13, "Class": 1, "Action_Location": "Netherlands", "Lat": 52.5, "Long": 5.75, "Timestamp": 20181105014500, "Source": "https://www.thestar.com.my/business/smebiz/2018/11/05/the-cambodian-textile-factory-that-craves-normal/"}, {"ID": 800033333, "Actor1": "EMPLOYEE", "Actor1_Country": null, "Actor2": "NEW ORLEANS", "Actor2_Country": "USA", "Code": 40, "Class": 1, "Action_Location": "Denver, Colorado, United States", "Lat": 39.7392, "Long": -104.985, "Timestamp": 20181105014500, "Source": "https://www.beaumontenterprise.com/news/world/article/New-Orleans-restaurateur-aims-for-inclusivity-in-13361571.php"}, {"ID": 800033351, "Actor1": "SENATOR", "Actor1_Country": null, "Actor2": "CIVILIAN", "Actor2_Country": null, "Code": 164, "Class": 4, "Action_Location": "Riyadh, Ar Riya?, Saudi Arabia", "Lat": 24.6408, "Long": 46.7728, "Timestamp": 20181105014500, "Source": "https://www.theaustralian.com.au/news/latest-news/us-call-to-stop-saudi-nuclear-energy-talks/news-story/8ac574e15a209784a346d7e45613be01?nk=470775680444fb9be035adfa1825031b-1541381515"}, {"ID": 800033355, "Actor1": "SENATOR", "Actor1_Country": null, "Actor2": "PRESIDENT", "Actor2_Country": null, "Code": 20, "Class": 1, "Action_Location": "Riyadh, Ar Riya?, Saudi Arabia", "Lat": 24.6408, "Long": 46.7728, "Timestamp": 20181105014500, "Source": "https://www.theaustralian.com.au/news/latest-news/us-call-to-stop-saudi-nuclear-energy-talks/news-story/8ac574e15a209784a346d7e45613be01?nk=470775680444fb9be035adfa1825031b-1541381515"}, {"ID": 800033359, "Actor1": "SENATOR", "Actor1_Country": null, "Actor2": "SAUDI ARABIA", "Actor2_Country": "SAU", "Code": 46, "Class": 1, "Action_Location": "Riyadh, Ar Riya?, Saudi Arabia", "Lat": 24.6408, "Long": 46.7728, "Timestamp": 20181105014500, "Source": "https://www.theaustralian.com.au/news/latest-news/us-call-to-stop-saudi-nuclear-energy-talks/news-story/8ac574e15a209784a346d7e45613be01?nk=470775680444fb9be035adfa1825031b-1541381515"}, {"ID": 800033360, "Actor1": "SENATOR", "Actor1_Country": null, "Actor2": "SAUDI ARABIA", "Actor2_Country": "SAU", "Code": 20, "Class": 1, "Action_Location": "Riyadh, Ar Riya?, Saudi Arabia", "Lat": 24.6408, "Long": 46.7728, "Timestamp": 20181105014500, "Source": "https://www.theaustralian.com.au/news/latest-news/us-call-to-stop-saudi-nuclear-energy-talks/news-story/8ac574e15a209784a346d7e45613be01?nk=470775680444fb9be035adfa1825031b-1541381515"}, {"ID": 800033362, "Actor1": "SENATOR", "Actor1_Country": null, "Actor2": "UNITED STATES", "Actor2_Country": "USA", "Code": 10, "Class": 1, "Action_Location": "Florida, United States", "Lat": 27.8333, "Long": -81.717, "Timestamp": 20181105014500, "Source": "https://www.thedailybeast.com/sen-bill-nelson-could-ride-the-andrew-gillum-wave-to-victory-in-florida"}, {"ID": 800033365, "Actor1": "SENATE", "Actor1_Country": null, "Actor2": "AMERICAN", "Actor2_Country": "USA", "Code": 43, "Class": 1, "Action_Location": "Missouri, United States", "Lat": 38.4623, "Long": -92.302, "Timestamp": 20181105014500, "Source": "https://www.dailymail.co.uk/wires/ap/article-6349379/Democrat-McCaskill-reaches-right-GOP-leaning-Missouri.html"}, {"ID": 800033367, "Actor1": "SENATE", "Actor1_Country": null, "Actor2": "UNITED STATES", "Actor2_Country": "USA", "Code": 51, "Class": 1, "Action_Location": "Indianapolis, Indiana, United States", "Lat": 39.7684, "Long": -86.158, "Timestamp": 20181105014500, "Source": "https://www.beaumontenterprise.com/news/article/Trump-slams-Indiana-Democratic-ads-touting-13361075.php"}, {"ID": 800033368, "Actor1": "SENATE", "Actor1_Country": null, "Actor2": "UNITED STATES", "Actor2_Country": "USA", "Code": 51, "Class": 1, "Action_Location": "Indianapolis, Indiana, United States", "Lat": 39.7684, "Long": -86.158, "Timestamp": 20181105014500, "Source": "https://www.beaumontenterprise.com/news/article/Trump-slams-Indiana-Democratic-ads-touting-13361075.php"}, {"ID": 800033369, "Actor1": "SENATE", "Actor1_Country": null, "Actor2": "UNITED STATES", "Actor2_Country": "USA", "Code": 51, "Class": 1, "Action_Location": "Missouri, United States", "Lat": 38.4623, "Long": -92.302, "Timestamp": 20181105014500, "Source": "https://www.dailymail.co.uk/wires/ap/article-6349379/Democrat-McCaskill-reaches-right-GOP-leaning-Missouri.html"}, {"ID": 800033371, "Actor1": "SENATE", "Actor1_Country": null, "Actor2": "UNITED STATES", "Actor2_Country": "USA", "Code": 173, "Class": 4, "Action_Location": "Wisconsin, United States", "Lat": 44.2563, "Long": -89.6385, "Timestamp": 20181105014500, "Source": "https://www.irishexaminer.com/breakingnews/views/analysis/divided-by-hate-will-us-voters-turn-the-tide-883141.html"}, {"ID": 800033396, "Actor1": "NEWSPAPER", "Actor1_Country": null, "Actor2": "CORPORATION", "Actor2_Country": null, "Code": 70, "Class": 2, "Action_Location": "Illinois, United States", "Lat": 40.3363, "Long": -89.0022, "Timestamp": 20181105014500, "Source": "https://www.beaumontenterprise.com/news/article/8216-A-very-grand-gesture-8217-Elijah-P-13362320.php"}, {"ID": 800033397, "Actor1": "NEWSPAPER", "Actor1_Country": null, "Actor2": "CORPORATION", "Actor2_Country": null, "Code": 70, "Class": 2, "Action_Location": "Mississippi, United States", "Lat": 32.7673, "Long": -89.6812, "Timestamp": 20181105014500, "Source": "https://www.beaumontenterprise.com/news/article/8216-A-very-grand-gesture-8217-Elijah-P-13362320.php"}, {"ID": 800033400, "Actor1": "PUBLICATION", "Actor1_Country": null, "Actor2": "ATACAMA DESERT", "Actor2_Country": "CHL", "Code": 10, "Class": 1, "Action_Location": "Chile", "Lat": -30.0, "Long": -71.0, "Timestamp": 20181105014500, "Source": "http://www.qatar-tribune.com/Latest-News/ArtMID/423/ArticleID/20046"}, {"ID": 800033406, "Actor1": "MAGAZINE", "Actor1_Country": null, "Actor2": "STUDENT", "Actor2_Country": null, "Code": 51, "Class": 1, "Action_Location": "Florida, United States", "Lat": 27.8333, "Long": -81.717, "Timestamp": 20181105014500, "Source": "https://www.kmov.com/months-after-massacre-parkland-victims-vote-for-first-time/article_989c22c3-4ed2-5f45-9426-c88be3c30029.html"}, {"ID": 800033413, "Actor1": "SPOKESMAN", "Actor1_Country": null, "Actor2": "THOMSON REUTERS", "Actor2_Country": "CAN", "Code": 10, "Class": 1, "Action_Location": "London, London, City of, United Kingdom", "Lat": 51.5, "Long": -0.116667, "Timestamp": 20181105014500, "Source": "https://www.freemalaysiatoday.com/category/business/2018/11/05/high-flying-women-are-closing-the-pay-gap-with-men/"}, {"ID": 800033414, "Actor1": "SPOKESMAN", "Actor1_Country": null, "Actor2": "THOMSON REUTERS", "Actor2_Country": "CAN", "Code": 13, "Class": 1, "Action_Location": "London, London, City of, United Kingdom", "Lat": 51.5, "Long": -0.116667, "Timestamp": 20181105014500, "Source": "https://www.freemalaysiatoday.com/category/business/2018/11/05/high-flying-women-are-closing-the-pay-gap-with-men/"},