[{"ID": 800075644, "Actor1": "PRIME MINISTER", "Actor1_Country": null, "Actor2": "ISRAEL", "Actor2_Country": "ISR", "Code": 14, "Class": 1, "Action_Location": "Israel", "Lat": 31.5, "Long": 34.75, "Timestamp": 20181105071500, "Source": "https://www.charlotteobserver.com/news/business/national-business/article221132835.html"}, {"ID": 800075646, "Actor1": "ISRAEL", "Actor1_Country": "ISR", "Actor2": "CABINET", "Actor2_Country": null, "Code": 14, "Class": 1, "Action_Location": "Israel", "Lat": 31.5, "Long": 34.75, "Timestamp": 20181105071500, "Source": "https://www.charlotteobserver.com/news/business/national-business/article221132835.html"}, {"ID": 800075658, "Actor1": "INDONESIAN", "Actor1_Country": "IDN", "Actor2": "INDONESIA", "Actor2_Country": "IDN", "Code": 13, "Class": 1, "Action_Location": "Indonesia", "Lat": -5.0, "Long": 120.0, "Timestamp": 20181105071500, "Source": "https://www.charlotteobserver.com/news/business/national-business/article221132835.html"}, {"ID": 800075880, "Actor1": "ARGENTINA", "Actor1_Country": "ARG", "Actor2": "CHINA", "Actor2_Country": "CHN", "Code": 36, "Class": 1, "Action_Location": "Beijing, Beijing, China", "Lat": 39.9289, "Long": 116.388, "Timestamp": 20181105071500, "Source": "https://www.cnn.com/2018/11/05/asia/xi-jinping-shanghai-trade-us-intl/"}, {"ID": 800075881, "Actor1": "ARGENTINA", "Actor1_Country": "ARG", "Actor2": "CHINA", "Actor2_Country": "CHN", "Code": 40, "Class": 1, "Action_Location": "Beijing, Beijing, China", "Lat": 39.9289, "Long": 116.388, "Timestamp": 20181105071500, "Source": "https://www.cnn.com/2018/11/05/asia/xi-jinping-shanghai-trade-us-intl/"}, {"ID": 800075908, "Actor1": "AUSTRALIA", "Actor1_Country": "AUS", "Actor2": "COMMUNITY", "Actor2_Country": null, "Code": 12, "Class": 1, "Action_Location": "Sydney, New South Wales, Australia", "Lat": -33.8833, "Long": 151.217, "Timestamp": 20181105071500, "Source": "https://www.brisbanetimes.com.au/politics/federal/sharma-in-doubt-for-election-amid-questions-over-turnbull-s-help-20181105-p50e59.html"}, {"ID": 800075918, "Actor1": "AUSTRALIA", "Actor1_Country": "AUS", "Actor2": "GREECE", "Actor2_Country": "GRC", "Code": 13, "Class": 1, "Action_Location": "Athens, Attik\u00edR, Greece", "Lat": 37.9833, "Long": 23.7333, "Timestamp": 20181105071500, "Source": "https://www.dailymail.co.uk/news/article-6353407/Teen-son-slain-gangster-John-Macris-scared-travel-Greece-fathers-funeral.html"}, {"ID": 800075919, "Actor1": "AUSTRALIA", "Actor1_Country": "AUS", "Actor2": "GREECE", "Actor2_Country": "GRC", "Code": 18, "Class": 1, "Action_Location": "Sydney, New South Wales, Australia", "Lat": -33.8833, "Long": 151.217, "Timestamp": 20181105071500, "Source": "https://www.dailymail.co.uk/news/article-6353407/Teen-son-slain-gangster-John-Macris-scared-travel-Greece-fathers-funeral.html"}, {"ID": 800075921, "Actor1": "AUSTRALIA", "Actor1_Country": "AUS", "Actor2": "GREECE", "Actor2_Country": "GRC", "Code": 130, "Class": 3, "Action_Location": "Athens, Attik\u00edR, Greece", "Lat": 37.9833, "Long": 23.7333, "Timestamp": 20181105071500, "Source": "https://www.dailymail.co.uk/news/article-6353407/Teen-son-slain-gangster-John-Macris-scared-travel-Greece-fathers-funeral.html"}, {"ID": 800075922, "Actor1": "AUSTRALIA", "Actor1_Country": "AUS", "Actor2": "INDONESIA", "Actor2_Country": "IDN", "Code": 57, "Class": 1, "Action_Location": "Australia", "Lat": -25.0, "Long": 135.0, "Timestamp": 20181105071500, "Source": "https://www.charlotteobserver.com/news/business/national-business/article221132835.html"}, {"ID": 800075923, "Actor1": "AUSTRALIA", "Actor1_Country": "AUS", "Actor2": "INDONESIA", "Actor2_Country": "IDN", "Code": 57, "Class": 1, "Action_Location": "Australia", "Lat": -25.0, "Long": 135.0, "Timestamp": 20181105071500, "Source": "https://www.charlotteobserver.com/news/business/national-business/article221132835.html"}, {"ID": 800076004, "Actor1": "INVESTOR", "Actor1_Country": null, "Actor2": "GOVERNMENT", "Actor2_Country": null, "Code": 13, "Class": 1, "Action_Location": "Beijing, Beijing, China", "Lat": 39.9289, "Long": 116.388, "Timestamp": 20181105071500, "Source": "https://www.cnn.com/2018/11/05/asia/xi-jinping-shanghai-trade-us-intl/"}, {"ID": 800076058, "Actor1": "CHINA", "Actor1_Country": "CHN", "Actor2": "ARGENTINA", "Actor2_Country": "ARG", "Code": 10, "Class": 1, "Action_Location": "Argentina", "Lat": -34.0, "Long": -64.0, "Timestamp": 20181105071500, "Source": "https://www.cnn.com/2018/11/05/asia/xi-jinping-shanghai-trade-us-intl/"}, {"ID": 800076059, "Actor1": "CHINA", "Actor1_Country": "CHN", "Actor2": "ARGENTINA", "Actor2_Country": "ARG", "Code": 36, "Class": 1, "Action_Location": "Beijing, Beijing, China", "Lat": 39.9289, "Long": 116.388, "Timestamp": 20181105071500, "Source": "https://www.cnn.com/2018/11/05/asia/xi-jinping-shanghai-trade-us-intl/"}, {"ID": 800076060, "Actor1": "CHINA", "Actor1_Country": "CHN", "Actor2": "ARGENTINA", "Actor2_Country": "ARG", "Code": 40, "Class": 1, "Action_Location": "Beijing, Beijing, China", "Lat": 39.9289, "Long": 116.388, "Timestamp": 20181105071500, "Source": "https://www.cnn.com/2018/11/05/asia/xi-jinping-shanghai-trade-us-intl/"}, {"ID": 800076068, "Actor1": "CHINESE", "Actor1_Country": "CHN", "Actor2": "DELEGATE", "Actor2_Country": null, "Code": 10, "Class": 1, "Action_Location": "Beijing, Beijing, China", "Lat": 39.9289, "Long": 116.388, "Timestamp": 20181105071500, "Source": "https://kxlh.com/cnn-asia-pacific/2018/11/04/chinas-xi-jinping-slams-winner-takes-all-approach-to-trade/"}, {"ID": 800076070, "Actor1": "CHINA", "Actor1_Country": "CHN", "Actor2": "DELEGATE", "Actor2_Country": null, "Code": 13, "Class": 1, "Action_Location": "Beijing, Beijing, China", "Lat": 39.9289, "Long": 116.388, "Timestamp": 20181105071500, "Source": "https://kxlh.com/cnn-asia-pacific/2018/11/04/chinas-xi-jinping-slams-winner-takes-all-approach-to-trade/"}, {"ID": 800076073, "Actor1": "BEIJING", "Actor1_Country": "CHN", "Actor2": "THE ASIA SOCIETY", "Actor2_Country": "ASA", "Code": 10, "Class": 1, "Action_Location": "Beijing, Beijing, China", "Lat": 39.9289, "Long": 116.388, "Timestamp": 20181105071500, "Source": "https://www.cnn.com/2018/11/05/asia/xi-jinping-shanghai-trade-us-intl/"}, {"ID": 800076080, "Actor1": "CHINA", "Actor1_Country": "CHN", "Actor2": "US GOVERNMENT", "Actor2_Country": "USA", "Code": 42, "Class": 1, "Action_Location": "Beijing, Beijing, China", "Lat": 39.9289, "Long": 116.388, "Timestamp": 20181105071500, "Source": "https://www.cnn.com/2018/11/05/asia/xi-jinping-shanghai-trade-us-intl/"}, {"ID": 800076081, "Actor1": "XI JINPING", "Actor1_Country": "CHN", "Actor2": "CHINESE", "Actor2_Country": "CHN", "Code": 60, "Class": 2, "Action_Location": "Beijing, Beijing, China", "Lat": 39.9289, "Long": 116.388, "Timestamp": 20181105071500, "Source": "https://www.cnn.com/2018/11/05/asia/xi-jinping-shanghai-trade-us-intl/"}, {"ID": 800076154, "Actor1": "CRIMINAL", "Actor1_Country": null, "Actor2": "IMMIGRANT", "Actor2_Country": null, "Code": 130, "Class": 3, "Action_Location": "White House, District of Columbia, United States", "Lat": 38.8951, "Long": -77.0364, "Timestamp": 20181105071500, "Source": "https://kxlh.com/cnn-us-politics/2018/11/04/america-votes-tuesday-heres-whats-at-stake/"}, {"ID": 800076155, "Actor1": "CRIMINAL", "Actor1_Country": null, "Actor2": "IMMIGRANT", "Actor2_Country": null, "Code": 130, "Class": 3, "Action_Location": "Russia", "Lat": 60.0, "Long": 100.0, "Timestamp": 20181105071500, "Source": "https://kxlh.com/cnn-us-politics/2018/11/04/america-votes-tuesday-heres-whats-at-stake/"}, {"ID": 800076156, "Actor1": "CRIMINAL", "Actor1_Country": null, "Actor2": "IMMIGRANT", "Actor2_Country": null, "Code": 180, "Class": 4, "Action_Location": "Georgia, United States", "Lat": 32.9866, "Long": -83.6487, "Timestamp": 20181105071500, "Source": "https://kxlh.com/cnn-us-politics/2018/11/04/america-votes-tuesday-heres-whats-at-stake/"}, {"ID": 800076158, "Actor1": "GANGSTER", "Actor1_Country": null, "Actor2": "GREECE", "Actor2_Country": "GRC", "Code": 42, "Class": 1, "Action_Location": "Albania", "Lat": 41.0, "Long": 20.0, "Timestamp": 20181105071500, "Source": "https://www.dailymail.co.uk/news/article-6353407/Teen-son-slain-gangster-John-Macris-scared-travel-Greece-fathers-funeral.html"}, {"ID": 800076212, "Actor1": "ENGINEER", "Actor1_Country": null, "Actor2": "UNITED STATES", "Actor2_Country": "USA", "Code": 190, "Class": 4, "Action_Location": "Philadelphia, Pennsylvania, United States", "Lat": 39.9523, "Long": -75.1638, "Timestamp": 20181105071500, "Source": "https://www.thetelegraph.com/news/article/Path-to-power-House-races-to-watch-on-election-13362719.php"}, {"ID": 800076290, "Actor1": "RETIRED", "Actor1_Country": null, "Actor2": "UNITED STATES", "Actor2_Country": "USA", "Code": 190, "Class": 4, "Action_Location": "Washington, United States", "Lat": 47.3917, "Long": -121.571, "Timestamp": 20181105071500, "Source": "https://www.thetelegraph.com/news/article/Path-to-power-House-races-to-watch-on-election-13362719.php"}, {"ID": 800076449, "Actor1": "FIRE DEPARTMENT", "Actor1_Country": null, "Actor2": "BORDER PATROL", "Actor2_Country": null, "Code": 90, "Class": 2, "Action_Location": "Uvalde, Texas, United States", "Lat": 29.2097, "Long": -99.7862, "Timestamp": 20181105071500, "Source": "https://www.cbsnews.com/news/newlyweds-will-byler-bailee-ackerman-byler-reportedly-die-texas-helicopter-crash-leaving-their-wedding/"}, {"ID": 800076452, "Actor1": "PRESIDENT", "Actor1_Country": null, "Actor2": "IMMIGRANT", "Actor2_Country": null, "Code": 130, "Class": 3, "Action_Location": "White House, District of Columbia, United States", "Lat": 38.8951, "Long": -77.0364, "Timestamp": 20181105071500, "Source": "https://kxlh.com/cnn-us-politics/2018/11/04/america-votes-tuesday-heres-whats-at-stake/"}, {"ID": 800076454, "Actor1": "PRESIDENT", "Actor1_Country": null, "Actor2": "IMMIGRANT", "Actor2_Country": null, "Code": 130, "Class": 3, "Action_Location": "Russia", "Lat": 60.0, "Long": 100.0, "Timestamp": 20181105071500, "Source": "https://kxlh.com/cnn-us-politics/2018/11/04/america-votes-tuesday-heres-whats-at-stake/"}, {"ID": 800076456, "Actor1": "PRESIDENT", "Actor1_Country": null, "Actor2": "IMMIGRANT", "Actor2_Country": null, "Code": 180, "Class": 4, "Action_Location": "Georgia, United States", "Lat": 32.9866, "Long": -83.6487, "Timestamp": 20181105071500, "Source": "https://kxlh.com/cnn-us-politics/2018/11/04/america-votes-tuesday-heres-whats-at-stake/"}, {"ID": 800076466, "Actor1": "PRESIDENT", "Actor1_Country": null, "Actor2": "FRANCE", "Actor2_Country": "FRA", "Code": 173, "Class": 4, "Action_Location": "France", "Lat": 46.0, "Long": 2.0, "Timestamp": 20181105071500, "Source": "https://www.cnn.com/travel/article/tower-of-london-world-war-i-remembrance-day/"}, {"ID": 800076481, "Actor1": "GOVERNMENT OFFICIAL", "Actor1_Country": null, "Actor2": "IRAN", "Actor2_Country": "IRN", "Code": 30, "Class": 1, "Action_Location": "Tehran, Tehran, Iran", "Lat": 35.75, "Long": 51.5148, "Timestamp": 20181105071500, "Source": "https://www.thetelegraph.com/news/world/article/As-US-sanctions-resume-Iran-starts-annual-air-13362689.php"}, {"ID": 800076500, "Actor1": "PRIME MINISTER", "Actor1_Country": null, "Actor2": "PAKISTAN", "Actor2_Country": "PAK", "Code": 42, "Class": 1, "Action_Location": "Beijing, Beijing, China", "Lat": 39.9289, "Long": 116.388, "Timestamp": 20181105071500, "Source": "https://newsmakers.pk/prime-minister-imran-khan-meets-minister-of-international-department-of-the-cpc-central-committee/"}, {"ID": 800076521, "Actor1": "PRESIDENT", "Actor1_Country": null, "Actor2": "NEW YORK", "Actor2_Country": "USA", "Code": 10, "Class": 1, "Action_Location": "Florida, United States", "Lat": 27.8333, "Long": -81.717, "Timestamp": 20181105071500, "Source": "http://www.rockymounttelegram.com/Columnists/2018/11/05/Groups-like-HIAS-show-America-at-its-best.html"}, {"ID": 800076526, "Actor1": "PRESIDENT", "Actor1_Country": null, "Actor2": "UNITED STATES", "Actor2_Country": "USA", "Code": 20, "Class": 1, "Action_Location": "Indiana, United States", "Lat": 39.8647, "Long": -86.2604, "Timestamp": 20181105071500, "Source": "https://kxlh.com/cnn-us-politics/2018/11/04/america-votes-tuesday-heres-whats-at-stake/"}, {"ID": 800076532, "Actor1": "GOVERNOR", "Actor1_Country": null, "Actor2": "UNITED STATES", "Actor2_Country": "USA", "Code": 51, "Class": 1, "Action_Location": "Texas, United States", "Lat": 31.106, "Long": -97.6475, "Timestamp": 20181105071500, "Source": "https://www.texastribune.org/2018/11/04/texas-ken-paxton-campaign-justin-nelson-texas-attorney-general-tight/"}, {"ID": 800076536, "Actor1": "PRESIDENT", "Actor1_Country": null, "Actor2": "UNITED STATES", "Actor2_Country": "USA", "Code": 180, "Class": 4, "Action_Location": "Grant Park, Illinois, United States", "Lat": 41.2411, "Long": -87.6461, "Timestamp": 20181105071500, "Source": "https://kxlh.com/cnn-us-politics/2018/11/04/america-votes-tuesday-heres-whats-at-stake/"}, {"ID": 800076569, "Actor1": "ATHENS", "Actor1_Country": "GRC", "Actor2": "ALBANIA", "Actor2_Country": "ALB", "Code": 190, "Class": 4, "Action_Location": "Athens, Attik\u00edR, Greece", "Lat": 37.9833, "Long": 23.7333, "Timestamp": 20181105071500, "Source": "https://www.dailymail.co.uk/news/article-6353407/Teen-son-slain-gangster-John-Macris-scared-travel-Greece-fathers-funeral.html"}, {"ID": 800076572, "Actor1": "GREECE", "Actor1_Country": "GRC", "Actor2": "AUSTRALIA", "Actor2_Country": "AUS", "Code": 17, "Class": 1, "Action_Location": "Athens, Attik\u00edR, Greece", "Lat": 37.9833, "Long": 23.7333, "Timestamp": 20181105071500, "Source": "https://www.dailymail.co.uk/news/article-6353407/Teen-son-slain-gangster-John-Macris-scared-travel-Greece-fathers-funeral.html"}, {"ID": 800076573, "Actor1": "ATHENS", "Actor1_Country": "GRC", "Actor2": "SYDNEY", "Actor2_Country": "AUS", "Code": 193, "Class": 4, "Action_Location": "Voula, Perifereia Attikis, Greece", "Lat": 37.8422, "Long": 23.7765, "Timestamp": 20181105071500, "Source": "https://www.dailymail.co.uk/news/article-6353407/Teen-son-slain-gangster-John-Macris-scared-travel-Greece-fathers-funeral.html"}, {"ID": 800076575, "Actor1": "GREECE", "Actor1_Country": "GRC", "Actor2": "AUSTRALIA", "Actor2_Country": "AUS", "Code": 193, "Class": 4, "Action_Location": "Mykonos, Perifereia Notiou Aigaiou, Greece", "Lat": 37.45, "Long": 25.3333, "Timestamp": 20181105071500, "Source": "https://www.dailymail.co.uk/news/article-6353407/Teen-son-slain-gangster-John-Macris-scared-travel-Greece-fathers-funeral.html"}, {"ID": 800076576, "Actor1": "GREECE", "Actor1_Country": "GRC", "Actor2": "AUSTRALIA", "Actor2_Country": "AUS", "Code": 193, "Class": 4, "Action_Location": "Voula, Perifereia Attikis, Greece", "Lat": 37.8422, "Long": 23.7765, "Timestamp": 20181105071500, "Source": "https://www.dailymail.co.uk/news/article-6353407/Teen-son-slain-gangster-John-Macris-scared-travel-Greece-fathers-funeral.html"}, {"ID": 800076577, "Actor1": "GREECE", "Actor1_Country": "GRC", "Actor2": "GANGSTER", "Actor2_Country": null, "Code": 43, "Class": 1, "Action_Location": "Athens, Attik\u00edR, Greece", "Lat": 37.9833, "Long": 23.7333, "Timestamp": 20181105071500, "Source": "https://www.dailymail.co.uk/news/article-6353407/Teen-son-slain-gangster-John-Macris-scared-travel-Greece-fathers-funeral.html"}, {"ID": 800076580, "Actor1": "GREECE", "Actor1_Country": "GRC", "Actor2": "GREECE", "Actor2_Country": "GRC", "Code": 43, "Class": 1, "Action_Location": "Athens, Attik\u00edR, Greece", "Lat": 37.9833, "Long": 23.7333, "Timestamp": 20181105071500, "Source": "https://www.dailymail.co.uk/news/article-6353407/Teen-son-slain-gangster-John-Macris-scared-travel-Greece-fathers-funeral.html"}, {"ID": 800076585, "Actor1": "GREECE", "Actor1_Country": "GRC", "Actor2": "GREECE", "Actor2_Country": "GRC", "Code": 42, "Class": 1, "Action_Location": "Voula, Perifereia Attikis, Greece", "Lat": 37.8422, "Long": 23.7765, "Timestamp": 20181105071500, "Source": "https://www.dailymail.co.uk/news/article-6353407/Teen-son-slain-gangster-John-Macris-scared-travel-Greece-fathers-funeral.html"}, {"ID": 800076611, "Actor1": "INDONESIA", "Actor1_Country": "IDN", "Actor2": "AUSTRALIA", "Actor2_Country": "AUS", "Code": 311, "Class": 1, "Action_Location": "Indonesia", "Lat": -5.0, "Long": 120.0, "Timestamp": 20181105071500, "Source": "https://www.charlotteobserver.com/news/business/national-business/article221132835.html"}, {"ID": 800076612, "Actor1": "INDONESIA", "Actor1_Country": "IDN", "Actor2": "AUSTRALIA", "Actor2_Country": "AUS", "Code": 311, "Class": 1, "Action_Location": "Australia", "Lat": -25.0, "Long": 135.0, "Timestamp": 20181105071500, "Source": "https://www.charlotteobserver.com/news/business/national-business/article221132835.html"}, {"ID": 800076613, "Actor1": "INDONESIA", "Actor1_Country": "IDN", "Actor2": "AUSTRALIA", "Actor2_Country": "AUS", "Code": 57, "Class": 1, "Action_Location": "Israel", "Lat": 31.5, "Long": 34.75, "Timestamp": 20181105071500, "Source": "https://www.charlotteobserver.com/news/business/national-business/article221132835.html"}, {"ID": 800076621, "Actor1": "JAKARTA", "Actor1_Country": "IDN", "Actor2": "BOEING", "Actor2_Country": "USA", "Code": 46, "Class": 1, "Action_Location": "Jakarta, Jakarta Raya, Indonesia", "Lat": -6.17444, "Long": 106.829, "Timestamp": 20181105071500, "Source": "https://www.myplainview.com/news/world/article/The-Latest-Object-thought-to-be-Lion-jet-at-13350305.php"}, {"ID": 800076747, "Actor1": "HASSAN", "Actor1_Country": "JOR", "Actor2": "IRAN", "Actor2_Country": "IRN", "Code": 30, "Class": 1, "Action_Location": "Tehran, Tehran, Iran", "Lat": 35.75, "Long": 51.5148, "Timestamp": 20181105071500, "Source": "https://www.thetelegraph.com/news/world/article/As-US-sanctions-resume-Iran-starts-annual-air-13362689.php"}, {"ID": 800076748, "Actor1": "HASSAN", "Actor1_Country": "JOR", "Actor2": "IRAN", "Actor2_Country": "IRN", "Code": 51, "Class": 1, "Action_Location": "Tehran, Tehran, Iran", "Lat": 35.75, "Long": 51.5148, "Timestamp": 20181105071500, "Source": "https://www.jpost.com/International/Rouhani-defiant-in-the-face-of-renewed-US-sanctions-571090"}, {"ID": 800076749, "Actor1": "HASSAN", "Actor1_Country": "JOR", "Actor2": "IRAN", "Actor2_Country": "IRN", "Code": 163, "Class": 4, "Action_Location": "United States", "Lat": 39.828175, "Long": -98.5795, "Timestamp": 20181105071500, "Source": "https://www.theweek.in/wire-updates/international/2018/11/05/fgn10-iran-sanctions-rouhani.html"}, {"ID": 800076794, "Actor1": "LAWYER", "Actor1_Country": null, "Actor2": "PAKISTAN", "Actor2_Country": "PAK", "Code": 111, "Class": 3, "Action_Location": "Islamabad, Islamabad, Pakistan", "Lat": 33.7, "Long": 73.1667, "Timestamp": 20181105071500, "Source": "https://www.thestar.com.my/news/world/2018/11/05/twitter-suspends-account-of-hardline-cleric-on-pakistan-governments-request/"}, {"ID": 800076843, "Actor1": "SRI LANKAN", "Actor1_Country": "LKA", "Actor2": "GOVERNMENT", "Actor2_Country": null, "Code": 172, "Class": 4, "Action_Location": "Yaounde, Centre, Cameroon", "Lat": 3.86667, "Long": 11.5167, "Timestamp": 20181105071500, "Source": "http://news.trust.org/item/20181105060315-9x0ef/"}, {"ID": 800076846, "Actor1": "SRI LANKAN", "Actor1_Country": "LKA", "Actor2": "GOVERNMENT", "Actor2_Country": null, "Code": 172, "Class": 4, "Action_Location": "Yaounde, Centre, Cameroon", "Lat": 3.86667, "Long": 11.5167, "Timestamp": 20181105071500, "Source": "http://news.trust.org/item/20181105060315-9x0ef/"}, {"ID": 800076889, "Actor1": "MEXICO", "Actor1_Country": "MEX", "Actor2": "UNITED STATES", "Actor2_Country": "USA", "Code": 43, "Class": 1, "Action_Location": "Georgia, United States", "Lat": 32.9866, "Long": -83.6487, "Timestamp": 20181105071500, "Source": "https://kxlh.com/cnn-us-politics/2018/11/04/america-votes-tuesday-heres-whats-at-stake/"}, {"ID": 800076890, "Actor1": "MEXICO", "Actor1_Country": "MEX", "Actor2": "UNITED STATES", "Actor2_Country": "USA", "Code": 43, "Class": 1, "Action_Location": "Georgia, United States", "Lat": 32.9866, "Long": -83.6487, "Timestamp": 20181105071500, "Source": "https://kxlh.com/cnn-us-politics/2018/11/04/america-votes-tuesday-heres-whats-at-stake/"}, {"ID": 800076891, "Actor1": "MEXICO", "Actor1_Country": "MEX", "Actor2": "THE US", "Actor2_Country": "USA", "Code": 72, "Class": 2, "Action_Location": "San Salvador, San Salvador, El Salvador", "Lat": 13.7086, "Long": -89.2031, "Timestamp": 20181105071500, "Source": "https://www.adelaidenow.com.au/lifestyle/why-these-people-are-too-scared-to-live-in-their-own-neighbourhood/news-story/8bf0304259530f3bc09ae304e854b3f6?nk=87fe43d017f22f4be88ee8140d4427b9-1541401392"}, {"ID": 800076914, "Actor1": "MILITARY", "Actor1_Country": null, "Actor2": "CHRISTIAN", "Actor2_Country": null, "Code": 112, "Class": 3, "Action_Location": "Canada", "Lat": 60.0, "Long": -96.0, "Timestamp": 20181105071500, "Source": "https://www.thestar.com.my/news/world/2018/11/05/twitter-suspends-account-of-hardline-cleric-on-pakistan-governments-request/"}, {"ID": 800077063, "Actor1": "PAKISTAN", "Actor1_Country": "PAK", "Actor2": "PRIME MINISTER", "Actor2_Country": null, "Code": 43, "Class": 1, "Action_Location": "Beijing, Beijing, China", "Lat": 39.9289, "Long": 116.388, "Timestamp": 20181105071500, "Source": "https://newsmakers.pk/prime-minister-imran-khan-meets-minister-of-international-department-of-the-cpc-central-committee/"}, {"ID": 800077079, "Actor1": "PAKISTAN", "Actor1_Country": "PAK", "Actor2": "SUPREME COURT", "Actor2_Country": null, "Code": 13, "Class": 1, "Action_Location": "Islamabad, Islamabad, Pakistan", "Lat": 33.7, "Long": 73.1667, "Timestamp": 20181105071500, "Source": "https://www.thestar.com.my/news/world/2018/11/05/twitter-suspends-account-of-hardline-cleric-on-pakistan-governments-request/"}, {"ID": 800077091, "Actor1": "PAKISTAN", "Actor1_Country": "PAK", "Actor2": "THE ASSOCIATED PRESS", "Actor2_Country": "USA", "Code": 10, "Class": 1, "Action_Location": "Islamabad, Islamabad, Pakistan", "Lat": 33.7, "Long": 73.1667, "Timestamp": 20181105071500, "Source": "https://www.myplainview.com/news/crime/article/Pakistani-court-acquits-Christian-facing-death-13350302.php"}, {"ID": 800077092, "Actor1": "PAKISTAN", "Actor1_Country": "PAK", "Actor2": "REUTERS", "Actor2_Country": "USA", "Code": 10, "Class": 1, "Action_Location": "Canada", "Lat": 60.0, "Long": -96.0, "Timestamp": 20181105071500, "Source": "https://www.thestar.com.my/news/world/2018/11/05/twitter-suspends-account-of-hardline-cleric-on-pakistan-governments-request/"}, {"ID": 800077209, "Actor1": "SAUDI", "Actor1_Country": "SAU", "Actor2": "SAUDI ARABIA", "Actor2_Country": "SAU", "Code": 10, "Class": 1, "Action_Location": "Saudi Arabia", "Lat": 25.0, "Long": 45.0, "Timestamp": 20181105071500, "Source": "https://www.worldbulletin.net/middle-east/khashoggi-s-sons-appeal-for-father-s-body-return-h206990.html"}, {"ID": 800077222, "Actor1": "SALVADOREAN", "Actor1_Country": "SLV", "Actor2": "SAN SALVADOR", "Actor2_Country": "SLV", "Code": 20, "Class": 1, "Action_Location": "Cojutepeque, Cuscatl\u00e1ES, El Salvador", "Lat": 13.7167, "Long": -88.9333, "Timestamp": 20181105071500, "Source": "https://www.adelaidenow.com.au/lifestyle/why-these-people-are-too-scared-to-live-in-their-own-neighbourhood/news-story/8bf0304259530f3bc09ae304e854b3f6?nk=87fe43d017f22f4be88ee8140d4427b9-1541401392"}, {"ID": 800077340, "Actor1": "UNITED STATES", "Actor1_Country": "USA", "Actor2": "BORDER PATROL", "Actor2_Country": null, "Code": 90, "Class": 2, "Action_Location": "Uvalde, Texas, United States", "Lat": 29.2097, "Long": -99.7862, "Timestamp": 20181105071500, "Source": "https://www.cbsnews.com/news/newlyweds-will-byler-bailee-ackerman-byler-reportedly-die-texas-helicopter-crash-leaving-their-wedding/"}, {"ID": 800077359, "Actor1": "UNITED STATES", "Actor1_Country": "USA", "Actor2": "ENGINEER", "Actor2_Country": null, "Code": 190, "Class": 4, "Action_Location": "Philadelphia, Pennsylvania, United States", "Lat": 39.9523, "Long": -75.1638, "Timestamp": 20181105071500, "Source": "https://www.thetelegraph.com/news/article/Path-to-power-House-races-to-watch-on-election-13362719.php"}, {"ID": 800077374, "Actor1": "UNITED STATES", "Actor1_Country": "USA", "Actor2": "RETIRED", "Actor2_Country": null, "Code": 190, "Class": 4, "Action_Location": "Washington, United States", "Lat": 47.3917, "Long": -121.571, "Timestamp": 20181105071500, "Source": "https://www.thetelegraph.com/news/article/Path-to-power-House-races-to-watch-on-election-13362719.php"}, {"ID": 800077391, "Actor1": "UNITED STATES", "Actor1_Country": "USA", "Actor2": "GOVERNMENT", "Actor2_Country": null, "Code": 51, "Class": 1, "Action_Location": "Tehran, Tehran, Iran", "Lat": 35.75, "Long": 51.5148, "Timestamp": 20181105071500, "Source": "https://www.thetelegraph.com/news/world/article/As-US-sanctions-resume-Iran-starts-annual-air-13362689.php"}, {"ID": 800077406, "Actor1": "UNITED STATES", "Actor1_Country": "USA", "Actor2": "IRAN", "Actor2_Country": "IRN", "Code": 110, "Class": 3, "Action_Location": "Tehran, Tehran, Iran", "Lat": 35.75, "Long": 51.5148, "Timestamp": 20181105071500, "Source": "https://www.dailysabah.com/energy/2018/11/05/as-us-sanctions-resume-rouhani-vows-to-keep-selling-oil"}, {"ID": 800077411, "Actor1": "UNITED STATES", "Actor1_Country": "USA", "Actor2": "IRANIAN", "Actor2_Country": "IRN", "Code": 130, "Class": 3, "Action_Location": "White House, District of Columbia, United States", "Lat": 38.8951, "Long": -77.0364, "Timestamp": 20181105071500, "Source": "https://www.middleeastmonitor.com/20181105-iranian-official-to-trump-your-end-will-be-like-saddam-hussein/"}, {"ID": 800077412, "Actor1": "UNITED STATES", "Actor1_Country": "USA", "Actor2": "IRAN", "Actor2_Country": "IRN", "Code": 130, "Class": 3, "Action_Location": "Tehran, Tehran, Iran", "Lat": 35.75, "Long": 51.5148, "Timestamp": 20181105071500, "Source": "https://www.middleeastmonitor.com/20181105-iranian-official-to-trump-your-end-will-be-like-saddam-hussein/"}, {"ID": 800077424, "Actor1": "UNITED STATES", "Actor1_Country": "USA", "Actor2": "MEDIA", "Actor2_Country": null, "Code": 30, "Class": 1, "Action_Location": "Clermont County, Ohio, United States", "Lat": 39.0501, "Long": -84.1499, "Timestamp": 20181105071500, "Source": "https://reviewtimes.com/ohio-news/2018/11/05/county-working-to-find-why-sirens-are-going-off-unexpectedly/"}, {"ID": 800077429, "Actor1": "UNITED STATES", "Actor1_Country": "USA", "Actor2": "MEXICO", "Actor2_Country": "MEX", "Code": 42, "Class": 1, "Action_Location": "Georgia, United States", "Lat": 32.9866, "Long": -83.6487, "Timestamp": 20181105071500, "Source": "https://kxlh.com/cnn-us-politics/2018/11/04/america-votes-tuesday-heres-whats-at-stake/"}, {"ID": 800077430, "Actor1": "UNITED STATES", "Actor1_Country": "USA", "Actor2": "MEXICO", "Actor2_Country": "MEX", "Code": 42, "Class": 1, "Action_Location": "Georgia, United States", "Lat": 32.9866, "Long": -83.6487, "Timestamp": 20181105071500, "Source": "https://kxlh.com/cnn-us-politics/2018/11/04/america-votes-tuesday-heres-whats-at-stake/"}, {"ID": 800077445, "Actor1": "UNITED STATES", "Actor1_Country": "USA", "Actor2": "MILITANT", "Actor2_Country": null, "Code": 51, "Class": 1, "Action_Location": "Washington, District of Columbia, United States", "Lat": 38.8951, "Long": -77.0364, "Timestamp": 20181105071500, "Source": "https://www.thetelegraph.com/news/world/article/As-US-sanctions-resume-Iran-starts-annual-air-13362689.php"}, {"ID": 800077454, "Actor1": "UNITED STATES", "Actor1_Country": "USA", "Actor2": "UNITED STATES", "Actor2_Country": "USA", "Code": 10, "Class": 1, "Action_Location": "White House, District of Columbia, United States", "Lat": 38.8951, "Long": -77.0364, "Timestamp": 20181105071500, "Source": "https://www.middleeastmonitor.com/20181105-iranian-official-to-trump-your-end-will-be-like-saddam-hussein/"}, {"ID": 800077462, "Actor1": "UNITED STATES", "Actor1_Country": "USA", "Actor2": "BARACK OBAMA", "Actor2_Country": "USA", "Code": 190, "Class": 4, "Action_Location": "White House, District of Columbia, United States", "Lat": 38.8951, "Long": -77.0364, "Timestamp": 20181105071500, "Source": "https://www.telegraph.co.uk/news/2018/11/05/donald-trump-barack-obama-lay-clashing-visions-us-elections/"}, {"ID": 800077469, "Actor1": "UNITED STATES", "Actor1_Country": "USA", "Actor2": "WALL STREET JOURNAL", "Actor2_Country": "USA", "Code": 40, "Class": 1, "Action_Location": "San Salvador, San Salvador, El Salvador", "Lat": 13.7086, "Long": -89.2031, "Timestamp": 20181105071500, "Source": "https://www.adelaidenow.com.au/lifestyle/why-these-people-are-too-scared-to-live-in-their-own-neighbourhood/news-story/8bf0304259530f3bc09ae304e854b3f6?nk=87fe43d017f22f4be88ee8140d4427b9-1541401392"}, {"ID": 800077495, "Actor1": "US GOVERNMENT", "Actor1_Country": "USA", "Actor2": "CHINA", "Actor2_Country": "CHN", "Code": 43, "Class": 1, "Action_Location": "Shanghai, Shanghai, China", "Lat": 31.2222, "Long": 121.458, "Timestamp": 20181105071500, "Source": "https://www.cnn.com/2018/11/05/asia/xi-jinping-shanghai-trade-us-intl/"}, {"ID": 800077500, "Actor1": "THE WHITE HOUSE", "Actor1_Country": "USA", "Actor2": "IRANIAN", "Actor2_Country": "IRN", "Code": 130, "Class": 3, "Action_Location": "Tehran, Tehran, Iran", "Lat": 35.75, "Long": 51.5148, "Timestamp": 20181105071500, "Source": "https://www.middleeastmonitor.com/20181105-iranian-official-to-trump-your-end-will-be-like-saddam-hussein/"}, {"ID": 800077505, "Actor1": "THE WHITE HOUSE", "Actor1_Country": "USA", "Actor2": "AMERICAN", "Actor2_Country": "USA", "Code": 10, "Class": 1, "Action_Location": "Tehran, Tehran, Iran", "Lat": 35.75, "Long": 51.5148, "Timestamp": 20181105071500, "Source": "https://www.middleeastmonitor.com/20181105-iranian-official-to-trump-your-end-will-be-like-saddam-hussein/"}, {"ID": 800077529, "Actor1": "ASSOCIATED PRESS", "Actor1_Country": "USA", "Actor2": "UNITED ARAB EMIRATES", "Actor2_Country": "ARE", "Code": 70, "Class": 2, "Action_Location": "Dubai, Dubayy, United Arab Emirates", "Lat": 25.2522, "Long": 55.28, "Timestamp": 20181105071500, "Source": "https://www.thetelegraph.com/news/world/article/As-US-sanctions-resume-Iran-starts-annual-air-13362689.php"}, {"ID": 800077530, "Actor1": "ASSOCIATED PRESS", "Actor1_Country": "USA", "Actor2": "DUBAI", "Actor2_Country": "ARE", "Code": 70, "Class": 2, "Action_Location": "Dubai, Dubayy, United Arab Emirates", "Lat": 25.2522, "Long": 55.28, "Timestamp": 20181105071500, "Source": "https://www.thetelegraph.com/news/world/article/As-US-sanctions-resume-Iran-starts-annual-air-13362689.php"}]