[{"ID": 800045059, "Actor1": "BANGLADESH", "Actor1_Country": "BGD", "Actor2": "MYANMAR", "Actor2_Country": "MMR", "Code": 841, "Class": 2, "Action_Location": "Balukhali, Chittagong, Bangladesh", "Lat": 21.1345, "Long": 92.1833, "Timestamp": 20181105031500, "Source": "http://www.mizzima.com/article/refugee-teen-injured-firing-bangladesh-myanmar-border"}, {"ID": 800045063, "Actor1": "MYANMAR", "Actor1_Country": "MMR", "Actor2": "BANGLADESH", "Actor2_Country": "BGD", "Code": 10, "Class": 1, "Action_Location": "Balukhali, Chittagong, Bangladesh", "Lat": 21.1345, "Long": 92.1833, "Timestamp": 20181105031500, "Source": "http://www.mizzima.com/article/refugee-teen-injured-firing-bangladesh-myanmar-border"}, {"ID": 800045205, "Actor1": "BANGLADESH", "Actor1_Country": "BGD", "Actor2": "BANGLADESH", "Actor2_Country": "BGD", "Code": 13, "Class": 1, "Action_Location": "Balukhali, Chittagong, Bangladesh", "Lat": 21.1345, "Long": 92.1833, "Timestamp": 20181105031500, "Source": "http://www.mizzima.com/article/refugee-teen-injured-firing-bangladesh-myanmar-border"}, {"ID": 800045206, "Actor1": "BANGLADESH", "Actor1_Country": "BGD", "Actor2": "MYANMAR", "Actor2_Country": "MMR", "Code": 32, "Class": 1, "Action_Location": "Balukhali, Chittagong, Bangladesh", "Lat": 21.1345, "Long": 92.1833, "Timestamp": 20181105031500, "Source": "http://www.mizzima.com/article/refugee-teen-injured-firing-bangladesh-myanmar-border"}, {"ID": 800045207, "Actor1": "BANGLADESH", "Actor1_Country": "BGD", "Actor2": "REFUGEE", "Actor2_Country": null, "Code": 182, "Class": 4, "Action_Location": "Balukhali, Chittagong, Bangladesh", "Lat": 21.1345, "Long": 92.1833, "Timestamp": 20181105031500, "Source": "http://www.mizzima.com/article/refugee-teen-injured-firing-bangladesh-myanmar-border"}, {"ID": 800045208, "Actor1": "BANGLADESH", "Actor1_Country": "BGD", "Actor2": "REFUGEE", "Actor2_Country": null, "Code": 193, "Class": 4, "Action_Location": "Balukhali, Chittagong, Bangladesh", "Lat": 21.1345, "Long": 92.1833, "Timestamp": 20181105031500, "Source": "http://www.mizzima.com/article/refugee-teen-injured-firing-bangladesh-myanmar-border"}, {"ID": 800045235, "Actor1": "INDUSTRY", "Actor1_Country": null, "Actor2": "CHINESE", "Actor2_Country": "CHN", "Code": 43, "Class": 1, "Action_Location": "Beijing, Beijing, China", "Lat": 39.9289, "Long": 116.388, "Timestamp": 20181105031500, "Source": "https://www.nytimes.com/reuters/2018/11/04/technology/04reuters-usa-justice-china-fujianjinhua.html"}, {"ID": 800045241, "Actor1": "PRODUCER", "Actor1_Country": null, "Actor2": "THE US", "Actor2_Country": "USA", "Code": 36, "Class": 1, "Action_Location": "Iraq", "Lat": 33.0, "Long": 44.0, "Timestamp": 20181105031500, "Source": "https://www.dawn.com/news/1443662/oil-market-on-alert-as-iran-sanctions-loom"}, {"ID": 800045270, "Actor1": "CHINESE", "Actor1_Country": "CHN", "Actor2": "INDUSTRY", "Actor2_Country": null, "Code": 42, "Class": 1, "Action_Location": "Shanghai, Shanghai, China", "Lat": 31.2222, "Long": 121.458, "Timestamp": 20181105031500, "Source": "https://www.nytimes.com/reuters/2018/11/04/technology/04reuters-usa-justice-china-fujianjinhua.html"}, {"ID": 800045272, "Actor1": "CHINA", "Actor1_Country": "CHN", "Actor2": "FUJIAN", "Actor2_Country": "CHN", "Code": 71, "Class": 2, "Action_Location": "Jinjiang, Hunan, China", "Lat": 25.4167, "Long": 112.719, "Timestamp": 20181105031500, "Source": "https://www.nytimes.com/reuters/2018/11/04/technology/04reuters-usa-justice-china-fujianjinhua.html"}, {"ID": 800045342, "Actor1": "CUBA", "Actor1_Country": "CUB", "Actor2": "PYONGYANG", "Actor2_Country": "PRK", "Code": 42, "Class": 1, "Action_Location": "Laos", "Lat": 18.0, "Long": 105.0, "Timestamp": 20181105031500, "Source": "https://www.washingtonpost.com/world/the_americas/cuban-president-meets-north-koreas-kim-jong-un-in-pyongyang/2018/11/04/ea5cc39e-e09f-11e8-ba30-a7ded04d8fac_story.html"}, {"ID": 800045343, "Actor1": "CUBA", "Actor1_Country": "CUB", "Actor2": "PYONGYANG", "Actor2_Country": "PRK", "Code": 42, "Class": 1, "Action_Location": "Ukraine", "Lat": 49.0, "Long": 32.0, "Timestamp": 20181105031500, "Source": "https://www.informnny.com/news/world-news/cuban-president-meets-north-koreas-kim-jong-un-in-pyongyang/1573222622"}, {"ID": 800045344, "Actor1": "CUBA", "Actor1_Country": "CUB", "Actor2": "PYONGYANG", "Actor2_Country": "PRK", "Code": 42, "Class": 1, "Action_Location": "Moscow, Moskva, Russia", "Lat": 55.7522, "Long": 37.6156, "Timestamp": 20181105031500, "Source": "https://www.informnny.com/news/world-news/cuban-president-meets-north-koreas-kim-jong-un-in-pyongyang/1573222622"}, {"ID": 800045347, "Actor1": "CUBAN", "Actor1_Country": "CUB", "Actor2": "NORTH KOREA", "Actor2_Country": "PRK", "Code": 40, "Class": 1, "Action_Location": "Moscow, Moskva, Russia", "Lat": 55.7522, "Long": 37.6156, "Timestamp": 20181105031500, "Source": "https://www.informnny.com/news/world-news/cuban-president-meets-north-koreas-kim-jong-un-in-pyongyang/1573222622"}, {"ID": 800045367, "Actor1": "CITIZEN", "Actor1_Country": null, "Actor2": "SECURITY OFFICIAL", "Actor2_Country": null, "Code": 10, "Class": 1, "Action_Location": "Washington, District of Columbia, United States", "Lat": 38.8951, "Long": -77.0364, "Timestamp": 20181105031500, "Source": "https://www.wral.com/kemp-cites-voter-database-hacking-attempt-gives-no-evidence/17969938/"}, {"ID": 800045368, "Actor1": "CITIZEN", "Actor1_Country": null, "Actor2": "SECURITY OFFICIAL", "Actor2_Country": null, "Code": 10, "Class": 1, "Action_Location": "Washington, District of Columbia, United States", "Lat": 38.8951, "Long": -77.0364, "Timestamp": 20181105031500, "Source": "https://www.chieftain.com/news/in-georgia-th-hour-daggers-over-voting-system/article_45ea58d6-8993-50b0-a2c5-442489d1ac23.html"}, {"ID": 800045369, "Actor1": "CITIZEN", "Actor1_Country": null, "Actor2": "SECURITY OFFICIAL", "Actor2_Country": null, "Code": 10, "Class": 1, "Action_Location": "Washington, District of Columbia, United States", "Lat": 38.8951, "Long": -77.0364, "Timestamp": 20181105031500, "Source": "https://www.wral.com/kemp-cites-voter-database-hacking-attempt-gives-no-evidence/17969938/"}, {"ID": 800045370, "Actor1": "CITIZEN", "Actor1_Country": null, "Actor2": "SECURITY OFFICIAL", "Actor2_Country": null, "Code": 10, "Class": 1, "Action_Location": "Georgia, United States", "Lat": 32.9866, "Long": -83.6487, "Timestamp": 20181105031500, "Source": "https://www.stl.news/atlanta-in-georgia-11th-hour-daggers-over-voting-system/203801/"}, {"ID": 800045371, "Actor1": "CITIZEN", "Actor1_Country": null, "Actor2": "SECURITY OFFICIAL", "Actor2_Country": null, "Code": 70, "Class": 2, "Action_Location": "Georgia, United States", "Lat": 32.9866, "Long": -83.6487, "Timestamp": 20181105031500, "Source": "https://www.wral.com/kemp-cites-voter-database-hacking-attempt-gives-no-evidence/17969938/"}, {"ID": 800045386, "Actor1": "CITIZEN", "Actor1_Country": null, "Actor2": "DEMOCRATIC PARTY", "Actor2_Country": null, "Code": 10, "Class": 1, "Action_Location": "Kennesaw State University, Georgia, United States", "Lat": 34.0382, "Long": -84.5841, "Timestamp": 20181105031500, "Source": "https://www.stl.news/atlanta-in-georgia-11th-hour-daggers-over-voting-system/203801/"}, {"ID": 800045387, "Actor1": "CITIZEN", "Actor1_Country": null, "Actor2": "DEMOCRATIC PARTY", "Actor2_Country": null, "Code": 10, "Class": 1, "Action_Location": "Washington, District of Columbia, United States", "Lat": 38.8951, "Long": -77.0364, "Timestamp": 20181105031500, "Source": "https://www.wral.com/kemp-cites-voter-database-hacking-attempt-gives-no-evidence/17969938/"}, {"ID": 800045399, "Actor1": "COMMUNITY", "Actor1_Country": null, "Actor2": "UNITED STATES", "Actor2_Country": "USA", "Code": 190, "Class": 4, "Action_Location": "Wisconsin, United States", "Lat": 44.2563, "Long": -89.6385, "Timestamp": 20181105031500, "Source": "https://kstp.com/national/the-latest-girl-scouts-ceo-says-hearts-broken-over-crash/5133385/?cat=162"}, {"ID": 800045406, "Actor1": "CITIZEN", "Actor1_Country": null, "Actor2": "UNITED STATES", "Actor2_Country": "USA", "Code": 10, "Class": 1, "Action_Location": "Kennesaw State University, Georgia, United States", "Lat": 34.0382, "Long": -84.5841, "Timestamp": 20181105031500, "Source": "https://www.stl.news/atlanta-in-georgia-11th-hour-daggers-over-voting-system/203801/"}, {"ID": 800045407, "Actor1": "CITIZEN", "Actor1_Country": null, "Actor2": "UNITED STATES", "Actor2_Country": "USA", "Code": 10, "Class": 1, "Action_Location": "Washington, District of Columbia, United States", "Lat": 38.8951, "Long": -77.0364, "Timestamp": 20181105031500, "Source": "https://www.wral.com/kemp-cites-voter-database-hacking-attempt-gives-no-evidence/17969938/"}, {"ID": 800045408, "Actor1": "CITIZEN", "Actor1_Country": null, "Actor2": "UNITED STATES", "Actor2_Country": "USA", "Code": 10, "Class": 1, "Action_Location": "Georgia, United States", "Lat": 32.9866, "Long": -83.6487, "Timestamp": 20181105031500, "Source": "https://www.stl.news/atlanta-in-georgia-11th-hour-daggers-over-voting-system/203801/"}, {"ID": 800045461, "Actor1": "SCHOOL", "Actor1_Country": null, "Actor2": "UNITED STATES", "Actor2_Country": "USA", "Code": 42, "Class": 1, "Action_Location": "Halmstad Elementary School, Wisconsin, United States", "Lat": 44.9144, "Long": -91.3793, "Timestamp": 20181105031500, "Source": "https://kstp.com/national/the-latest-girl-scouts-ceo-says-hearts-broken-over-crash/5133385/?cat=162"}, {"ID": 800045469, "Actor1": "EGYPTIAN", "Actor1_Country": "EGY", "Actor2": "MILITANT", "Actor2_Country": null, "Code": 193, "Class": 4, "Action_Location": "Cairo, Al Qahirah, Egypt", "Lat": 30.05, "Long": 31.25, "Timestamp": 20181105031500, "Source": "http://currenthollywood.com/2018/11/egypt-kills-isis-militants-suspected-in-attack-on-christians/"}, {"ID": 800045472, "Actor1": "EGYPTIAN", "Actor1_Country": "EGY", "Actor2": "MILITANT", "Actor2_Country": null, "Code": 193, "Class": 4, "Action_Location": "Cairo, Al Qahirah, Egypt", "Lat": 30.05, "Long": 31.25, "Timestamp": 20181105031500, "Source": "http://currenthollywood.com/2018/11/egypt-kills-isis-militants-suspected-in-attack-on-christians/"}, {"ID": 800045496, "Actor1": "BRITAIN", "Actor1_Country": "GBR", "Actor2": "UNITED STATES", "Actor2_Country": "USA", "Code": 60, "Class": 2, "Action_Location": "United Kingdom", "Lat": 54.0, "Long": -4.0, "Timestamp": 20181105031500, "Source": "https://en.trend.az/world/europe/2975430.html"}, {"ID": 800045505, "Actor1": "GHANA", "Actor1_Country": "GHA", "Actor2": "GHANA", "Actor2_Country": "GHA", "Code": 20, "Class": 1, "Action_Location": "Ghana", "Lat": 8.0, "Long": -2.0, "Timestamp": 20181105031500, "Source": "https://www.ghanaweb.com/GhanaHomePage/business/Forex-Bureau-directives-must-be-properly-implemented-Audio-report-697935"}, {"ID": 800045532, "Actor1": "CHIEF EXECUTIVE", "Actor1_Country": null, "Actor2": "INDUSTRY", "Actor2_Country": null, "Code": 10, "Class": 1, "Action_Location": "Oakland, California, United States", "Lat": 37.8044, "Long": -122.271, "Timestamp": 20181105031500, "Source": "https://indianexpress.com/article/business/companies/why-do-you-fire-so-many-americans-tcs-faces-us-jury-5434196/"}, {"ID": 800045535, "Actor1": "CHIEF EXECUTIVE", "Actor1_Country": null, "Actor2": "INDUSTRY", "Actor2_Country": null, "Code": 20, "Class": 1, "Action_Location": "Oakland, California, United States", "Lat": 37.8044, "Long": -122.271, "Timestamp": 20181105031500, "Source": "https://indianexpress.com/article/business/companies/why-do-you-fire-so-many-americans-tcs-faces-us-jury-5434196/"}, {"ID": 800045536, "Actor1": "CHIEF EXECUTIVE", "Actor1_Country": null, "Actor2": "INDUSTRY", "Actor2_Country": null, "Code": 20, "Class": 1, "Action_Location": "Oakland, California, United States", "Lat": 37.8044, "Long": -122.271, "Timestamp": 20181105031500, "Source": "https://indianexpress.com/article/business/companies/why-do-you-fire-so-many-americans-tcs-faces-us-jury-5434196/"}, {"ID": 800045537, "Actor1": "COMMERCE DEPARTMENT", "Actor1_Country": null, "Actor2": "COMPANIES", "Actor2_Country": null, "Code": 172, "Class": 4, "Action_Location": "Shanghai, Shanghai, China", "Lat": 31.2222, "Long": 121.458, "Timestamp": 20181105031500, "Source": "https://www.nytimes.com/reuters/2018/11/04/technology/04reuters-usa-justice-china-fujianjinhua.html"}, {"ID": 800045538, "Actor1": "COMMERCE DEPARTMENT", "Actor1_Country": null, "Actor2": "CHINESE", "Actor2_Country": "CHN", "Code": 12, "Class": 1, "Action_Location": "Beijing, Beijing, China", "Lat": 39.9289, "Long": 116.388, "Timestamp": 20181105031500, "Source": "https://www.nytimes.com/reuters/2018/11/04/technology/04reuters-usa-justice-china-fujianjinhua.html"}, {"ID": 800045540, "Actor1": "GOVERNANCE", "Actor1_Country": null, "Actor2": "VOTER", "Actor2_Country": null, "Code": 10, "Class": 1, "Action_Location": "Georgia, United States", "Lat": 32.9866, "Long": -83.6487, "Timestamp": 20181105031500, "Source": "https://www.wral.com/kemp-cites-voter-database-hacking-attempt-gives-no-evidence/17969938/"}, {"ID": 800045545, "Actor1": "GOVERNANCE", "Actor1_Country": null, "Actor2": "VOTER", "Actor2_Country": null, "Code": 111, "Class": 3, "Action_Location": "Georgia, United States", "Lat": 32.9866, "Long": -83.6487, "Timestamp": 20181105031500, "Source": "https://www.wral.com/kemp-cites-voter-database-hacking-attempt-gives-no-evidence/17969938/"}, {"ID": 800045562, "Actor1": "MINIST", "Actor1_Country": null, "Actor2": "JERUSALEM", "Actor2_Country": "ISR", "Code": 172, "Class": 4, "Action_Location": "Jerusalem, Israel (general), Israel", "Lat": 31.7667, "Long": 35.2333, "Timestamp": 20181105031500, "Source": "https://www.dawn.com/news/1443666/israel-raids-office-of-jerusalems-palestinian-governor"}, {"ID": 800045563, "Actor1": "MINISTRY", "Actor1_Country": null, "Actor2": "ISRAELI", "Actor2_Country": "ISR", "Code": 190, "Class": 4, "Action_Location": "Jerusalem, Israel (general), Israel", "Lat": 31.7667, "Long": 35.2333, "Timestamp": 20181105031500, "Source": "https://www.dawn.com/news/1443666/israel-raids-office-of-jerusalems-palestinian-governor"}, {"ID": 800045581, "Actor1": "GOVERNOR", "Actor1_Country": null, "Actor2": "UNITED STATES", "Actor2_Country": "USA", "Code": 14, "Class": 1, "Action_Location": "Anchorage, Alaska, United States", "Lat": 61.2181, "Long": -149.9, "Timestamp": 20181105031500, "Source": "https://www.charlotteobserver.com/news/politics-government/national-politics/article221116125.html"}, {"ID": 800045667, "Actor1": "ISRAEL", "Actor1_Country": "ISR", "Actor2": "POLICE", "Actor2_Country": null, "Code": 112, "Class": 3, "Action_Location": "Jerusalem, Israel (general), Israel", "Lat": 31.7667, "Long": 35.2333, "Timestamp": 20181105031500, "Source": "https://www.dawn.com/news/1443666/israel-raids-office-of-jerusalems-palestinian-governor"}, {"ID": 800045668, "Actor1": "ISRAEL", "Actor1_Country": "ISR", "Actor2": "POLICE", "Actor2_Country": null, "Code": 190, "Class": 4, "Action_Location": "Jerusalem, Israel (general), Israel", "Lat": 31.7667, "Long": 35.2333, "Timestamp": 20181105031500, "Source": "https://www.dawn.com/news/1443666/israel-raids-office-of-jerusalems-palestinian-governor"}, {"ID": 800045673, "Actor1": "ISRAELI", "Actor1_Country": "ISR", "Actor2": "AUTHORITIES", "Actor2_Country": null, "Code": 90, "Class": 2, "Action_Location": "Jerusalem, Israel (general), Israel", "Lat": 31.7667, "Long": 35.2333, "Timestamp": 20181105031500, "Source": "https://www.dawn.com/news/1443666/israel-raids-office-of-jerusalems-palestinian-governor"}, {"ID": 800045674, "Actor1": "ISRAEL", "Actor1_Country": "ISR", "Actor2": "MINIST", "Actor2_Country": null, "Code": 1711, "Class": 4, "Action_Location": "Jerusalem, Israel (general), Israel", "Lat": 31.7667, "Long": 35.2333, "Timestamp": 20181105031500, "Source": "https://www.dawn.com/news/1443666/israel-raids-office-of-jerusalems-palestinian-governor"}, {"ID": 800045679, "Actor1": "ISRAEL", "Actor1_Country": "ISR", "Actor2": "ISRAEL", "Actor2_Country": "ISR", "Code": 111, "Class": 3, "Action_Location": "Jerusalem, Israel (general), Israel", "Lat": 31.7667, "Long": 35.2333, "Timestamp": 20181105031500, "Source": "https://www.dawn.com/news/1443666/israel-raids-office-of-jerusalems-palestinian-governor"}, {"ID": 800045684, "Actor1": "ISRAEL", "Actor1_Country": "ISR", "Actor2": "ARMY", "Actor2_Country": null, "Code": 112, "Class": 3, "Action_Location": "Jerusalem, Israel (general), Israel", "Lat": 31.7667, "Long": 35.2333, "Timestamp": 20181105031500, "Source": "https://www.dawn.com/news/1443666/israel-raids-office-of-jerusalems-palestinian-governor"}, {"ID": 800045685, "Actor1": "ISRAEL", "Actor1_Country": "ISR", "Actor2": "ARMY", "Actor2_Country": null, "Code": 190, "Class": 4, "Action_Location": "Jerusalem, Israel (general), Israel", "Lat": 31.7667, "Long": 35.2333, "Timestamp": 20181105031500, "Source": "https://www.dawn.com/news/1443666/israel-raids-office-of-jerusalems-palestinian-governor"}, {"ID": 800045692, "Actor1": "JERUSALEM", "Actor1_Country": "ISR", "Actor2": "PALESTINIAN", "Actor2_Country": "PSE", "Code": 172, "Class": 4, "Action_Location": "Jerusalem, Israel (general), Israel", "Lat": 31.7667, "Long": 35.2333, "Timestamp": 20181105031500, "Source": "https://www.dawn.com/news/1443666/israel-raids-office-of-jerusalems-palestinian-governor"}, {"ID": 800045697, "Actor1": "ISRAELI", "Actor1_Country": "ISR", "Actor2": "PALESTINIAN", "Actor2_Country": "PSE", "Code": 190, "Class": 4, "Action_Location": "Jerusalem, Israel (general), Israel", "Lat": 31.7667, "Long": 35.2333, "Timestamp": 20181105031500, "Source": "https://www.dawn.com/news/1443666/israel-raids-office-of-jerusalems-palestinian-governor"}, {"ID": 800045701, "Actor1": "JERUSALEM", "Actor1_Country": "ISR", "Actor2": "JERUSALEM", "Actor2_Country": "ISR", "Code": 172, "Class": 4, "Action_Location": "Jerusalem, Israel (general), Israel", "Lat": 31.7667, "Long": 35.2333, "Timestamp": 20181105031500, "Source": "https://www.dawn.com/news/1443666/israel-raids-office-of-jerusalems-palestinian-governor"}, {"ID": 800045702, "Actor1": "ISRAEL", "Actor1_Country": "ISR", "Actor2": "PALESTINIAN", "Actor2_Country": "PSE", "Code": 111, "Class": 3, "Action_Location": "Jerusalem, Israel (general), Israel", "Lat": 31.7667, "Long": 35.2333, "Timestamp": 20181105031500, "Source": "https://www.dawn.com/news/1443666/israel-raids-office-of-jerusalems-palestinian-governor"}, {"ID": 800045773, "Actor1": "SRI LANKA", "Actor1_Country": "LKA", "Actor2": "UNITED STATES", "Actor2_Country": "USA", "Code": 10, "Class": 1, "Action_Location": "Washington, District of Columbia, United States", "Lat": 38.8951, "Long": -77.0364, "Timestamp": 20181105031500, "Source": "https://www.dawn.com/news/1443656/ousted-lankan-pm-says-us-japan-have-frozen-aid-after-political-crisis"}, {"ID": 800045774, "Actor1": "SRI LANKAN", "Actor1_Country": "LKA", "Actor2": "WASHINGTON", "Actor2_Country": "USA", "Code": 10, "Class": 1, "Action_Location": "Washington, District of Columbia, United States", "Lat": 38.8951, "Long": -77.0364, "Timestamp": 20181105031500, "Source": "https://www.dawn.com/news/1443656/ousted-lankan-pm-says-us-japan-have-frozen-aid-after-political-crisis"}, {"ID": 800045802, "Actor1": "MYANMAR", "Actor1_Country": "MMR", "Actor2": "BANGLADESH", "Actor2_Country": "BGD", "Code": 32, "Class": 1, "Action_Location": "Balukhali, Chittagong, Bangladesh", "Lat": 21.1345, "Long": 92.1833, "Timestamp": 20181105031500, "Source": "http://www.mizzima.com/article/refugee-teen-injured-firing-bangladesh-myanmar-border"}, {"ID": 800045807, "Actor1": "MYANMAR", "Actor1_Country": "MMR", "Actor2": "BORDER GUARD", "Actor2_Country": null, "Code": 40, "Class": 1, "Action_Location": "Balukhali, Chittagong, Bangladesh", "Lat": 21.1345, "Long": 92.1833, "Timestamp": 20181105031500, "Source": "http://www.mizzima.com/article/refugee-teen-injured-firing-bangladesh-myanmar-border"}, {"ID": 800045816, "Actor1": "ISLAM", "Actor1_Country": null, "Actor2": "BANGLADESH", "Actor2_Country": "BGD", "Code": 13, "Class": 1, "Action_Location": "Balukhali, Chittagong, Bangladesh", "Lat": 21.1345, "Long": 92.1833, "Timestamp": 20181105031500, "Source": "http://www.mizzima.com/article/refugee-teen-injured-firing-bangladesh-myanmar-border"}, {"ID": 800045818, "Actor1": "ISLAM", "Actor1_Country": null, "Actor2": "REFUGEE", "Actor2_Country": null, "Code": 13, "Class": 1, "Action_Location": "Balukhali, Chittagong, Bangladesh", "Lat": 21.1345, "Long": 92.1833, "Timestamp": 20181105031500, "Source": "http://www.mizzima.com/article/refugee-teen-injured-firing-bangladesh-myanmar-border"}, {"ID": 800045878, "Actor1": "PALESTINIAN", "Actor1_Country": "PSE", "Actor2": "ISRAELI", "Actor2_Country": "ISR", "Code": 1711, "Class": 4, "Action_Location": "Jerusalem, Israel (general), Israel", "Lat": 31.7667, "Long": 35.2333, "Timestamp": 20181105031500, "Source": "https://www.dawn.com/news/1443666/israel-raids-office-of-jerusalems-palestinian-governor"}, {"ID": 800045887, "Actor1": "PALESTINIAN", "Actor1_Country": "PSE", "Actor2": "PALESTINIAN", "Actor2_Country": "PSE", "Code": 111, "Class": 3, "Action_Location": "Jerusalem, Israel (general), Israel", "Lat": 31.7667, "Long": 35.2333, "Timestamp": 20181105031500, "Source": "https://www.dawn.com/news/1443666/israel-raids-office-of-jerusalems-palestinian-governor"}, {"ID": 800045906, "Actor1": "PILGRIM", "Actor1_Country": null, "Actor2": "EGYPT", "Actor2_Country": "EGY", "Code": 190, "Class": 4, "Action_Location": "Minya, Al Minya, Egypt", "Lat": 28.1099, "Long": 30.7503, "Timestamp": 20181105031500, "Source": "http://currenthollywood.com/2018/11/egypt-kills-isis-militants-suspected-in-attack-on-christians/"}, {"ID": 800045909, "Actor1": "PILGRIM", "Actor1_Country": null, "Actor2": "ARMED MEN", "Actor2_Country": null, "Code": 190, "Class": 4, "Action_Location": "Minya, Al Minya, Egypt", "Lat": 28.1099, "Long": 30.7503, "Timestamp": 20181105031500, "Source": "http://currenthollywood.com/2018/11/egypt-kills-isis-militants-suspected-in-attack-on-christians/"}, {"ID": 800045969, "Actor1": "TERRORIST", "Actor1_Country": null, "Actor2": "SECURITY FORCE", "Actor2_Country": null, "Code": 193, "Class": 4, "Action_Location": "Minya, Al Minya, Egypt", "Lat": 28.1099, "Long": 30.7503, "Timestamp": 20181105031500, "Source": "http://currenthollywood.com/2018/11/egypt-kills-isis-militants-suspected-in-attack-on-christians/"}, {"ID": 800045972, "Actor1": "UKRAINE", "Actor1_Country": "UKR", "Actor2": "SEPARATIST REBEL", "Actor2_Country": null, "Code": 51, "Class": 1, "Action_Location": "Moscow, Moskva, Russia", "Lat": 55.7522, "Long": 37.6156, "Timestamp": 20181105031500, "Source": "https://www.washingtonpost.com/world/the_americas/cuban-president-meets-north-koreas-kim-jong-un-in-pyongyang/2018/11/04/ea5cc39e-e09f-11e8-ba30-a7ded04d8fac_story.html"}, {"ID": 800045973, "Actor1": "UKRAINE", "Actor1_Country": "UKR", "Actor2": "SEPARATIST REBEL", "Actor2_Country": null, "Code": 51, "Class": 1, "Action_Location": "Ukraine", "Lat": 49.0, "Long": 32.0, "Timestamp": 20181105031500, "Source": "https://www.washingtonpost.com/world/the_americas/cuban-president-meets-north-koreas-kim-jong-un-in-pyongyang/2018/11/04/ea5cc39e-e09f-11e8-ba30-a7ded04d8fac_story.html"}, {"ID": 800046033, "Actor1": "THE US", "Actor1_Country": "USA", "Actor2": "PRODUCER", "Actor2_Country": null, "Code": 36, "Class": 1, "Action_Location": "Iraq", "Lat": 33.0, "Long": 44.0, "Timestamp": 20181105031500, "Source": "https://www.dawn.com/news/1443662/oil-market-on-alert-as-iran-sanctions-loom"}, {"ID": 800046036, "Actor1": "THE US", "Actor1_Country": "USA", "Actor2": "PRODUCER", "Actor2_Country": null, "Code": 51, "Class": 1, "Action_Location": "Iraq", "Lat": 33.0, "Long": 44.0, "Timestamp": 20181105031500, "Source": "https://www.dawn.com/news/1443662/oil-market-on-alert-as-iran-sanctions-loom"}, {"ID": 800046037, "Actor1": "CALIFORNIA", "Actor1_Country": "USA", "Actor2": "COMPANY", "Actor2_Country": null, "Code": 173, "Class": 4, "Action_Location": "Oakland, California, United States", "Lat": 37.8044, "Long": -122.271, "Timestamp": 20181105031500, "Source": "https://indianexpress.com/article/business/companies/why-do-you-fire-so-many-americans-tcs-faces-us-jury-5434196/"}, {"ID": 800046045, "Actor1": "UNITED STATES", "Actor1_Country": "USA", "Actor2": "VOTER", "Actor2_Country": null, "Code": 10, "Class": 1, "Action_Location": "Michigan, United States", "Lat": 43.3504, "Long": -84.5603, "Timestamp": 20181105031500, "Source": "https://www.wral.com/kemp-cites-voter-database-hacking-attempt-gives-no-evidence/17969938/"}, {"ID": 800046049, "Actor1": "UNITED STATES", "Actor1_Country": "USA", "Actor2": "VOTER", "Actor2_Country": null, "Code": 13, "Class": 1, "Action_Location": "Michigan, United States", "Lat": 43.3504, "Long": -84.5603, "Timestamp": 20181105031500, "Source": "https://www.wral.com/kemp-cites-voter-database-hacking-attempt-gives-no-evidence/17969938/"}, {"ID": 800046089, "Actor1": "THE US", "Actor1_Country": "USA", "Actor2": "IRAN", "Actor2_Country": "IRN", "Code": 163, "Class": 4, "Action_Location": "Iraq", "Lat": 33.0, "Long": 44.0, "Timestamp": 20181105031500, "Source": "https://www.dawn.com/news/1443662/oil-market-on-alert-as-iran-sanctions-loom"}, {"ID": 800046101, "Actor1": "UNITED STATES", "Actor1_Country": "USA", "Actor2": "CONGRESS", "Actor2_Country": null, "Code": 10, "Class": 1, "Action_Location": "New York, United States", "Lat": 42.1497, "Long": -74.9384, "Timestamp": 20181105031500, "Source": "https://heavy.com/news/2018/11/michael-bloomberg-running-president-2020/"}, {"ID": 800046124, "Actor1": "UNITED STATES", "Actor1_Country": "USA", "Actor2": "UNITED STATES", "Actor2_Country": "USA", "Code": 42, "Class": 1, "Action_Location": "Halmstad Elementary School, Wisconsin, United States", "Lat": 44.9144, "Long": -91.3793, "Timestamp": 20181105031500, "Source": "https://kstp.com/national/the-latest-girl-scouts-ceo-says-hearts-broken-over-crash/5133385/?cat=162"}, {"ID": 800046125, "Actor1": "UNITED STATES", "Actor1_Country": "USA", "Actor2": "UNITED STATES", "Actor2_Country": "USA", "Code": 42, "Class": 1, "Action_Location": "Halmstad Elementary School, Wisconsin, United States", "Lat": 44.9144, "Long": -91.3793, "Timestamp": 20181105031500, "Source": "https://kstp.com/national/the-latest-girl-scouts-ceo-says-hearts-broken-over-crash/5133385/?cat=162"}, {"ID": 800046135, "Actor1": "PENNSYLVANIA", "Actor1_Country": "USA", "Actor2": "UNITED STATES", "Actor2_Country": "USA", "Code": 112, "Class": 3, "Action_Location": "Indiana, United States", "Lat": 39.8647, "Long": -86.2604, "Timestamp": 20181105031500, "Source": "https://www.kansas.com/news/business/article221112820.html"}, {"ID": 800046140, "Actor1": "UNITED STATES", "Actor1_Country": "USA", "Actor2": "VOTER", "Actor2_Country": null, "Code": 13, "Class": 1, "Action_Location": "Michigan, United States", "Lat": 43.3504, "Long": -84.5603, "Timestamp": 20181105031500, "Source": "https://www.wral.com/kemp-cites-voter-database-hacking-attempt-gives-no-evidence/17969938/"}, {"ID": 800046143, "Actor1": "MICHIGAN", "Actor1_Country": "USA", "Actor2": "VOTER", "Actor2_Country": null, "Code": 10, "Class": 1, "Action_Location": "Michigan, United States", "Lat": 43.3504, "Long": -84.5603, "Timestamp": 20181105031500, "Source": "https://www.wral.com/kemp-cites-voter-database-hacking-attempt-gives-no-evidence/17969938/"}, {"ID": 800046144, "Actor1": "WISCONSIN", "Actor1_Country": "USA", "Actor2": "COMMUNITY", "Actor2_Country": null, "Code": 43, "Class": 1, "Action_Location": "Wisconsin, United States", "Lat": 44.2563, "Long": -89.6385, "Timestamp": 20181105031500, "Source": "https://kstp.com/national/the-latest-girl-scouts-ceo-says-hearts-broken-over-crash/5133385/?cat=162"}, {"ID": 800046154, "Actor1": "THE WHITE HOUSE", "Actor1_Country": "USA", "Actor2": "IRANIAN", "Actor2_Country": "IRN", "Code": 42, "Class": 1, "Action_Location": "India", "Lat": 20.0, "Long": 77.0, "Timestamp": 20181105031500, "Source": "https://www.msn.com/en-ie/money/news/pompeo-insists-us-sanctions-will-not-hurt-the-iranian-people/ar-BBPlpmv"}, {"ID": 800046163, "Actor1": "THE WHITE HOUSE", "Actor1_Country": "USA", "Actor2": "UNITED STATES", "Actor2_Country": "USA", "Code": 42, "Class": 1, "Action_Location": "India", "Lat": 20.0, "Long": 77.0, "Timestamp": 20181105031500, "Source": "https://www.msn.com/en-ie/money/news/pompeo-insists-us-sanctions-will-not-hurt-the-iranian-people/ar-BBPlpmv"}, {"ID": 800046178, "Actor1": "REUTERS", "Actor1_Country": "USA", "Actor2": "AFGHANISTAN", "Actor2_Country": "AFG", "Code": 190, "Class": 4, "Action_Location": "Utah, United States", "Lat": 40.1135, "Long": -111.854, "Timestamp": 20181105031500, "Source": "https://wibqam.com/news/articles/2018/nov/05/utah-mayor-deployed-to-afghanistan-is-killed-in-attack/"}, {"ID": 800046179, "Actor1": "REUTERS", "Actor1_Country": "USA", "Actor2": "AFGHAN", "Actor2_Country": "AFG", "Code": 190, "Class": 4, "Action_Location": "Herat, Herat, Afghanistan", "Lat": 34.3482, "Long": 62.1997, "Timestamp": 20181105031500, "Source": "https://wibqam.com/news/articles/2018/nov/05/utah-mayor-deployed-to-afghanistan-is-killed-in-attack/"}, {"ID": 800046180, "Actor1": "REUTERS", "Actor1_Country": "USA", "Actor2": "AFGHAN", "Actor2_Country": "AFG", "Code": 190, "Class": 4, "Action_Location": "North Ogden, Utah, United States", "Lat": 41.3072, "Long": -111.96, "Timestamp": 20181105031500, "Source": "https://wibqam.com/news/articles/2018/nov/05/utah-mayor-deployed-to-afghanistan-is-killed-in-attack/"}, {"ID": 800046181, "Actor1": "REUTERS", "Actor1_Country": "USA", "Actor2": "AFGHAN", "Actor2_Country": "AFG", "Code": 190, "Class": 4, "Action_Location": "Utah, United States", "Lat": 40.1135, "Long": -111.854, "Timestamp": 20181105031500, "Source": "https://wibqam.com/news/articles/2018/nov/05/utah-mayor-deployed-to-afghanistan-is-killed-in-attack/"}]