[{"ID":800210971,"Actor1":"GOVERNMENT","Actor1_Country":null,"Actor2":"CHINA","Actor2_Country":"CHN","Code":61,"Class":2,"Action_Location":"China","Lat":35.0,"Long":105.0,"Timestamp":20181105181500,"Source":"https:\/\/thestarphoenix.com\/pmn\/news-pmn\/canada-news-pmn\/atlantic-canada-trade-mission-hopes-to-bolster-regions-trade-links-to-china\/wcm\/6061ab54-6236-4f5e-ba54-e088b2f1d531"},{"ID":800210972,"Actor1":"IRELAND","Actor1_Country":"IRL","Actor2":"ARMY","Actor2_Country":null,"Code":100,"Class":3,"Action_Location":"Killarney, Kerry, Ireland","Lat":52.05,"Long":-9.51667,"Timestamp":20181105181500,"Source":"https:\/\/www.thejournal.ie:443\/rhododendrons-killarney-mens-sheds-4323681-Nov2018\/"},{"ID":800210973,"Actor1":"ITALIAN","Actor1_Country":"ITA","Actor2":"INVESTOR","Actor2_Country":null,"Code":14,"Class":1,"Action_Location":"Italy","Lat":42.833333,"Long":12.833333,"Timestamp":20181105181500,"Source":"https:\/\/www.travelweekly.com\/Travel-News\/Airline-News\/Delta-enters-bidding-Alitalia"},{"ID":800210974,"Actor1":"ITALIAN","Actor1_Country":"ITA","Actor2":"INVESTOR","Actor2_Country":null,"Code":14,"Class":1,"Action_Location":"Italy","Lat":42.833333,"Long":12.833333,"Timestamp":20181105181500,"Source":"https:\/\/www.travelweekly.com\/Travel-News\/Airline-News\/Delta-enters-bidding-Alitalia"},{"ID":800210975,"Actor1":"OPPOSITION PARTIES","Actor1_Country":null,"Actor2":"GOVERNMENT","Actor2_Country":null,"Code":141,"Class":3,"Action_Location":"New Delhi, Delhi, India","Lat":28.6,"Long":77.2,"Timestamp":20181105181500,"Source":"https:\/\/www.aninews.in\/news\/national\/general-news\/congress-to-observe-2nd-anniversary-of-demonetisation-as-black-day-sources201811052303160003\/"},{"ID":800210976,"Actor1":"OPPOSITION PARTIES","Actor1_Country":null,"Actor2":"GOVERNMENT","Actor2_Country":null,"Code":141,"Class":3,"Action_Location":"India","Lat":20.0,"Long":77.0,"Timestamp":20181105181500,"Source":"https:\/\/www.business-standard.com\/article\/news-ani\/congress-to-observe-2nd-anniversary-of-demonetisation-as-black-day-sources-118110501451_1.html"},{"ID":800210977,"Actor1":"PAKISTAN","Actor1_Country":"PAK","Actor2":"PAKISTAN","Actor2_Country":"PAK","Code":84,"Class":2,"Action_Location":"Banaras, Uttar Pradesh, India","Lat":25.3333,"Long":83.0,"Timestamp":20181105181500,"Source":"https:\/\/tribune.com.pk\/story\/1841156\/1-pakistani-man-jailed-india-16-years-returns-home\/"},{"ID":800210978,"Actor1":"LAHORE","Actor1_Country":"PAK","Actor2":"PAKISTANI","Actor2_Country":"PAK","Code":84,"Class":2,"Action_Location":"Lahore, Punjab, Pakistan","Lat":31.5497,"Long":74.3436,"Timestamp":20181105181500,"Source":"https:\/\/tribune.com.pk\/story\/1841156\/1-pakistani-man-jailed-india-16-years-returns-home\/"},{"ID":800210979,"Actor1":"PERU","Actor1_Country":"PER","Actor2":"PERU","Actor2_Country":"PER","Code":36,"Class":1,"Action_Location":"Lima, Lima, Peru","Lat":-12.05,"Long":-77.05,"Timestamp":20181105181500,"Source":"https:\/\/www.limaohio.com\/news\/326812\/book-seminar-planned-at-osu-lima"},{"ID":800210987,"Actor1":"VOTER","Actor1_Country":null,"Actor2":"UNITED STATES","Actor2_Country":"USA","Code":241,"Class":1,"Action_Location":"Georgia, United States","Lat":32.9866,"Long":-83.6487,"Timestamp":20181105181500,"Source":"https:\/\/neonnettle.com\/news\/5544-georgia-democratic-party-investigated-for-election-vote-hacking"},{"ID":800210988,"Actor1":"BAVARIA","Actor1_Country":"DEU","Actor2":"GERMAN","Actor2_Country":"DEU","Code":20,"Class":1,"Action_Location":"Chemnitz, Sachsen, Germany","Lat":50.8333,"Long":12.9167,"Timestamp":20181105181500,"Source":"http:\/\/www.naharnet.com\/stories\/en\/252734-germany-ousts-domestic-spy-chief-at-center-of-govt-row"},{"ID":800210989,"Actor1":"GERMANY","Actor1_Country":"DEU","Actor2":"GERMAN","Actor2_Country":"DEU","Code":20,"Class":1,"Action_Location":"Chemnitz, Sachsen, Germany","Lat":50.8333,"Long":12.9167,"Timestamp":20181105181500,"Source":"http:\/\/www.naharnet.com\/stories\/en\/252734-germany-ousts-domestic-spy-chief-at-center-of-govt-row"},{"ID":800210990,"Actor1":"COLLEGE","Actor1_Country":null,"Actor2":"COLLEGE","Actor2_Country":null,"Code":190,"Class":4,"Action_Location":"United States","Lat":39.828175,"Long":-98.5795,"Timestamp":20181105181500,"Source":"https:\/\/www.greenwichtime.com\/entertainment\/article\/The-Laramie-Project-Ten-Years-Later-at-13363827.php"},{"ID":800210991,"Actor1":"EGYPT","Actor1_Country":"EGY","Actor2":"SCHOOL","Actor2_Country":null,"Code":20,"Class":1,"Action_Location":"Ministry Of Education, Al Qahirah, Egypt","Lat":30.0364,"Long":31.235,"Timestamp":20181105181500,"Source":"http:\/\/english.ahram.org.eg\/NewsContent\/1\/64\/315804\/Egypt\/Politics-\/Egypts-state-employees-may-not-get-wage-increase-t.aspx"},{"ID":800210994,"Actor1":"TRANSPORT MINIST","Actor1_Country":null,"Actor2":"CANADA","Actor2_Country":"CAN","Code":20,"Class":1,"Action_Location":"Pitt Meadows, British Columbia, Canada","Lat":49.2333,"Long":-122.683,"Timestamp":20181105181500,"Source":"https:\/\/www.mapleridgenews.com\/news\/maple-ridge-school-bus-operator-says-seatbelts-a-good-discussion\/"},{"ID":800210995,"Actor1":"TRANSPORT MINIST","Actor1_Country":null,"Actor2":"CANADA","Actor2_Country":"CAN","Code":311,"Class":1,"Action_Location":"Abbotsford, British Columbia, Canada","Lat":49.05,"Long":-122.3,"Timestamp":20181105181500,"Source":"https:\/\/www.mapleridgenews.com\/news\/maple-ridge-school-bus-operator-says-seatbelts-a-good-discussion\/"},{"ID":800210996,"Actor1":"UNITED STATES","Actor1_Country":"USA","Actor2":"COLLEGE","Actor2_Country":null,"Code":190,"Class":4,"Action_Location":"United States","Lat":39.828175,"Long":-98.5795,"Timestamp":20181105181500,"Source":"https:\/\/www.greenwichtime.com\/entertainment\/article\/The-Laramie-Project-Ten-Years-Later-at-13363827.php"},{"ID":800211000,"Actor1":"SWISS","Actor1_Country":"CHE","Actor2":"CHINA","Actor2_Country":"CHN","Code":43,"Class":1,"Action_Location":"Cook Islands","Lat":-16.083333,"Long":-161.583333,"Timestamp":20181105181500,"Source":"https:\/\/www.msn.com\/en-us\/news\/world\/update-4-chinas-xi-promises-to-raise-imports-amid-trade-row-with-us\/ar-BBPlTss"},{"ID":800211001,"Actor1":"CHINA","Actor1_Country":"CHN","Actor2":"SWISS","Actor2_Country":"CHE","Code":42,"Class":1,"Action_Location":"Cook Islands","Lat":-16.083333,"Long":-161.583333,"Timestamp":20181105181500,"Source":"https:\/\/www.msn.com\/en-us\/news\/world\/update-4-chinas-xi-promises-to-raise-imports-amid-trade-row-with-us\/ar-BBPlTss"},{"ID":800211002,"Actor1":"POLICE","Actor1_Country":null,"Actor2":"PRISONER","Actor2_Country":null,"Code":173,"Class":4,"Action_Location":"Andheri, Maharashtra, India","Lat":19.1167,"Long":72.8333,"Timestamp":20181105181500,"Source":"https:\/\/www.business-standard.com\/article\/pti-stories\/undertrial-who-escaped-from-court-premises-held-118110501433_1.html"},{"ID":800211003,"Actor1":"ALGERIA","Actor1_Country":"DZA","Actor2":"ITALY","Actor2_Country":"ITA","Code":13,"Class":1,"Action_Location":"Palermo, Sicilia, Italy","Lat":38.1167,"Long":13.3667,"Timestamp":20181105181500,"Source":"http:\/\/www.adnkronos.com\/aki-en\/politics\/2018\/11\/05\/led-reconciliation-only-way-forward-for-libya-conte_vPByJNK1vyc9kuYV9FD1AI.html"},{"ID":800211004,"Actor1":"ALGERIA","Actor1_Country":"DZA","Actor2":"ITALY","Actor2_Country":"ITA","Code":13,"Class":1,"Action_Location":"Palermo, Sicilia, Italy","Lat":38.1167,"Long":13.3667,"Timestamp":20181105181500,"Source":"http:\/\/www.adnkronos.com\/aki-en\/politics\/2018\/11\/05\/led-reconciliation-only-way-forward-for-libya-conte_vPByJNK1vyc9kuYV9FD1AI.html"},{"ID":800211005,"Actor1":"ALGERIA","Actor1_Country":"DZA","Actor2":"ITALY","Actor2_Country":"ITA","Code":36,"Class":1,"Action_Location":"Tripoli, Tarabulus, Libya","Lat":32.8925,"Long":13.18,"Timestamp":20181105181500,"Source":"http:\/\/www.adnkronos.com\/aki-en\/politics\/2018\/11\/05\/led-reconciliation-only-way-forward-for-libya-conte_vPByJNK1vyc9kuYV9FD1AI.html"},{"ID":800211006,"Actor1":"ALGERIA","Actor1_Country":"DZA","Actor2":"ITALY","Actor2_Country":"ITA","Code":36,"Class":1,"Action_Location":"Algeria","Lat":28.0,"Long":3.0,"Timestamp":20181105181500,"Source":"http:\/\/www.adnkronos.com\/aki-en\/politics\/2018\/11\/05\/led-reconciliation-only-way-forward-for-libya-conte_vPByJNK1vyc9kuYV9FD1AI.html"},{"ID":800211007,"Actor1":"ALGERIA","Actor1_Country":"DZA","Actor2":"LIBYA","Actor2_Country":"LBY","Code":36,"Class":1,"Action_Location":"Algeria","Lat":28.0,"Long":3.0,"Timestamp":20181105181500,"Source":"http:\/\/www.adnkronos.com\/aki-en\/politics\/2018\/11\/05\/led-reconciliation-only-way-forward-for-libya-conte_vPByJNK1vyc9kuYV9FD1AI.html"},{"ID":800211011,"Actor1":"MINIST","Actor1_Country":null,"Actor2":"KENYAN","Actor2_Country":"KEN","Code":10,"Class":1,"Action_Location":"Kenya","Lat":1.0,"Long":38.0,"Timestamp":20181105181500,"Source":"https:\/\/www.kenyans.co.ke\/news\/34549-several-government-websites-shut-down-over-unsettled-debts"},{"ID":800211012,"Actor1":"GREEK","Actor1_Country":"GRC","Actor2":"LOS ANGELES","Actor2_Country":"USA","Code":173,"Class":4,"Action_Location":"Greece","Lat":39.0,"Long":22.0,"Timestamp":20181105181500,"Source":"https:\/\/www.opb.org\/news\/article\/npr-mac-miller-died-from-overdose-involving-fentanyl\/"},{"ID":800211013,"Actor1":"GREEK","Actor1_Country":"GRC","Actor2":"LOS ANGELES","Actor2_Country":"USA","Code":173,"Class":4,"Action_Location":"Tennessee, United States","Lat":35.7449,"Long":-86.7489,"Timestamp":20181105181500,"Source":"https:\/\/www.opb.org\/news\/article\/npr-mac-miller-died-from-overdose-involving-fentanyl\/"},{"ID":800211014,"Actor1":"MUMBAI","Actor1_Country":"IND","Actor2":"PRISONER","Actor2_Country":null,"Code":173,"Class":4,"Action_Location":"Andheri, Maharashtra, India","Lat":19.1167,"Long":72.8333,"Timestamp":20181105181500,"Source":"https:\/\/www.business-standard.com\/article\/pti-stories\/undertrial-who-escaped-from-court-premises-held-118110501433_1.html"},{"ID":800211015,"Actor1":"ITALY","Actor1_Country":"ITA","Actor2":"ALGERIA","Actor2_Country":"DZA","Code":13,"Class":1,"Action_Location":"Tripoli, Tarabulus, Libya","Lat":32.8925,"Long":13.18,"Timestamp":20181105181500,"Source":"http:\/\/www.adnkronos.com\/aki-en\/politics\/2018\/11\/05\/led-reconciliation-only-way-forward-for-libya-conte_vPByJNK1vyc9kuYV9FD1AI.html"},{"ID":800211016,"Actor1":"ITALY","Actor1_Country":"ITA","Actor2":"ALGERIA","Actor2_Country":"DZA","Code":13,"Class":1,"Action_Location":"Algeria","Lat":28.0,"Long":3.0,"Timestamp":20181105181500,"Source":"http:\/\/www.adnkronos.com\/aki-en\/politics\/2018\/11\/05\/led-reconciliation-only-way-forward-for-libya-conte_vPByJNK1vyc9kuYV9FD1AI.html"},{"ID":800211017,"Actor1":"ITALY","Actor1_Country":"ITA","Actor2":"ALGERIA","Actor2_Country":"DZA","Code":36,"Class":1,"Action_Location":"Algeria","Lat":28.0,"Long":3.0,"Timestamp":20181105181500,"Source":"http:\/\/www.adnkronos.com\/aki-en\/politics\/2018\/11\/05\/led-reconciliation-only-way-forward-for-libya-conte_vPByJNK1vyc9kuYV9FD1AI.html"},{"ID":800211018,"Actor1":"ITALY","Actor1_Country":"ITA","Actor2":"ALGERIA","Actor2_Country":"DZA","Code":36,"Class":1,"Action_Location":"Tripoli, Tarabulus, Libya","Lat":32.8925,"Long":13.18,"Timestamp":20181105181500,"Source":"http:\/\/www.adnkronos.com\/aki-en\/politics\/2018\/11\/05\/led-reconciliation-only-way-forward-for-libya-conte_vPByJNK1vyc9kuYV9FD1AI.html"},{"ID":800211019,"Actor1":"ITALY","Actor1_Country":"ITA","Actor2":"LIBYA","Actor2_Country":"LBY","Code":36,"Class":1,"Action_Location":"Algeria","Lat":28.0,"Long":3.0,"Timestamp":20181105181500,"Source":"http:\/\/www.adnkronos.com\/aki-en\/politics\/2018\/11\/05\/led-reconciliation-only-way-forward-for-libya-conte_vPByJNK1vyc9kuYV9FD1AI.html"},{"ID":800211021,"Actor1":"LIBYA","Actor1_Country":"LBY","Actor2":"ALGERIA","Actor2_Country":"DZA","Code":13,"Class":1,"Action_Location":"Algeria","Lat":28.0,"Long":3.0,"Timestamp":20181105181500,"Source":"http:\/\/www.adnkronos.com\/aki-en\/politics\/2018\/11\/05\/led-reconciliation-only-way-forward-for-libya-conte_vPByJNK1vyc9kuYV9FD1AI.html"},{"ID":800211022,"Actor1":"LIBYA","Actor1_Country":"LBY","Actor2":"ALGERIA","Actor2_Country":"DZA","Code":36,"Class":1,"Action_Location":"Algeria","Lat":28.0,"Long":3.0,"Timestamp":20181105181500,"Source":"http:\/\/www.adnkronos.com\/aki-en\/politics\/2018\/11\/05\/led-reconciliation-only-way-forward-for-libya-conte_vPByJNK1vyc9kuYV9FD1AI.html"},{"ID":800211023,"Actor1":"LIBYA","Actor1_Country":"LBY","Actor2":"ITALY","Actor2_Country":"ITA","Code":36,"Class":1,"Action_Location":"Algeria","Lat":28.0,"Long":3.0,"Timestamp":20181105181500,"Source":"http:\/\/www.adnkronos.com\/aki-en\/politics\/2018\/11\/05\/led-reconciliation-only-way-forward-for-libya-conte_vPByJNK1vyc9kuYV9FD1AI.html"},{"ID":800211024,"Actor1":"MILITARY","Actor1_Country":null,"Actor2":"HASSAN","Actor2_Country":"JOR","Code":190,"Class":4,"Action_Location":"Tehran, Tehran, Iran","Lat":35.75,"Long":51.5148,"Timestamp":20181105181500,"Source":"https:\/\/www.belfasttelegraph.co.uk\/news\/world-news\/iran-president-puts-country-on-war-footing-as-us-sanctions-take-effect-37493844.html"},{"ID":800211025,"Actor1":"PAKISTAN","Actor1_Country":"PAK","Actor2":"UNITED KINGDOM","Actor2_Country":"GBR","Code":81,"Class":2,"Action_Location":"Pakistan","Lat":30.0,"Long":70.0,"Timestamp":20181105181500,"Source":"https:\/\/www.premier.org.uk\/News\/World\/UK-remains-silent-on-Asia-Bibi-as-asylum-calls-intensify"},{"ID":800211026,"Actor1":"PAKISTAN","Actor1_Country":"PAK","Actor2":"SUPREME COURT","Actor2_Country":null,"Code":141,"Class":3,"Action_Location":"Pakistan","Lat":30.0,"Long":70.0,"Timestamp":20181105181500,"Source":"https:\/\/www.premier.org.uk\/News\/World\/UK-remains-silent-on-Asia-Bibi-as-asylum-calls-intensify"},{"ID":800211027,"Actor1":"PAKISTAN","Actor1_Country":"PAK","Actor2":"SUPREME COURT","Actor2_Country":null,"Code":141,"Class":3,"Action_Location":"United Kingdom","Lat":54.0,"Long":-4.0,"Timestamp":20181105181500,"Source":"https:\/\/www.premier.org.uk\/News\/World\/UK-remains-silent-on-Asia-Bibi-as-asylum-calls-intensify"},{"ID":800211031,"Actor1":"KUALA LUMPUR","Actor1_Country":"MYS","Actor2":"PRIME MINISTER","Actor2_Country":null,"Code":17,"Class":1,"Action_Location":"Kuala Lumpur, Kuala Lumpur, Malaysia","Lat":3.16667,"Long":101.7,"Timestamp":20181105181500,"Source":"http:\/\/www.theborneopost.com\/2018\/11\/06\/dr-m-wishes-malaysian-hindus-happy-deepavali\/"},{"ID":800211032,"Actor1":"KUALA LUMPUR","Actor1_Country":"MYS","Actor2":"HINDU","Actor2_Country":null,"Code":17,"Class":1,"Action_Location":"Kuala Lumpur, Kuala Lumpur, Malaysia","Lat":3.16667,"Long":101.7,"Timestamp":20181105181500,"Source":"http:\/\/www.theborneopost.com\/2018\/11\/06\/dr-m-wishes-malaysian-hindus-happy-deepavali\/"},{"ID":800211033,"Actor1":"KUALA LUMPUR","Actor1_Country":"MYS","Actor2":"HINDU","Actor2_Country":null,"Code":51,"Class":1,"Action_Location":"Kuala Lumpur, Kuala Lumpur, Malaysia","Lat":3.16667,"Long":101.7,"Timestamp":20181105181500,"Source":"http:\/\/www.theborneopost.com\/2018\/11\/06\/dr-m-wishes-malaysian-hindus-happy-deepavali\/"},{"ID":800211034,"Actor1":"UNITED STATES","Actor1_Country":"USA","Actor2":"UNITED STATES","Actor2_Country":"USA","Code":120,"Class":3,"Action_Location":"Memphis, Tennessee, United States","Lat":35.1495,"Long":-90.049,"Timestamp":20181105181500,"Source":"https:\/\/www.commercialappeal.com\/story\/news\/local\/the-901\/2018\/11\/05\/wolfchase-galleria-enforces-unfair-no-hoodie-policy-leading-arrests-9-01\/1804568002\/"},{"ID":800211035,"Actor1":"UNITED STATES","Actor1_Country":"USA","Actor2":"UNITED STATES","Actor2_Country":"USA","Code":173,"Class":4,"Action_Location":"Memphis, Tennessee, United States","Lat":35.1495,"Long":-90.049,"Timestamp":20181105181500,"Source":"https:\/\/www.commercialappeal.com\/story\/news\/local\/the-901\/2018\/11\/05\/wolfchase-galleria-enforces-unfair-no-hoodie-policy-leading-arrests-9-01\/1804568002\/"},{"ID":800211229,"Actor1":"AFGHANISTAN","Actor1_Country":"AFG","Actor2":"CANADA","Actor2_Country":"CAN","Code":17,"Class":1,"Action_Location":"Afghanistan","Lat":33.0,"Long":66.0,"Timestamp":20181105181500,"Source":"https:\/\/www.hopestandard.com\/home\/watch-chilliwack-veterans-honoured-by-local-high-school-students-with-longstanding-tradition\/"},{"ID":800211230,"Actor1":"MAZAR I SHARIF","Actor1_Country":"AFG","Actor2":"CONSULATE","Actor2_Country":null,"Code":195,"Class":4,"Action_Location":"Pathankot, Punjab, India","Lat":32.2833,"Long":75.65,"Timestamp":20181105181500,"Source":"https:\/\/www.armscontrolwonk.com\/archive\/1206032\/stuck-on-the-subcontinent\/"},{"ID":800211231,"Actor1":"MAZAR I SHARIF","Actor1_Country":"AFG","Actor2":"CONSULATE","Actor2_Country":null,"Code":195,"Class":4,"Action_Location":"Lahore, Punjab, Pakistan","Lat":31.5497,"Long":74.3436,"Timestamp":20181105181500,"Source":"https:\/\/www.armscontrolwonk.com\/archive\/1206032\/stuck-on-the-subcontinent\/"},{"ID":800211232,"Actor1":"AFGHANISTAN","Actor1_Country":"AFG","Actor2":"INTELLIGENCE OFFICER","Actor2_Country":null,"Code":72,"Class":2,"Action_Location":"Afghanistan","Lat":33.0,"Long":66.0,"Timestamp":20181105181500,"Source":"http:\/\/www.kabc.com\/2018\/11\/05\/democrats-hold-advantage-in-final-cnn-poll\/"},{"ID":800211233,"Actor1":"AFGHANISTAN","Actor1_Country":"AFG","Actor2":"UNITED STATES","Actor2_Country":"USA","Code":10,"Class":1,"Action_Location":"Afghanistan","Lat":33.0,"Long":66.0,"Timestamp":20181105181500,"Source":"https:\/\/www.rawstory.com\/2018\/11\/views-meghan-mccain-complains-snls-pete-davidson-doesnt-right-mock-veterans-joy-behar-sets-straight\/"},{"ID":800211234,"Actor1":"TALIBAN","Actor1_Country":"AFG","Actor2":"MOSCOW","Actor2_Country":"RUS","Code":42,"Class":1,"Action_Location":"Moscow, Moskva, Russia","Lat":55.7522,"Long":37.6156,"Timestamp":20181105181500,"Source":"https:\/\/www.thehindu.com\/news\/international\/afghan-delegation-to-attend-russia-talks\/article25429610.ece"},{"ID":800211237,"Actor1":"AFRICA","Actor1_Country":"AFR","Actor2":"AFRICA","Actor2_Country":"AFR","Code":112,"Class":3,"Action_Location":"South Africa","Lat":-30.0,"Long":26.0,"Timestamp":20181105181500,"Source":"https:\/\/briefly.co.za\/19004-redi-tlhabi-strongly-advises-gigaba-avoid-oral-submissions.html"},{"ID":800211238,"Actor1":"AFRICA","Actor1_Country":"AFR","Actor2":"UNITED STATES","Actor2_Country":"USA","Code":43,"Class":1,"Action_Location":"Texas, United States","Lat":31.106,"Long":-97.6475,"Timestamp":20181105181500,"Source":"https:\/\/daverupert.com\/2018\/11\/afro-american-work-songs-in-a-texas-prision\/"},{"ID":800211239,"Actor1":"FARMER","Actor1_Country":null,"Actor2":"WEBSITE","Actor2_Country":null,"Code":20,"Class":1,"Action_Location":"West Valley, New York, United States","Lat":42.4028,"Long":-78.61,"Timestamp":20181105181500,"Source":"https:\/\/cornellsun.com\/2018\/11\/05\/reed-vs-mitrano-gun-control-immigration-healthcare-and-environment\/"},{"ID":800211240,"Actor1":"FARMER","Actor1_Country":null,"Actor2":"WEBSITE","Actor2_Country":null,"Code":20,"Class":1,"Action_Location":"West Valley, New York, United States","Lat":42.4028,"Long":-78.61,"Timestamp":20181105181500,"Source":"https:\/\/cornellsun.com\/2018\/11\/05\/reed-vs-mitrano-gun-control-immigration-healthcare-and-environment\/"},{"ID":800211241,"Actor1":"FARMER","Actor1_Country":null,"Actor2":"UNITED STATES","Actor2_Country":"USA","Code":20,"Class":1,"Action_Location":"New York, United States","Lat":42.1497,"Long":-74.9384,"Timestamp":20181105181500,"Source":"https:\/\/cornellsun.com\/2018\/11\/05\/reed-vs-mitrano-gun-control-immigration-healthcare-and-environment\/"},{"ID":800211242,"Actor1":"FISHER","Actor1_Country":null,"Actor2":"NEW YORK","Actor2_Country":"USA","Code":71,"Class":2,"Action_Location":"United States","Lat":39.828175,"Long":-98.5795,"Timestamp":20181105181500,"Source":"https:\/\/www.themarketsdaily.com\/2018\/11\/05\/bank-of-new-york-mellon-corp-bk-is-gamco-investors-inc-et-als-6th-largest-position.html"},{"ID":800211244,"Actor1":"UNITED ARAB EMIRATES","Actor1_Country":"ARE","Actor2":"DUBAI","Actor2_Country":"ARE","Code":43,"Class":1,"Action_Location":"Dubai, Dubayy, United Arab Emirates","Lat":25.2522,"Long":55.28,"Timestamp":20181105181500,"Source":"https:\/\/www.thenational.ae\/uae\/government\/sheikh-mohammed-bin-rashid-says-coding-is-language-of-the-future-1.788379"},{"ID":800211245,"Actor1":"UNITED ARAB EMIRATES","Actor1_Country":"ARE","Actor2":"MINIST OF STATE","Actor2_Country":null,"Code":17,"Class":1,"Action_Location":"Dubai, Dubayy, United Arab Emirates","Lat":25.2522,"Long":55.28,"Timestamp":20181105181500,"Source":"https:\/\/www.thenational.ae\/uae\/government\/sheikh-mohammed-bin-rashid-says-coding-is-language-of-the-future-1.788379"},{"ID":800211248,"Actor1":"DUBAI","Actor1_Country":"ARE","Actor2":"UNITED ARAB EMIRATES","Actor2_Country":"ARE","Code":17,"Class":1,"Action_Location":"Dubai, Dubayy, United Arab Emirates","Lat":25.2522,"Long":55.28,"Timestamp":20181105181500,"Source":"https:\/\/www.thenational.ae\/uae\/government\/sheikh-mohammed-bin-rashid-says-coding-is-language-of-the-future-1.788379"},{"ID":800211249,"Actor1":"DUBAI","Actor1_Country":"ARE","Actor2":"UNITED ARAB EMIRATES","Actor2_Country":"ARE","Code":42,"Class":1,"Action_Location":"Dubai, Dubayy, United Arab Emirates","Lat":25.2522,"Long":55.28,"Timestamp":20181105181500,"Source":"https:\/\/www.thenational.ae\/uae\/government\/sheikh-mohammed-bin-rashid-says-coding-is-language-of-the-future-1.788379"},{"ID":800211250,"Actor1":"ARGENTINIAN","Actor1_Country":"ARG","Actor2":"MILAN","Actor2_Country":"ITA","Code":36,"Class":1,"Action_Location":"Barcelona, Comunidad Autonoma de Cataluna, Spain","Lat":41.3833,"Long":2.18333,"Timestamp":20181105181500,"Source":"https:\/\/www.breakingnews.ie\/sport\/the-key-talking-points-for-this-weeks-champions-league-fixtures-883339.html"},{"ID":800211254,"Actor1":"AUSTRALIA","Actor1_Country":"AUS","Actor2":"BELGIUM","Actor2_Country":"BEL","Code":51,"Class":1,"Action_Location":"Canberra, Australian Capital Territory, Australia","Lat":-35.2833,"Long":149.217,"Timestamp":20181105181500,"Source":"https:\/\/www.news.com.au\/world\/breaking-news\/australias-bond-with-ypres-cast-in-stone\/news-story\/2a68f46d3451e19b1cf531eee93ad85e"},{"ID":800211255,"Actor1":"AUSTRALIA","Actor1_Country":"AUS","Actor2":"BELGIUM","Actor2_Country":"BEL","Code":51,"Class":1,"Action_Location":"United Kingdom","Lat":54.0,"Long":-4.0,"Timestamp":20181105181500,"Source":"https:\/\/www.news.com.au\/world\/breaking-news\/australias-bond-with-ypres-cast-in-stone\/news-story\/2a68f46d3451e19b1cf531eee93ad85e"},{"ID":800211256,"Actor1":"AUSTRALIA","Actor1_Country":"AUS","Actor2":"BELGIUM","Actor2_Country":"BEL","Code":51,"Class":1,"Action_Location":"United Kingdom","Lat":54.0,"Long":-4.0,"Timestamp":20181105181500,"Source":"https:\/\/www.news.com.au\/world\/breaking-news\/australias-bond-with-ypres-cast-in-stone\/news-story\/2a68f46d3451e19b1cf531eee93ad85e"},{"ID":800211257,"Actor1":"AUSTRALIAN","Actor1_Country":"AUS","Actor2":"GOVERNMENT","Actor2_Country":null,"Code":10,"Class":1,"Action_Location":"Australia","Lat":-25.0,"Long":135.0,"Timestamp":20181105181500,"Source":"http:\/\/manilastandard.net\/news\/national\/279791\/aliens-don-t-enjoy-same-rights-as-pinoys-palace.html"},{"ID":800211258,"Actor1":"AUSTRALIA","Actor1_Country":"AUS","Actor2":"WELLINGTON","Actor2_Country":"NZL","Code":40,"Class":1,"Action_Location":"Melbourne, Victoria, Australia","Lat":-37.8167,"Long":144.967,"Timestamp":20181105181500,"Source":"https:\/\/www.rte.ie\/lifestyle\/food\/2018\/1105\/1008740-catherine-fulvio-finds-home-comforts-in-taste-like-home\/"},{"ID":800211259,"Actor1":"AUSTRALIA","Actor1_Country":"AUS","Actor2":"WELLINGTON","Actor2_Country":"NZL","Code":40,"Class":1,"Action_Location":"Melbourne, Victoria, Australia","Lat":-37.8167,"Long":144.967,"Timestamp":20181105181500,"Source":"https:\/\/www.rte.ie\/lifestyle\/food\/2018\/1105\/1008740-catherine-fulvio-finds-home-comforts-in-taste-like-home\/"},{"ID":800211260,"Actor1":"VICTORIA","Actor1_Country":"AUS","Actor2":"UNITED STATES","Actor2_Country":"USA","Code":111,"Class":3,"Action_Location":"New York, United States","Lat":42.1497,"Long":-74.9384,"Timestamp":20181105181500,"Source":"https:\/\/pagesix.com\/2018\/11\/05\/elsa-hosk-will-wear-the-1m-victorias-secret-fantasy-bra\/"},{"ID":800211263,"Actor1":"VICTORIA","Actor1_Country":"AUS","Actor2":"POLICE","Actor2_Country":null,"Code":112,"Class":3,"Action_Location":"London, London, City of, United Kingdom","Lat":51.5,"Long":-0.116667,"Timestamp":20181105181500,"Source":"https:\/\/www.express.co.uk\/news\/uk\/1041205\/sadiq-khan-london-news-met-police-violent-crime-knife-crime-london-mayor"},{"ID":800211264,"Actor1":"BRUSSELS","Actor1_Country":"BEL","Actor2":"FINANCE MINIST","Actor2_Country":null,"Code":46,"Class":1,"Action_Location":"Brussels, Bruxelles-Capitale, Belgium","Lat":50.8333,"Long":4.33333,"Timestamp":20181105181500,"Source":"https:\/\/www.euronews.com\/2018\/11\/05\/euro-finance-minister-take-hard-look-at-italian-budget"},{"ID":800211265,"Actor1":"BRUSSELS","Actor1_Country":"BEL","Actor2":"MALTESE","Actor2_Country":"MLT","Code":10,"Class":1,"Action_Location":"Malta","Lat":35.916667,"Long":14.433333,"Timestamp":20181105181500,"Source":"http:\/\/news.trust.org\/item\/20181105173104-eume0"},{"ID":800211266,"Actor1":"BENIN","Actor1_Country":"BEN","Actor2":"THE UN","Actor2_Country":null,"Code":43,"Class":1,"Action_Location":"Ghana","Lat":8.0,"Long":-2.0,"Timestamp":20181105181500,"Source":"https:\/\/www.rt.com\/uk\/443133-alston-un-rapporteur-poverty\/"},{"ID":800211267,"Actor1":"BENIN","Actor1_Country":"BEN","Actor2":"THE UN","Actor2_Country":null,"Code":43,"Class":1,"Action_Location":"Ghana","Lat":8.0,"Long":-2.0,"Timestamp":20181105181500,"Source":"https:\/\/www.rt.com\/uk\/443133-alston-un-rapporteur-poverty\/"},{"ID":800211270,"Actor1":"BAHRAIN","Actor1_Country":"BHR","Actor2":"APPEALS COURT","Actor2_Country":null,"Code":173,"Class":4,"Action_Location":"Manama, Al Manamah, Bahrain","Lat":26.2361,"Long":50.5831,"Timestamp":20181105181500,"Source":"http:\/\/uspolitics24.com\/2018\/11\/05\/bahrain-opposition-leader-sentenced-to-life-in-qatar-spying.html"},{"ID":800211271,"Actor1":"BAHRAIN","Actor1_Country":"BHR","Actor2":"PRISONER","Actor2_Country":null,"Code":10,"Class":1,"Action_Location":"Bahrain","Lat":26.0,"Long":50.5,"Timestamp":20181105181500,"Source":"http:\/\/stillmannews.com\/2018\/11\/05\/bahrain-court-gives-opposition-figures-life-sentences-for\/"},{"ID":800211272,"Actor1":"BAHRAIN","Actor1_Country":"BHR","Actor2":"PRISONER","Actor2_Country":null,"Code":841,"Class":2,"Action_Location":"Bahrain","Lat":26.0,"Long":50.5,"Timestamp":20181105181500,"Source":"http:\/\/stillmannews.com\/2018\/11\/05\/bahrain-court-gives-opposition-figures-life-sentences-for\/"},{"ID":800211273,"Actor1":"BAHRAIN","Actor1_Country":"BHR","Actor2":"QATAR","Actor2_Country":"QAT","Code":161,"Class":4,"Action_Location":"Saudi Arabia","Lat":25.0,"Long":45.0,"Timestamp":20181105181500,"Source":"http:\/\/stillmannews.com\/2018\/11\/05\/bahrain-court-gives-opposition-figures-life-sentences-for\/"},{"ID":800211274,"Actor1":"BAHRAIN","Actor1_Country":"BHR","Actor2":"QATAR","Actor2_Country":"QAT","Code":173,"Class":4,"Action_Location":"Manama, Al Manamah, Bahrain","Lat":26.2361,"Long":50.5831,"Timestamp":20181105181500,"Source":"http:\/\/uspolitics24.com\/2018\/11\/05\/bahrain-opposition-leader-sentenced-to-life-in-qatar-spying.html"},{"ID":800211275,"Actor1":"BAHRAIN","Actor1_Country":"BHR","Actor2":"AL JAZEERA","Actor2_Country":"QAT","Code":10,"Class":1,"Action_Location":"Bahrain","Lat":26.0,"Long":50.5,"Timestamp":20181105181500,"Source":"http:\/\/stillmannews.com\/2018\/11\/05\/bahrain-court-gives-opposition-figures-life-sentences-for\/"},{"ID":800211276,"Actor1":"BAHRAIN","Actor1_Country":"BHR","Actor2":"AL JAZEERA","Actor2_Country":"QAT","Code":13,"Class":1,"Action_Location":"Bahrain","Lat":26.0,"Long":50.5,"Timestamp":20181105181500,"Source":"http:\/\/stillmannews.com\/2018\/11\/05\/bahrain-court-gives-opposition-figures-life-sentences-for\/"},{"ID":800211277,"Actor1":"BAHRAIN","Actor1_Country":"BHR","Actor2":"BAHRAIN","Actor2_Country":"BHR","Code":173,"Class":4,"Action_Location":"Bahrain","Lat":26.0,"Long":50.5,"Timestamp":20181105181500,"Source":"http:\/\/stillmannews.com\/2018\/11\/05\/bahrain-court-gives-opposition-figures-life-sentences-for\/"},{"ID":800211278,"Actor1":"BAHRAIN","Actor1_Country":"BHR","Actor2":"QATAR","Actor2_Country":"QAT","Code":90,"Class":2,"Action_Location":"United Kingdom","Lat":54.0,"Long":-4.0,"Timestamp":20181105181500,"Source":"http:\/\/uspolitics24.com\/2018\/11\/05\/bahrain-opposition-leader-sentenced-to-life-in-qatar-spying.html"},{"ID":800211280,"Actor1":"BOLIVIA","Actor1_Country":"BOL","Actor2":"MEDIA","Actor2_Country":null,"Code":186,"Class":4,"Action_Location":"Bolivia","Lat":-17.0,"Long":-65.0,"Timestamp":20181105181500,"Source":"http:\/\/www.unwomen.org\/en\/news\/stories\/2018\/11\/take-five-katia-uriona"},{"ID":800211285,"Actor1":"BARBADOS","Actor1_Country":"BRB","Actor2":"MAGAZINE","Actor2_Country":null,"Code":13,"Class":1,"Action_Location":"Barbados","Lat":13.166667,"Long":-59.533333,"Timestamp":20181105181500,"Source":"http:\/\/www.nationnews.com\/nationnews\/news\/210543\/reel-world-kia"},{"ID":800211286,"Actor1":"KARMA KAGYU","Actor1_Country":null,"Actor2":"MONK","Actor2_Country":null,"Code":43,"Class":1,"Action_Location":"Tibet, Xizang, China","Lat":32.0,"Long":90.0,"Timestamp":20181105181500,"Source":"https:\/\/www.thehindu.com\/news\/national\/tibetan-monks-meet-creates-a-flutter\/article25429754.ece"},{"ID":800211287,"Actor1":"KARMA KAGYU","Actor1_Country":null,"Actor2":"MONK","Actor2_Country":null,"Code":43,"Class":1,"Action_Location":"Tibet, Xizang, China","Lat":32.0,"Long":90.0,"Timestamp":20181105181500,"Source":"https:\/\/www.thehindu.com\/news\/national\/tibetan-monks-meet-creates-a-flutter\/article25429754.ece"},{"ID":800211288,"Actor1":"KARMA KAGYU","Actor1_Country":null,"Actor2":"MONK","Actor2_Country":null,"Code":43,"Class":1,"Action_Location":"Dominica","Lat":15.5,"Long":-61.333333,"Timestamp":20181105181500,"Source":"https:\/\/www.thehindu.com\/news\/national\/tibetan-monks-meet-creates-a-flutter\/article25429754.ece"},{"ID":800211309,"Actor1":"AUTOMAKER","Actor1_Country":null,"Actor2":"DEALER","Actor2_Country":null,"Code":50,"Class":1,"Action_Location":"Dallas, Texas, United States","Lat":32.7831,"Long":-96.8067,"Timestamp":20181105181500,"Source":"https:\/\/www.extremetech.com\/extreme\/280107-gm-halts-pricey-book-by-cadillac-car-swap-subscription-plan"},{"ID":800211310,"Actor1":"AUTOMAKER","Actor1_Country":null,"Actor2":"DEALER","Actor2_Country":null,"Code":50,"Class":1,"Action_Location":"New York, United States","Lat":42.1497,"Long":-74.9384,"Timestamp":20181105181500,"Source":"https:\/\/www.extremetech.com\/extreme\/280107-gm-halts-pricey-book-by-cadillac-car-swap-subscription-plan"},{"ID":800211311,"Actor1":"BANK","Actor1_Country":null,"Actor2":"VOTER","Actor2_Country":null,"Code":20,"Class":1,"Action_Location":"Connecticut, United States","Lat":41.5834,"Long":-72.7622,"Timestamp":20181105181500,"Source":"https:\/\/www.msn.com\/en-us\/news\/politics\/inside-a-22-year-olds-campaign-for-a-connecticut-state-senate-seat\/ar-BBPn9cp"},{"ID":800211312,"Actor1":"BUSINESS","Actor1_Country":null,"Actor2":"GERMANY","Actor2_Country":"DEU","Code":14,"Class":1,"Action_Location":"Warsaw, (PL67), Poland","Lat":52.25,"Long":21.0,"Timestamp":20181105181500,"Source":"http:\/\/www.naharnet.com\/stories\/en\/252734-germany-ousts-domestic-spy-chief-at-center-of-govt-row"},{"ID":800211313,"Actor1":"BUSINESS","Actor1_Country":null,"Actor2":"GERMANY","Actor2_Country":"DEU","Code":14,"Class":1,"Action_Location":"Warsaw, (PL67), Poland","Lat":52.25,"Long":21.0,"Timestamp":20181105181500,"Source":"http:\/\/www.naharnet.com\/stories\/en\/252734-germany-ousts-domestic-spy-chief-at-center-of-govt-row"},{"ID":800211314,"Actor1":"BUSINESS","Actor1_Country":null,"Actor2":"ECUADOR","Actor2_Country":"ECU","Code":42,"Class":1,"Action_Location":"Quito, Pichincha, Ecuador","Lat":-0.216667,"Long":-78.5,"Timestamp":20181105181500,"Source":"https:\/\/www.luxetravelfamily.com\/ten-things-to-do-in-old-town-quito-with-kids\/"},{"ID":800211315,"Actor1":"BUSINESS","Actor1_Country":null,"Actor2":"STUDENT","Actor2_Country":null,"Code":40,"Class":1,"Action_Location":"Wisconsin, United States","Lat":44.2563,"Long":-89.6385,"Timestamp":20181105181500,"Source":"https:\/\/ecals.cals.wisc.edu\/2018\/11\/05\/new-summer-program-helps-incoming-freshmen-get-quickstart\/"},{"ID":800211316,"Actor1":"COMPANY","Actor1_Country":null,"Actor2":"UNITED KINGDOM","Actor2_Country":"GBR","Code":60,"Class":2,"Action_Location":"Oxfordshire, Oxfordshire, United Kingdom","Lat":51.7823,"Long":-1.31405,"Timestamp":20181105181500,"Source":"https:\/\/www.banburyguardian.co.uk\/news\/crime\/fraudulent-food-supplements-supplier-fined-after-oxfordshire-complaint-1-8694200"},{"ID":800211317,"Actor1":"BUSINESS","Actor1_Country":null,"Actor2":"EMPLOYEE","Actor2_Country":null,"Code":51,"Class":1,"Action_Location":"New York, United States","Lat":42.1497,"Long":-74.9384,"Timestamp":20181105181500,"Source":"http:\/\/knowledge.wharton.upenn.edu\/article\/employee-voting-rights\/"},{"ID":800211318,"Actor1":"INDUSTRY","Actor1_Country":null,"Actor2":"WRITER","Actor2_Country":null,"Code":71,"Class":2,"Action_Location":"Ireland","Lat":53.0,"Long":-8.0,"Timestamp":20181105181500,"Source":"http:\/\/iftn.ie\/news\/?act1=record&only=1&aid=73&rid=4292294&tpl=archnews"},{"ID":800211319,"Actor1":"BUSINESS","Actor1_Country":null,"Actor2":"MEDIA","Actor2_Country":null,"Code":130,"Class":3,"Action_Location":"United Kingdom","Lat":54.0,"Long":-4.0,"Timestamp":20181105181500,"Source":"https:\/\/www.pressgazette.co.uk\/guardian-has-received-donations-from-more-than-1m-people-but-is-not-a-charity-says-editor-kath-viner\/"},{"ID":800211320,"Actor1":"COMMERCIAL BANK","Actor1_Country":null,"Actor2":"PAKISTAN","Actor2_Country":"PAK","Code":71,"Class":2,"Action_Location":"Islamabad, Islamabad, Pakistan","Lat":33.7,"Long":73.1667,"Timestamp":20181105181500,"Source":"http:\/\/dunyanews.tv\/en\/Pakistan\/465268-PMLN-govt-added-45-billion-dollars-foreign-loans-report"},{"ID":800211321,"Actor1":"BUSINESS","Actor1_Country":null,"Actor2":"WARSAW","Actor2_Country":"POL","Code":14,"Class":1,"Action_Location":"Warsaw, (PL67), Poland","Lat":52.25,"Long":21.0,"Timestamp":20181105181500,"Source":"http:\/\/www.naharnet.com\/stories\/en\/252734-germany-ousts-domestic-spy-chief-at-center-of-govt-row"},{"ID":800211322,"Actor1":"BUSINESS","Actor1_Country":null,"Actor2":"UNITED STATES","Actor2_Country":"USA","Code":20,"Class":1,"Action_Location":"Wisconsin, United States","Lat":44.2563,"Long":-89.6385,"Timestamp":20181105181500,"Source":"https:\/\/www.wispolitics.com\/2018\/schimel-campaign-thousands-of-small-business-owners-republican-and-democrat-want-brad-schimel-to-continue-to-serve-as-our-attorney-general\/"},{"ID":800211323,"Actor1":"BUSINESS","Actor1_Country":null,"Actor2":"UNITED STATES","Actor2_Country":"USA","Code":42,"Class":1,"Action_Location":"Michigan, United States","Lat":43.3504,"Long":-84.5603,"Timestamp":20181105181500,"Source":"https:\/\/www.mlive.com\/news\/saginaw\/index.ssf\/2018\/11\/mid-michigan_businesses_host_j.html"},{"ID":800211324,"Actor1":"BUSINESS","Actor1_Country":null,"Actor2":"UNITED STATES","Actor2_Country":"USA","Code":42,"Class":1,"Action_Location":"Michigan, United States","Lat":43.3504,"Long":-84.5603,"Timestamp":20181105181500,"Source":"https:\/\/www.mlive.com\/news\/saginaw\/index.ssf\/2018\/11\/mid-michigan_businesses_host_j.html"},{"ID":800211325,"Actor1":"BUSINESS","Actor1_Country":null,"Actor2":"MICHIGAN","Actor2_Country":"USA","Code":43,"Class":1,"Action_Location":"Mount Pleasant, Michigan, United States","Lat":43.5978,"Long":-84.7675,"Timestamp":20181105181500,"Source":"https:\/\/www.mlive.com\/news\/saginaw\/index.ssf\/2018\/11\/mid-michigan_businesses_host_j.html"},{"ID":800211326,"Actor1":"INDUSTRY","Actor1_Country":null,"Actor2":"UNITED STATES","Actor2_Country":"USA","Code":45,"Class":1,"Action_Location":"California, United States","Lat":36.17,"Long":-119.746,"Timestamp":20181105181500,"Source":"http:\/\/www.27east.com\/news\/article.cfm\/General-Interest-Southampton\/574242\/Arlene-Reckson-Talks-Life-At-The-Record-Plant-Working-For-John-Lennon"},{"ID":800211327,"Actor1":"BANK","Actor1_Country":null,"Actor2":"SAN ANTONIO","Actor2_Country":"USA","Code":71,"Class":2,"Action_Location":"San Antonio, Texas, United States","Lat":29.4241,"Long":-98.4936,"Timestamp":20181105181500,"Source":"https:\/\/www.onenewspage.com\/n\/Business\/1zjaqpdjli\/Exclusive-Sears-nears-bankruptcy-financing-deal-without-Lampert.htm"},{"ID":800211328,"Actor1":"BANK","Actor1_Country":null,"Actor2":"CONNECTICUT","Actor2_Country":"USA","Code":51,"Class":1,"Action_Location":"Westport, Connecticut, United States","Lat":41.1415,"Long":-73.3579,"Timestamp":20181105181500,"Source":"https:\/\/www.msn.com\/en-us\/news\/politics\/inside-a-22-year-olds-campaign-for-a-connecticut-state-senate-seat\/ar-BBPn9cp"},{"ID":800211329,"Actor1":"BANK","Actor1_Country":null,"Actor2":"CONNECTICUT","Actor2_Country":"USA","Code":141,"Class":3,"Action_Location":"Westport, Connecticut, United States","Lat":41.1415,"Long":-73.3579,"Timestamp":20181105181500,"Source":"https:\/\/www.msn.com\/en-us\/news\/politics\/inside-a-22-year-olds-campaign-for-a-connecticut-state-senate-seat\/ar-BBPn9cp"},{"ID":800211330,"Actor1":"BANK","Actor1_Country":null,"Actor2":"BANK","Actor2_Country":null,"Code":71,"Class":2,"Action_Location":"Brooklyn, New York, United States","Lat":42.3442,"Long":-75.1704,"Timestamp":20181105181500,"Source":"https:\/\/www.amny.com\/opinion\/editorial\/letitia-james-to-serve-as-new-york-state-attorney-general-1.22504221"},{"ID":800211331,"Actor1":"BANK","Actor1_Country":null,"Actor2":"BANK","Actor2_Country":null,"Code":71,"Class":2,"Action_Location":"New York, United States","Lat":42.1497,"Long":-74.9384,"Timestamp":20181105181500,"Source":"https:\/\/www.amny.com\/opinion\/editorial\/letitia-james-to-serve-as-new-york-state-attorney-general-1.22504221"},{"ID":800211339,"Actor1":"CANADA","Actor1_Country":"CAN","Actor2":"CHINA","Actor2_Country":"CHN","Code":43,"Class":1,"Action_Location":"China","Lat":35.0,"Long":105.0,"Timestamp":20181105181500,"Source":"https:\/\/thestarphoenix.com\/pmn\/news-pmn\/canada-news-pmn\/atlantic-canada-trade-mission-hopes-to-bolster-regions-trade-links-to-china\/wcm\/6061ab54-6236-4f5e-ba54-e088b2f1d531"},{"ID":800211340,"Actor1":"CANADA","Actor1_Country":"CAN","Actor2":"SCHOOL","Actor2_Country":null,"Code":51,"Class":1,"Action_Location":"Chilliwack, British Columbia, Canada","Lat":49.1667,"Long":-121.95,"Timestamp":20181105181500,"Source":"https:\/\/www.hopestandard.com\/home\/watch-chilliwack-veterans-honoured-by-local-high-school-students-with-longstanding-tradition\/"},{"ID":800211341,"Actor1":"CANADA","Actor1_Country":"CAN","Actor2":"PARLIAMENT","Actor2_Country":null,"Code":40,"Class":1,"Action_Location":"Canada","Lat":60.0,"Long":-96.0,"Timestamp":20181105181500,"Source":"http:\/\/www.cpac.ca\/en\/direct\/cpac2\/211927\/conservative-mps-speak-on-immigration-issues\/"},{"ID":800211342,"Actor1":"CANADA","Actor1_Country":"CAN","Actor2":"AMERICAN","Actor2_Country":"USA","Code":80,"Class":2,"Action_Location":"Toronto, Ontario, Canada","Lat":43.6667,"Long":-79.4167,"Timestamp":20181105181500,"Source":"http:\/\/www.investmentwatchblog.com\/the-military-industrial-complex-has-hijacked-trumps-foreign-policy-as-u-s-coalition-commits-war-crimes-in-syria\/"},{"ID":800211343,"Actor1":"CANADA","Actor1_Country":"CAN","Actor2":"AMERICAN","Actor2_Country":"USA","Code":80,"Class":2,"Action_Location":"California, United States","Lat":36.17,"Long":-119.746,"Timestamp":20181105181500,"Source":"http:\/\/www.investmentwatchblog.com\/the-military-industrial-complex-has-hijacked-trumps-foreign-policy-as-u-s-coalition-commits-war-crimes-in-syria\/"},{"ID":800211344,"Actor1":"CANADA","Actor1_Country":"CAN","Actor2":"NASA","Actor2_Country":"USA","Code":10,"Class":1,"Action_Location":"Montreal, Quebec, Canada","Lat":45.5,"Long":-73.5833,"Timestamp":20181105181500,"Source":"https:\/\/www.express.co.uk\/news\/science\/1041214\/ozone-layer-hole-depleted-united-nations-nasa-news-announcement-climate-change"},{"ID":800211346,"Actor1":"CANADA","Actor1_Country":"CAN","Actor2":"CANADA","Actor2_Country":"CAN","Code":10,"Class":1,"Action_Location":"Quebec, Quebec, Canada","Lat":47.5,"Long":-72.0,"Timestamp":20181105181500,"Source":"http:\/\/www.cpac.ca\/en\/direct\/cpac2\/211876\/mps-discuss-francophone-communities-outside-quebec\/"},{"ID":800211347,"Actor1":"CANADA","Actor1_Country":"CAN","Actor2":"JOURNALIST","Actor2_Country":null,"Code":10,"Class":1,"Action_Location":"Quebec, Quebec, Canada","Lat":47.5,"Long":-72.0,"Timestamp":20181105181500,"Source":"http:\/\/www.cpac.ca\/en\/direct\/cpac2\/211876\/mps-discuss-francophone-communities-outside-quebec\/"},{"ID":800211353,"Actor1":"CHINA","Actor1_Country":"CHN","Actor2":"CANADA","Actor2_Country":"CAN","Code":42,"Class":1,"Action_Location":"China","Lat":35.0,"Long":105.0,"Timestamp":20181105181500,"Source":"https:\/\/thestarphoenix.com\/pmn\/news-pmn\/canada-news-pmn\/atlantic-canada-trade-mission-hopes-to-bolster-regions-trade-links-to-china\/wcm\/6061ab54-6236-4f5e-ba54-e088b2f1d531"},{"ID":800211354,"Actor1":"CHINA","Actor1_Country":"CHN","Actor2":"IRAN","Actor2_Country":"IRN","Code":874,"Class":2,"Action_Location":"Tehran, Tehran, Iran","Lat":35.75,"Long":51.5148,"Timestamp":20181105181500,"Source":"https:\/\/thekashmirwalla.com\/2018\/11\/china-denounces-new-us-sanctions-targeting-iran-vows-to-continue-trade\/"},{"ID":800211355,"Actor1":"CHINA","Actor1_Country":"CHN","Actor2":"IRAN","Actor2_Country":"IRN","Code":111,"Class":3,"Action_Location":"Teheran, Iran (general), Iran","Lat":35.705,"Long":51.4216,"Timestamp":20181105181500,"Source":"https:\/\/thekashmirwalla.com\/2018\/11\/china-denounces-new-us-sanctions-targeting-iran-vows-to-continue-trade\/"},{"ID":800211356,"Actor1":"CHINA","Actor1_Country":"CHN","Actor2":"IRAN","Actor2_Country":"IRN","Code":111,"Class":3,"Action_Location":"Tehran, Tehran, Iran","Lat":35.75,"Long":51.5148,"Timestamp":20181105181500,"Source":"https:\/\/thekashmirwalla.com\/2018\/11\/china-denounces-new-us-sanctions-targeting-iran-vows-to-continue-trade\/"},{"ID":800211357,"Actor1":"CHINA","Actor1_Country":"CHN","Actor2":"UNITED STATES","Actor2_Country":"USA","Code":61,"Class":2,"Action_Location":"Shanghai, Shanghai, China","Lat":31.2222,"Long":121.458,"Timestamp":20181105181500,"Source":"https:\/\/www.msn.com\/en-us\/news\/world\/update-4-chinas-xi-promises-to-raise-imports-amid-trade-row-with-us\/ar-BBPlTss"},{"ID":800211361,"Actor1":"CHRISTIAN","Actor1_Country":null,"Actor2":"EGYPTIAN","Actor2_Country":"EGY","Code":42,"Class":1,"Action_Location":"Cairo, Al Qahirah, Egypt","Lat":30.05,"Long":31.25,"Timestamp":20181105181500,"Source":"http:\/\/tucollegian.org\/eye-on-the-world-37\/"},{"ID":800211362,"Actor1":"DIOCESE","Actor1_Country":null,"Actor2":"ILLINOIS","Actor2_Country":"USA","Code":16,"Class":1,"Action_Location":"Peace School, Illinois, United States","Lat":41.8153,"Long":-87.6951,"Timestamp":20181105181500,"Source":"http:\/\/eagnews.org\/diocese-on-defense-as-bishop-denies-telling-illinois-schoolkids-that-santa-isnt-real\/"},{"ID":800211363,"Actor1":"DIOCESE","Actor1_Country":null,"Actor2":"ILLINOIS","Actor2_Country":"USA","Code":16,"Class":1,"Action_Location":"Turkey","Lat":39.059012,"Long":34.911546,"Timestamp":20181105181500,"Source":"http:\/\/eagnews.org\/diocese-on-defense-as-bishop-denies-telling-illinois-schoolkids-that-santa-isnt-real\/"},{"ID":800211365,"Actor1":"CAMEROON","Actor1_Country":"CMR","Actor2":"AMNESTY INTERNATIONAL","Actor2_Country":null,"Code":841,"Class":2,"Action_Location":"United States","Lat":39.828175,"Long":-98.5795,"Timestamp":20181105181500,"Source":"https:\/\/www.amnestyusa.org\/press-releases\/cameroon-70-schoolchildren-taken-in-mass-abduction-must-be-freed\/"},{"ID":800211366,"Actor1":"CAMEROON","Actor1_Country":"CMR","Actor2":"AMNESTY INTERNATIONAL","Actor2_Country":null,"Code":181,"Class":4,"Action_Location":"Cameroon","Lat":6.0,"Long":12.0,"Timestamp":20181105181500,"Source":"https:\/\/www.amnestyusa.org\/press-releases\/cameroon-70-schoolchildren-taken-in-mass-abduction-must-be-freed\/"},{"ID":800211367,"Actor1":"JEAN NKUETE","Actor1_Country":"CMR","Actor2":"RULING PARTY","Actor2_Country":null,"Code":13,"Class":1,"Action_Location":"Zimbabwe","Lat":-19.0,"Long":29.0,"Timestamp":20181105181500,"Source":"https:\/\/www.today.ng\/news\/africa\/cameroon-inaugurate-president-elect-paul-biya-tuesday-168353"},{"ID":800211368,"Actor1":"ISSA TCHIROMA BAKARY","Actor1_Country":"CMR","Actor2":"GOVERNMENT SPOKESMAN","Actor2_Country":null,"Code":10,"Class":1,"Action_Location":"Yobe, Yobe, Nigeria","Lat":12.0,"Long":11.5,"Timestamp":20181105181500,"Source":"https:\/\/www.yahoo.com\/news\/79-school-pupils-abducted-restive-anglophone-cameroon-153904066.html"},{"ID":800211414,"Actor1":"POLICE","Actor1_Country":null,"Actor2":"CYPRUS","Actor2_Country":"CYP","Code":42,"Class":1,"Action_Location":"Larnaca, Larnaca, Cyprus","Lat":34.9167,"Long":33.6292,"Timestamp":20181105181500,"Source":"https:\/\/cyprus-mail.com\/2018\/11\/05\/two-years-for-man-caught-smuggling-opioid-pills\/"},{"ID":800211415,"Actor1":"POLICE","Actor1_Country":null,"Actor2":"COLLEGE","Actor2_Country":null,"Code":42,"Class":1,"Action_Location":"Larnaca, Larnaca, Cyprus","Lat":34.9167,"Long":33.6292,"Timestamp":20181105181500,"Source":"https:\/\/cyprus-mail.com\/2018\/11\/05\/two-years-for-man-caught-smuggling-opioid-pills\/"},{"ID":800211416,"Actor1":"POLICE","Actor1_Country":null,"Actor2":"PROFESSOR","Actor2_Country":null,"Code":90,"Class":2,"Action_Location":"Rio De Janeiro, Estado do Rio, Brazil","Lat":-22.9,"Long":-43.2333,"Timestamp":20181105181500,"Source":"https:\/\/nacla.org\/news\/2018\/11\/05\/specter-dictatorship-brazil"},{"ID":800211418,"Actor1":"PRISON","Actor1_Country":null,"Actor2":"ALEXANDRIA","Actor2_Country":"EGY","Code":30,"Class":1,"Action_Location":"Alexandria, Al Iskandariyah, Egypt","Lat":31.1981,"Long":29.9192,"Timestamp":20181105181500,"Source":"https:\/\/madison.com\/entertainment\/television\/the-walking-dead-a-fond-farewell-to-rick-grimes\/article_d50e2e77-8082-5562-aab5-c16b8f213f46.html"},{"ID":800211419,"Actor1":"POLICE","Actor1_Country":null,"Actor2":"HOSPITAL","Actor2_Country":null,"Code":12,"Class":1,"Action_Location":"Alexandria, Al Iskandariyah, Egypt","Lat":31.1981,"Long":29.9192,"Timestamp":20181105181500,"Source":"https:\/\/www.klfy.com\/news\/louisiana\/bomb-threat-shuts-down-monroe-airport\/1574199902"},{"ID":800211420,"Actor1":"POLICE","Actor1_Country":null,"Actor2":"JORDAN","Actor2_Country":"JOR","Code":173,"Class":4,"Action_Location":"Columbus, Ohio, United States","Lat":39.9612,"Long":-82.9988,"Timestamp":20181105181500,"Source":"https:\/\/myfox28columbus.com\/news\/local\/man-accused-of-murdering-couple-in-west-columbus-held-on-3-million-bond"},{"ID":800211421,"Actor1":"POLICE","Actor1_Country":null,"Actor2":"JORDAN","Actor2_Country":"JOR","Code":190,"Class":4,"Action_Location":"Columbus, Ohio, United States","Lat":39.9612,"Long":-82.9988,"Timestamp":20181105181500,"Source":"https:\/\/myfox28columbus.com\/news\/local\/man-accused-of-murdering-couple-in-west-columbus-held-on-3-million-bond"},{"ID":800211422,"Actor1":"POLICE OFFICER","Actor1_Country":null,"Actor2":"JORDAN","Actor2_Country":"JOR","Code":190,"Class":4,"Action_Location":"Georgia, United States","Lat":32.9866,"Long":-83.6487,"Timestamp":20181105181500,"Source":"https:\/\/heavy.com\/news\/2018\/11\/lucy-mcbath-jordan-davis\/"},{"ID":800211423,"Actor1":"POLICE OFFICER","Actor1_Country":null,"Actor2":"JORDAN","Actor2_Country":"JOR","Code":193,"Class":4,"Action_Location":"New York, United States","Lat":42.1497,"Long":-74.9384,"Timestamp":20181105181500,"Source":"https:\/\/heavy.com\/news\/2018\/11\/lucy-mcbath-jordan-davis\/"},{"ID":800211424,"Actor1":"PRISON","Actor1_Country":null,"Actor2":"COUNSEL","Actor2_Country":null,"Code":43,"Class":1,"Action_Location":"Vizag, Andhra Pradesh, India","Lat":17.7,"Long":83.3,"Timestamp":20181105181500,"Source":"http:\/\/www.thehansindia.com\/posts\/index\/Andhra-Pradesh\/2018-11-05\/Attack-on-Jagan--Accuseds-lawyer-files-bail-petition\/437826"},{"ID":800211425,"Actor1":"POLICE","Actor1_Country":null,"Actor2":"MITSUBISHI","Actor2_Country":"JPN","Code":10,"Class":1,"Action_Location":"Sand Springs, Oklahoma, United States","Lat":36.1398,"Long":-96.1089,"Timestamp":20181105181500,"Source":"https:\/\/www.kjrh.com\/news\/local-news\/sand-springs-police-search-for-woman-after-shooting"},{"ID":800211426,"Actor1":"POLICE","Actor1_Country":null,"Actor2":"MITSUBISHI","Actor2_Country":"JPN","Code":10,"Class":1,"Action_Location":"Oklahoma, United States","Lat":35.5376,"Long":-96.9247,"Timestamp":20181105181500,"Source":"https:\/\/www.kjrh.com\/news\/local-news\/sand-springs-police-search-for-woman-after-shooting"},{"ID":800211427,"Actor1":"POLICE","Actor1_Country":null,"Actor2":"MITSUBISHI","Actor2_Country":"JPN","Code":10,"Class":1,"Action_Location":"Oklahoma, United States","Lat":35.5376,"Long":-96.9247,"Timestamp":20181105181500,"Source":"https:\/\/www.kjrh.com\/news\/local-news\/sand-springs-police-search-for-woman-after-shooting"},{"ID":800211428,"Actor1":"DEPUTY","Actor1_Country":null,"Actor2":"NIGERIA","Actor2_Country":"NGA","Code":10,"Class":1,"Action_Location":"Kano, Kano, Nigeria","Lat":11.9964,"Long":8.51667,"Timestamp":20181105181500,"Source":"https:\/\/punchng.com\/lagos-kano-train-service-resumes-friday\/"},{"ID":800211429,"Actor1":"PRISON","Actor1_Country":null,"Actor2":"ROMANIA","Actor2_Country":null,"Code":43,"Class":1,"Action_Location":"Ramnicu Sarat, Romania (general), Romania","Lat":45.3833,"Long":27.05,"Timestamp":20181105181500,"Source":"http:\/\/en.rfi.fr\/wire\/20181105-romanian-ex-communist-prison-chief-dies-jail-93"},{"ID":800211430,"Actor1":"PRISON","Actor1_Country":null,"Actor2":"ROMANIA","Actor2_Country":null,"Code":173,"Class":4,"Action_Location":"Ramnicu Sarat, Romania (general), Romania","Lat":45.3833,"Long":27.05,"Timestamp":20181105181500,"Source":"http:\/\/en.rfi.fr\/wire\/20181105-romanian-ex-communist-prison-chief-dies-jail-93"},{"ID":800211431,"Actor1":"SECURITY FORCE","Actor1_Country":null,"Actor2":"FIGHTER","Actor2_Country":null,"Code":112,"Class":3,"Action_Location":"France","Lat":46.0,"Long":2.0,"Timestamp":20181105181500,"Source":"https:\/\/www.wral.com\/79-students-kidnapped-from-boarding-school-in-cameroon-official-says\/17971768\/"},{"ID":800211432,"Actor1":"POLICE","Actor1_Country":null,"Actor2":"KIEV","Actor2_Country":"UKR","Code":17,"Class":1,"Action_Location":"Kiev, Ukraine (general), Ukraine","Lat":50.4333,"Long":30.5167,"Timestamp":20181105181500,"Source":"https:\/\/www.nytimes.com\/2018\/11\/05\/world\/europe\/kateryna-handziuk-dies-ukraine.html"},{"ID":800211433,"Actor1":"POLICE OFFICER","Actor1_Country":null,"Actor2":"TEXAS","Actor2_Country":"USA","Code":42,"Class":1,"Action_Location":"Bastrop, Texas, United States","Lat":30.1105,"Long":-97.3153,"Timestamp":20181105181500,"Source":"https:\/\/www.statesman.com\/news\/20181105\/18-year-old-killed-in-crash-on-texas-71-near-bastrop-police-say"},{"ID":800211434,"Actor1":"POLICE","Actor1_Country":null,"Actor2":"UNITED STATES","Actor2_Country":"USA","Code":42,"Class":1,"Action_Location":"Bastrop, Texas, United States","Lat":30.1105,"Long":-97.3153,"Timestamp":20181105181500,"Source":"https:\/\/www.statesman.com\/news\/20181105\/18-year-old-killed-in-crash-on-texas-71-near-bastrop-police-say"},{"ID":800211435,"Actor1":"POLICE","Actor1_Country":null,"Actor2":"UNITED STATES","Actor2_Country":"USA","Code":46,"Class":1,"Action_Location":"Sand Springs, Oklahoma, United States","Lat":36.1398,"Long":-96.1089,"Timestamp":20181105181500,"Source":"https:\/\/www.kjrh.com\/news\/local-news\/sand-springs-police-search-for-woman-after-shooting"},{"ID":800211436,"Actor1":"POLICE","Actor1_Country":null,"Actor2":"UNITED STATES","Actor2_Country":"USA","Code":60,"Class":2,"Action_Location":"Bronzeville, Illinois, United States","Lat":41.8309,"Long":-87.6264,"Timestamp":20181105181500,"Source":"https:\/\/chicago.cbslocal.com\/2018\/11\/05\/englewood-hit-and-run-murder-reckless-homicide-christopher-carter-charged-cabari-chrishawn-turner-antonio-cowan-killed\/"},{"ID":800211437,"Actor1":"POLICE","Actor1_Country":null,"Actor2":"NEW YORK","Actor2_Country":"USA","Code":841,"Class":2,"Action_Location":"Plattsburgh, New York, United States","Lat":44.6995,"Long":-73.4529,"Timestamp":20181105181500,"Source":"https:\/\/www.syracuse.com\/state\/index.ssf\/2018\/11\/watch_woman_strangles_bouncer_she_thought_groped_her_at_upstate_ny_nightclub.html"},{"ID":800211438,"Actor1":"POLICE","Actor1_Country":null,"Actor2":"PENNSYLVANIA","Actor2_Country":"USA","Code":90,"Class":2,"Action_Location":"Delaware, United States","Lat":39.3498,"Long":-75.5148,"Timestamp":20181105181500,"Source":"https:\/\/www.delawareonline.com\/story\/news\/crime\/2018\/11\/05\/yannuzzi-could-have-secretly-filmed-women-sussex-county-home\/1891464002\/"},{"ID":800211439,"Actor1":"POLICE","Actor1_Country":null,"Actor2":"PENNSYLVANIA","Actor2_Country":"USA","Code":90,"Class":2,"Action_Location":"Pennsylvania, United States","Lat":40.5773,"Long":-77.264,"Timestamp":20181105181500,"Source":"https:\/\/www.delawareonline.com\/story\/news\/crime\/2018\/11\/05\/yannuzzi-could-have-secretly-filmed-women-sussex-county-home\/1891464002\/"},{"ID":800211440,"Actor1":"POLICE","Actor1_Country":null,"Actor2":"UNITED STATES","Actor2_Country":"USA","Code":112,"Class":3,"Action_Location":"Bronzeville, Illinois, United States","Lat":41.8309,"Long":-87.6264,"Timestamp":20181105181500,"Source":"https:\/\/chicago.cbslocal.com\/2018\/11\/05\/englewood-hit-and-run-murder-reckless-homicide-christopher-carter-charged-cabari-chrishawn-turner-antonio-cowan-killed\/"},{"ID":800211441,"Actor1":"LAW ENFORCEMENT OFFICER","Actor1_Country":null,"Actor2":"UNITED STATES","Actor2_Country":"USA","Code":173,"Class":4,"Action_Location":"Memphis, Tennessee, United States","Lat":35.1495,"Long":-90.049,"Timestamp":20181105181500,"Source":"https:\/\/www.commercialappeal.com\/story\/news\/local\/the-901\/2018\/11\/05\/wolfchase-galleria-enforces-unfair-no-hoodie-policy-leading-arrests-9-01\/1804568002\/"},{"ID":800211442,"Actor1":"POLICE","Actor1_Country":null,"Actor2":"UNITED STATES","Actor2_Country":"USA","Code":173,"Class":4,"Action_Location":"Chippewa County, Wisconsin, United States","Lat":45.0666,"Long":-91.2668,"Timestamp":20181105181500,"Source":"https:\/\/fox11online.com\/news\/state\/official-intoxicated-driver-accused-of-killing-4"},{"ID":800211443,"Actor1":"POLICE","Actor1_Country":null,"Actor2":"UNITED STATES","Actor2_Country":"USA","Code":190,"Class":4,"Action_Location":"Columbus, Ohio, United States","Lat":39.9612,"Long":-82.9988,"Timestamp":20181105181500,"Source":"https:\/\/myfox28columbus.com\/news\/local\/man-accused-of-murdering-couple-in-west-columbus-held-on-3-million-bond"},{"ID":800211444,"Actor1":"DEPUTY","Actor1_Country":null,"Actor2":"IOWA","Actor2_Country":"USA","Code":190,"Class":4,"Action_Location":"Lake Charles, Louisiana, United States","Lat":30.2266,"Long":-93.2174,"Timestamp":20181105181500,"Source":"https:\/\/www.klfy.com\/news\/louisiana\/iowa-man-struck-killed-by-deputy-s-vehicle-in-calcasieu-parish\/1574133787"},{"ID":800211445,"Actor1":"POLICE OFFICER","Actor1_Country":null,"Actor2":"UNITED STATES","Actor2_Country":"USA","Code":190,"Class":4,"Action_Location":"Georgia, United States","Lat":32.9866,"Long":-83.6487,"Timestamp":20181105181500,"Source":"https:\/\/heavy.com\/news\/2018\/11\/lucy-mcbath-jordan-davis\/"},{"ID":800211446,"Actor1":"POLICE OFFICER","Actor1_Country":null,"Actor2":"UNITED STATES","Actor2_Country":"USA","Code":193,"Class":4,"Action_Location":"Georgia, United States","Lat":32.9866,"Long":-83.6487,"Timestamp":20181105181500,"Source":"https:\/\/heavy.com\/news\/2018\/11\/lucy-mcbath-jordan-davis\/"},{"ID":800211447,"Actor1":"POLICE OFFICER","Actor1_Country":null,"Actor2":"UNITED STATES","Actor2_Country":"USA","Code":193,"Class":4,"Action_Location":"New York, United States","Lat":42.1497,"Long":-74.9384,"Timestamp":20181105181500,"Source":"https:\/\/heavy.com\/news\/2018\/11\/lucy-mcbath-jordan-davis\/"},{"ID":800211448,"Actor1":"POLICE","Actor1_Country":null,"Actor2":"PENNSYLVANIA","Actor2_Country":"USA","Code":90,"Class":2,"Action_Location":"Pennsylvania, United States","Lat":40.5773,"Long":-77.264,"Timestamp":20181105181500,"Source":"https:\/\/www.delawareonline.com\/story\/news\/crime\/2018\/11\/05\/yannuzzi-could-have-secretly-filmed-women-sussex-county-home\/1891464002\/"},{"ID":800211449,"Actor1":"POLICE","Actor1_Country":null,"Actor2":"UNITED STATES","Actor2_Country":"USA","Code":90,"Class":2,"Action_Location":"Pennsylvania, United States","Lat":40.5773,"Long":-77.264,"Timestamp":20181105181500,"Source":"https:\/\/www.delawareonline.com\/story\/news\/crime\/2018\/11\/05\/yannuzzi-could-have-secretly-filmed-women-sussex-county-home\/1891464002\/"},{"ID":800211452,"Actor1":"DEPUTY","Actor1_Country":null,"Actor2":"DEPUTY","Actor2_Country":null,"Code":13,"Class":1,"Action_Location":"Sweden","Lat":62.0,"Long":15.0,"Timestamp":20181105181500,"Source":"https:\/\/au.news.yahoo.com\/russia-china-abstain-un-vote-punish-libya-rapists-172421700--spt.html"},{"ID":800211453,"Actor1":"DEPUTY","Actor1_Country":null,"Actor2":"FRANCE","Actor2_Country":"FRA","Code":10,"Class":1,"Action_Location":"Paris, France (general), France","Lat":48.8667,"Long":2.33333,"Timestamp":20181105181500,"Source":"https:\/\/www.lagazzettadelmezzogiorno.it\/news\/english\/1077152\/salvini-borders-on-nationalism-xenophobia-moscovici.html"},{"ID":800211458,"Actor1":"DEALER","Actor1_Country":null,"Actor2":"AUTOMAKER","Actor2_Country":null,"Code":50,"Class":1,"Action_Location":"New York, United States","Lat":42.1497,"Long":-74.9384,"Timestamp":20181105181500,"Source":"https:\/\/www.extremetech.com\/extreme\/280107-gm-halts-pricey-book-by-cadillac-car-swap-subscription-plan"},{"ID":800211460,"Actor1":"CRIMINAL","Actor1_Country":null,"Actor2":"LIBYA","Actor2_Country":"LBY","Code":1821,"Class":4,"Action_Location":"Tripoli, Tarabulus, Libya","Lat":32.8925,"Long":13.18,"Timestamp":20181105181500,"Source":"https:\/\/au.news.yahoo.com\/russia-china-abstain-un-vote-punish-libya-rapists-172421700--spt.html"},{"ID":800211461,"Actor1":"KIDNAPPER","Actor1_Country":null,"Actor2":"MILITANT","Actor2_Country":null,"Code":20,"Class":1,"Action_Location":"Nkwen, Nord-Ouest, Cameroon","Lat":5.99352,"Long":10.1944,"Timestamp":20181105181500,"Source":"https:\/\/www.latestly.com\/world\/cameroon-78-students-kidnapped-by-suspected-ambazonia-insurgents-in-troubled-anglophone-region-473570.html"},{"ID":800211462,"Actor1":"KIDNAPPER","Actor1_Country":null,"Actor2":"MILITANT","Actor2_Country":null,"Code":841,"Class":2,"Action_Location":"Nkwen, Nord-Ouest, Cameroon","Lat":5.99352,"Long":10.1944,"Timestamp":20181105181500,"Source":"https:\/\/www.latestly.com\/world\/cameroon-78-students-kidnapped-by-suspected-ambazonia-insurgents-in-troubled-anglophone-region-473570.html"},{"ID":800211463,"Actor1":"CRIMINAL","Actor1_Country":null,"Actor2":"UNITED STATES","Actor2_Country":"USA","Code":173,"Class":4,"Action_Location":"Iowa, United States","Lat":42.0046,"Long":-93.214,"Timestamp":20181105181500,"Source":"https:\/\/www.nwitimes.com\/news\/local\/crime-and-courts\/year-old-wanted-in-gary-man-s-shooting-death-arrested\/article_daca217b-c86c-5d9e-963e-ee21aede1af2.html"},{"ID":800211464,"Actor1":"CRIMINAL","Actor1_Country":null,"Actor2":"UNITED STATES","Actor2_Country":"USA","Code":190,"Class":4,"Action_Location":"Iowa, United States","Lat":42.0046,"Long":-93.214,"Timestamp":20181105181500,"Source":"https:\/\/www.nwitimes.com\/news\/local\/crime-and-courts\/year-old-wanted-in-gary-man-s-shooting-death-arrested\/article_daca217b-c86c-5d9e-963e-ee21aede1af2.html"},{"ID":800211465,"Actor1":"CUBAN","Actor1_Country":"CUB","Actor2":"THE UN","Actor2_Country":null,"Code":51,"Class":1,"Action_Location":"Miami, Florida, United States","Lat":25.7743,"Long":-80.1937,"Timestamp":20181105181500,"Source":"https:\/\/panampost.com\/editor\/2018\/11\/05\/carlos-sanchez-berzain-how-castrochavismo-took-over-bolivia\/"},{"ID":800211466,"Actor1":"CUBAN","Actor1_Country":"CUB","Actor2":"THE UN","Actor2_Country":null,"Code":51,"Class":1,"Action_Location":"Miami, Florida, United States","Lat":25.7743,"Long":-80.1937,"Timestamp":20181105181500,"Source":"https:\/\/panampost.com\/editor\/2018\/11\/05\/carlos-sanchez-berzain-how-castrochavismo-took-over-bolivia\/"},{"ID":800211467,"Actor1":"CUBA","Actor1_Country":"CUB","Actor2":"NORTH KOREA","Actor2_Country":"PRK","Code":54,"Class":1,"Action_Location":"Cuba","Lat":22.0,"Long":-79.5,"Timestamp":20181105181500,"Source":"https:\/\/www.telegraph.co.uk\/news\/2018\/11\/05\/kim-jong-un-meets-cuban-president-diaz-canel-pyongyang-boost\/"},{"ID":800211468,"Actor1":"CUBA","Actor1_Country":"CUB","Actor2":"NORTH KOREA","Actor2_Country":"PRK","Code":54,"Class":1,"Action_Location":"Cuba","Lat":22.0,"Long":-79.5,"Timestamp":20181105181500,"Source":"https:\/\/www.telegraph.co.uk\/news\/2018\/11\/05\/kim-jong-un-meets-cuban-president-diaz-canel-pyongyang-boost\/"},{"ID":800211469,"Actor1":"CUBAN","Actor1_Country":"CUB","Actor2":"PYONGYANG","Actor2_Country":"PRK","Code":40,"Class":1,"Action_Location":"Pyongyang, P'yongyang-si, North Korea","Lat":39.0194,"Long":125.755,"Timestamp":20181105181500,"Source":"https:\/\/www.telegraph.co.uk\/news\/2018\/11\/05\/kim-jong-un-meets-cuban-president-diaz-canel-pyongyang-boost\/"},{"ID":800211470,"Actor1":"CUBAN","Actor1_Country":"CUB","Actor2":"THE UN","Actor2_Country":null,"Code":51,"Class":1,"Action_Location":"Miami, Florida, United States","Lat":25.7743,"Long":-80.1937,"Timestamp":20181105181500,"Source":"https:\/\/panampost.com\/editor\/2018\/11\/05\/carlos-sanchez-berzain-how-castrochavismo-took-over-bolivia\/"},{"ID":800211495,"Actor1":"NEIGHBORHOOD","Actor1_Country":null,"Actor2":"POLICE","Actor2_Country":null,"Code":173,"Class":4,"Action_Location":"Bronzeville, Illinois, United States","Lat":41.8309,"Long":-87.6264,"Timestamp":20181105181500,"Source":"https:\/\/chicago.cbslocal.com\/2018\/11\/05\/englewood-hit-and-run-murder-reckless-homicide-christopher-carter-charged-cabari-chrishawn-turner-antonio-cowan-killed\/"},{"ID":800211496,"Actor1":"COMMUNITY","Actor1_Country":null,"Actor2":"SCHOOL","Actor2_Country":null,"Code":42,"Class":1,"Action_Location":"Chippewa Falls, Wisconsin, United States","Lat":44.9369,"Long":-91.3929,"Timestamp":20181105181500,"Source":"https:\/\/www.heraldnet.com\/nation-world\/town-mourns-3-girl-scouts-1-adult-killed-in-hit-and-run\/"},{"ID":800211497,"Actor1":"COMMUNITY","Actor1_Country":null,"Actor2":"SCHOOL","Actor2_Country":null,"Code":42,"Class":1,"Action_Location":"Eau Claire, Wisconsin, United States","Lat":44.8113,"Long":-91.4985,"Timestamp":20181105181500,"Source":"https:\/\/www.heraldnet.com\/nation-world\/town-mourns-3-girl-scouts-1-adult-killed-in-hit-and-run\/"},{"ID":800211498,"Actor1":"IMMIGRANT","Actor1_Country":null,"Actor2":"STUDENT","Actor2_Country":null,"Code":57,"Class":1,"Action_Location":"Washington, District of Columbia, United States","Lat":38.8951,"Long":-77.0364,"Timestamp":20181105181500,"Source":"https:\/\/www.dailyemerald.com\/2018\/11\/05\/22-student-groups-push-asuo-to-oppose-measure-105\/"},{"ID":800211499,"Actor1":"IMMIGRANT","Actor1_Country":null,"Actor2":"STUDENT","Actor2_Country":null,"Code":57,"Class":1,"Action_Location":"Oregon, United States","Lat":44.5672,"Long":-122.127,"Timestamp":20181105181500,"Source":"https:\/\/www.dailyemerald.com\/2018\/11\/05\/22-student-groups-push-asuo-to-oppose-measure-105\/"},{"ID":800211500,"Actor1":"VOTER","Actor1_Country":null,"Actor2":"NEW CALEDONIA","Actor2_Country":"FRA","Code":120,"Class":3,"Action_Location":"New Caledonia","Lat":-21.5,"Long":165.5,"Timestamp":20181105181500,"Source":"https:\/\/www.democracynow.org\/2018\/11\/5\/headlines\/new_caledonia_rejects_independence_from_france"},{"ID":800211501,"Actor1":"COMMUNITY","Actor1_Country":null,"Actor2":"GOVERNOR","Actor2_Country":null,"Code":42,"Class":1,"Action_Location":"Edo State, Edo, Nigeria","Lat":6.5,"Long":6.0,"Timestamp":20181105181500,"Source":"http:\/\/nigerianobservernews.com\/2018\/11\/obaseki-orders-arrest-of-bedc-officials-for-removing-transformer-in-ihovbor-community\/"},{"ID":800211502,"Actor1":"VILLAGE","Actor1_Country":null,"Actor2":"FIRE DEPARTMENT","Actor2_Country":null,"Code":43,"Class":1,"Action_Location":"Tully Fire Department, New York, United States","Lat":42.7986,"Long":-76.1058,"Timestamp":20181105181500,"Source":"https:\/\/www.syracuse.com\/crime\/index.ssf\/2018\/11\/man_in_critical_condition_after_tully_apartment_fire.html"},{"ID":800211503,"Actor1":"VOTER","Actor1_Country":null,"Actor2":"PRESIDENT","Actor2_Country":null,"Code":90,"Class":2,"Action_Location":"United States","Lat":39.828175,"Long":-98.5795,"Timestamp":20181105181500,"Source":"https:\/\/www.salon.com\/2018\/11\/05\/a-referendum-on-donald-trump-and-whats-scary-is-we-dont-know-how-america-will-choose\/"},{"ID":800211504,"Actor1":"COMMUNITY","Actor1_Country":null,"Actor2":"PROSECUTOR","Actor2_Country":null,"Code":130,"Class":3,"Action_Location":"West Chester University, Pennsylvania, United States","Lat":39.9523,"Long":-75.5997,"Timestamp":20181105181500,"Source":"https:\/\/www.delawareonline.com\/story\/news\/crime\/2018\/11\/05\/yannuzzi-could-have-secretly-filmed-women-sussex-county-home\/1891464002\/"},{"ID":800211505,"Actor1":"COMMUNITY","Actor1_Country":null,"Actor2":"PROSECUTOR","Actor2_Country":null,"Code":130,"Class":3,"Action_Location":"Sussex County, Delaware, United States","Lat":38.7001,"Long":-75.4163,"Timestamp":20181105181500,"Source":"https:\/\/www.delawareonline.com\/story\/news\/crime\/2018\/11\/05\/yannuzzi-could-have-secretly-filmed-women-sussex-county-home\/1891464002\/"},{"ID":800211506,"Actor1":"COMMUNITY","Actor1_Country":null,"Actor2":"CONGRESS","Actor2_Country":null,"Code":112,"Class":3,"Action_Location":"Delhi, Delhi, India","Lat":28.6667,"Long":77.2167,"Timestamp":20181105181500,"Source":"https:\/\/www.thehindu.com\/elections\/rajasthan-assembly-elections-2018\/rajasthan-assembly-elections-2018-the-split-wide-open\/article25429656.ece"},{"ID":800211508,"Actor1":"MIGRANT","Actor1_Country":null,"Actor2":"MEXICAN","Actor2_Country":"MEX","Code":72,"Class":2,"Action_Location":"Mexico","Lat":23.0,"Long":-102.0,"Timestamp":20181105181500,"Source":"https:\/\/www.myjoyonline.com\/world\/2018\/November-5th\/frantic-final-day-for-us-mid-term-campaign.php"},{"ID":800211509,"Actor1":"COMMUNITY","Actor1_Country":null,"Actor2":"NAVY","Actor2_Country":null,"Code":51,"Class":1,"Action_Location":"Maine, United States","Lat":44.6074,"Long":-69.3977,"Timestamp":20181105181500,"Source":"https:\/\/www.navy.mil\/submit\/display.asp?story_id=107653"},{"ID":800211510,"Actor1":"COMMUNITY","Actor1_Country":null,"Actor2":"NIGERIA","Actor2_Country":"NGA","Code":36,"Class":1,"Action_Location":"Edo State, Edo, Nigeria","Lat":6.5,"Long":6.0,"Timestamp":20181105181500,"Source":"http:\/\/nigerianobservernews.com\/2018\/11\/obaseki-orders-arrest-of-bedc-officials-for-removing-transformer-in-ihovbor-community\/"},{"ID":800211511,"Actor1":"COMMUNITY","Actor1_Country":null,"Actor2":"WELLINGTON","Actor2_Country":"NZL","Code":51,"Class":1,"Action_Location":"Wellington, New Zealand (general), New Zealand","Lat":-41.3,"Long":174.783,"Timestamp":20181105181500,"Source":"http:\/\/www.wellingtondailynews.com\/news\/20181103\/winfield-community-theatre-celebrates-fifteen-years-at-meyer-hall-in-baden-square"},{"ID":800211512,"Actor1":"COMMUNITY","Actor1_Country":null,"Actor2":"DEMOCRATIC PARTY","Actor2_Country":null,"Code":36,"Class":1,"Action_Location":"Essex, Essex, United Kingdom","Lat":51.8333,"Long":0.583333,"Timestamp":20181105181500,"Source":"https:\/\/www.rt.com\/uk\/443133-alston-un-rapporteur-poverty\/"},{"ID":800211513,"Actor1":"RESIDENTS","Actor1_Country":null,"Actor2":"MILITIA","Actor2_Country":null,"Code":12,"Class":1,"Action_Location":"California, United States","Lat":36.17,"Long":-119.746,"Timestamp":20181105181500,"Source":"https:\/\/www.sfgate.com\/news\/article\/Militia-members-arrive-at-New-Mexico-border-town-13363902.php"},{"ID":800211514,"Actor1":"VOTER","Actor1_Country":null,"Actor2":"UNITED STATES","Actor2_Country":"USA","Code":10,"Class":1,"Action_Location":"Georgia, United States","Lat":32.9866,"Long":-83.6487,"Timestamp":20181105181500,"Source":"https:\/\/www.wsbtv.com\/news\/local\/having-problems-voting-in-georgia-here-s-what-you-can-do\/867018690"},{"ID":800211515,"Actor1":"MIGRANT","Actor1_Country":null,"Actor2":"UNITED STATES","Actor2_Country":"USA","Code":10,"Class":1,"Action_Location":"United States","Lat":39.828175,"Long":-98.5795,"Timestamp":20181105181500,"Source":"https:\/\/www.rawstory.com\/2018\/11\/ex-pentagon-spokesman-unloads-trump-using-troops-political-pawns\/"},{"ID":800211516,"Actor1":"MIGRANT","Actor1_Country":null,"Actor2":"UNITED STATES","Actor2_Country":"USA","Code":13,"Class":1,"Action_Location":"United States","Lat":39.828175,"Long":-98.5795,"Timestamp":20181105181500,"Source":"https:\/\/www.rawstory.com\/2018\/11\/ex-pentagon-spokesman-unloads-trump-using-troops-political-pawns\/"},{"ID":800211517,"Actor1":"VOTER","Actor1_Country":null,"Actor2":"UNITED STATES","Actor2_Country":"USA","Code":14,"Class":1,"Action_Location":"Mclennan County, Texas, United States","Lat":31.5502,"Long":-97.1836,"Timestamp":20181105181500,"Source":"http:\/\/hillsbororeporter.com\/hill-county-voters-head-to-the-polls-tuesday-november-p23187-54.htm"},{"ID":800211518,"Actor1":"VOTER","Actor1_Country":null,"Actor2":"UNITED STATES","Actor2_Country":"USA","Code":14,"Class":1,"Action_Location":"Mclennan County, Texas, United States","Lat":31.5502,"Long":-97.1836,"Timestamp":20181105181500,"Source":"http:\/\/hillsbororeporter.com\/hill-county-voters-head-to-the-polls-tuesday-november-p23187-54.htm"},{"ID":800211519,"Actor1":"RESIDENTS","Actor1_Country":null,"Actor2":"SOUTH CAROLINA","Actor2_Country":"USA","Code":20,"Class":1,"Action_Location":"Charleston, South Carolina, United States","Lat":32.7766,"Long":-79.9309,"Timestamp":20181105181500,"Source":"https:\/\/www.berkeleyind.com\/news\/lowcountry-residents-receive-robocall-from-trump-in-support-of-arrington\/article_92f63b6e-e110-11e8-aad6-8ba5b82e69ca.html"},{"ID":800211520,"Actor1":"MIGRANT","Actor1_Country":null,"Actor2":"UNITED STATES","Actor2_Country":"USA","Code":20,"Class":1,"Action_Location":"New York, United States","Lat":42.1497,"Long":-74.9384,"Timestamp":20181105181500,"Source":"https:\/\/forward.com\/fast-forward\/413568\/stephen-miller-key-figure-behind-trumps-anti-immigrant-election-push\/"},{"ID":800211521,"Actor1":"MIGRANT","Actor1_Country":null,"Actor2":"UNITED STATES","Actor2_Country":"USA","Code":20,"Class":1,"Action_Location":"New York, United States","Lat":42.1497,"Long":-74.9384,"Timestamp":20181105181500,"Source":"https:\/\/forward.com\/fast-forward\/413568\/stephen-miller-key-figure-behind-trumps-anti-immigrant-election-push\/"},{"ID":800211522,"Actor1":"COMMUNITY","Actor1_Country":null,"Actor2":"UNITED STATES","Actor2_Country":"USA","Code":42,"Class":1,"Action_Location":"Eau Claire, Wisconsin, United States","Lat":44.8113,"Long":-91.4985,"Timestamp":20181105181500,"Source":"https:\/\/www.heraldnet.com\/nation-world\/town-mourns-3-girl-scouts-1-adult-killed-in-hit-and-run\/"},{"ID":800211523,"Actor1":"VILLAGE","Actor1_Country":null,"Actor2":"UNITED STATES","Actor2_Country":"USA","Code":43,"Class":1,"Action_Location":"Tully Fire Department, New York, United States","Lat":42.7986,"Long":-76.1058,"Timestamp":20181105181500,"Source":"https:\/\/www.syracuse.com\/crime\/index.ssf\/2018\/11\/man_in_critical_condition_after_tully_apartment_fire.html"},{"ID":800211524,"Actor1":"SETTLEMENT","Actor1_Country":null,"Actor2":"SAN FRANCISCO","Actor2_Country":"USA","Code":50,"Class":1,"Action_Location":"San Francisco, California, United States","Lat":37.7749,"Long":-122.419,"Timestamp":20181105181500,"Source":"https:\/\/www.modbee.com\/news\/article220954700.html"},{"ID":800211525,"Actor1":"RESIDENTS","Actor1_Country":null,"Actor2":"UNITED STATES","Actor2_Country":"USA","Code":51,"Class":1,"Action_Location":"South Carolina, United States","Lat":33.8191,"Long":-80.9066,"Timestamp":20181105181500,"Source":"https:\/\/www.berkeleyind.com\/news\/lowcountry-residents-receive-robocall-from-trump-in-support-of-arrington\/article_92f63b6e-e110-11e8-aad6-8ba5b82e69ca.html"},{"ID":800211526,"Actor1":"VOTER","Actor1_Country":null,"Actor2":"MINNESOTA","Actor2_Country":"USA","Code":83,"Class":2,"Action_Location":"Minnesota, United States","Lat":45.7326,"Long":-93.9196,"Timestamp":20181105181500,"Source":"http:\/\/knoxradio.com\/news\/local\/gf-election-record"},{"ID":800211527,"Actor1":"VOTER","Actor1_Country":null,"Actor2":"NEBRASKA","Actor2_Country":"USA","Code":91,"Class":2,"Action_Location":"Nebraska, United States","Lat":41.1289,"Long":-98.2883,"Timestamp":20181105181500,"Source":"https:\/\/nebraskaradionetwork.com\/2018\/11\/05\/justice-department-to-investigate-allegations-of-voter-fraud-in-nebraska-as-part-of-election-day-program\/"},{"ID":800211528,"Actor1":"COMMUNITY","Actor1_Country":null,"Actor2":"UNITED STATES","Actor2_Country":"USA","Code":182,"Class":4,"Action_Location":"Wisconsin, United States","Lat":44.2563,"Long":-89.6385,"Timestamp":20181105181500,"Source":"http:\/\/www.wtvm.com\/2018\/11\/05\/wisconsin-girl-scouts-struck-killed-by-reckless-vehicle-during-highway-community-clean-up\/"},{"ID":800211529,"Actor1":"COMMUNITY","Actor1_Country":null,"Actor2":"WISCONSIN","Actor2_Country":"USA","Code":182,"Class":4,"Action_Location":"Wisconsin, United States","Lat":44.2563,"Long":-89.6385,"Timestamp":20181105181500,"Source":"http:\/\/www.wtvm.com\/2018\/11\/05\/wisconsin-girl-scouts-struck-killed-by-reckless-vehicle-during-highway-community-clean-up\/"},{"ID":800211530,"Actor1":"COMMUNITY","Actor1_Country":null,"Actor2":"WISCONSIN","Actor2_Country":"USA","Code":190,"Class":4,"Action_Location":"Chippewa Falls, Wisconsin, United States","Lat":44.9369,"Long":-91.3929,"Timestamp":20181105181500,"Source":"http:\/\/www.wtvm.com\/2018\/11\/05\/wisconsin-girl-scouts-struck-killed-by-reckless-vehicle-during-highway-community-clean-up\/"},{"ID":800211531,"Actor1":"CITIZEN","Actor1_Country":null,"Actor2":"GEORGE SOROS","Actor2_Country":"USA","Code":71,"Class":2,"Action_Location":"Nevada, United States","Lat":38.4199,"Long":-117.122,"Timestamp":20181105181500,"Source":"http:\/\/www.investmentwatchblog.com\/more-evidence-links-george-soros-to-caravan\/"},{"ID":800211532,"Actor1":"SCIENTIST","Actor1_Country":null,"Actor2":"NASA","Actor2_Country":"USA","Code":10,"Class":1,"Action_Location":"Montreal, Quebec, Canada","Lat":45.5,"Long":-73.5833,"Timestamp":20181105181500,"Source":"https:\/\/www.express.co.uk\/news\/science\/1041214\/ozone-layer-hole-depleted-united-nations-nasa-news-announcement-climate-change"},{"ID":800211533,"Actor1":"MIGRANT","Actor1_Country":null,"Actor2":"MILITIA","Actor2_Country":null,"Code":130,"Class":3,"Action_Location":"Tripoli, Tarabulus, Libya","Lat":32.8925,"Long":13.18,"Timestamp":20181105181500,"Source":"https:\/\/au.news.yahoo.com\/russia-china-abstain-un-vote-punish-libya-rapists-172421700--spt.html"},{"ID":800211534,"Actor1":"CYPRUS","Actor1_Country":"CYP","Actor2":"PRISON","Actor2_Country":null,"Code":173,"Class":4,"Action_Location":"Larnaca, Larnaca, Cyprus","Lat":34.9167,"Long":33.6292,"Timestamp":20181105181500,"Source":"https:\/\/cyprus-mail.com\/2018\/11\/05\/two-years-for-man-caught-smuggling-opioid-pills\/"},{"ID":800211535,"Actor1":"CYPRUS","Actor1_Country":"CYP","Actor2":"POLICE","Actor2_Country":null,"Code":43,"Class":1,"Action_Location":"Larnaca, Larnaca, Cyprus","Lat":34.9167,"Long":33.6292,"Timestamp":20181105181500,"Source":"https:\/\/cyprus-mail.com\/2018\/11\/05\/two-years-for-man-caught-smuggling-opioid-pills\/"},{"ID":800211537,"Actor1":"GERMAN","Actor1_Country":"DEU","Actor2":"ANGELA MERKEL","Actor2_Country":"DEU","Code":46,"Class":1,"Action_Location":"Germany","Lat":51.5,"Long":10.5,"Timestamp":20181105181500,"Source":"https:\/\/www.onenewspage.com\/n\/World\/1zjaqpdjss\/Back-from-the-wilderness-Merz-leads-race-to.htm"},{"ID":800211538,"Actor1":"GERMANY","Actor1_Country":"DEU","Actor2":"GERMANY","Actor2_Country":"DEU","Code":161,"Class":4,"Action_Location":"Chemnitz, Sachsen, Germany","Lat":50.8333,"Long":12.9167,"Timestamp":20181105181500,"Source":"http:\/\/www.naharnet.com\/stories\/en\/252734-germany-ousts-domestic-spy-chief-at-center-of-govt-row"},{"ID":800211539,"Actor1":"GERMANY","Actor1_Country":"DEU","Actor2":"BRITISH","Actor2_Country":"GBR","Code":40,"Class":1,"Action_Location":"Berchtesgaden, Bayern, Germany","Lat":47.6333,"Long":13.0,"Timestamp":20181105181500,"Source":"https:\/\/www.palisadeshudson.com\/2018\/11\/yesterdays-grandeur-todays-problems\/"},{"ID":800211540,"Actor1":"GERMANY","Actor1_Country":"DEU","Actor2":"BRITISH","Actor2_Country":"GBR","Code":40,"Class":1,"Action_Location":"Germany","Lat":51.5,"Long":10.5,"Timestamp":20181105181500,"Source":"https:\/\/www.palisadeshudson.com\/2018\/11\/yesterdays-grandeur-todays-problems\/"},{"ID":800211541,"Actor1":"GERMANY","Actor1_Country":"DEU","Actor2":"BRITISH","Actor2_Country":"GBR","Code":43,"Class":1,"Action_Location":"Berchtesgaden, Bayern, Germany","Lat":47.6333,"Long":13.0,"Timestamp":20181105181500,"Source":"https:\/\/www.palisadeshudson.com\/2018\/11\/yesterdays-grandeur-todays-problems\/"},{"ID":800211542,"Actor1":"GERMANY","Actor1_Country":"DEU","Actor2":"BRITISH","Actor2_Country":"GBR","Code":43,"Class":1,"Action_Location":"Germany","Lat":51.5,"Long":10.5,"Timestamp":20181105181500,"Source":"https:\/\/www.palisadeshudson.com\/2018\/11\/yesterdays-grandeur-todays-problems\/"},{"ID":800211543,"Actor1":"GERMANY","Actor1_Country":"DEU","Actor2":"BRITISH","Actor2_Country":"GBR","Code":40,"Class":1,"Action_Location":"Berchtesgaden, Bayern, Germany","Lat":47.6333,"Long":13.0,"Timestamp":20181105181500,"Source":"https:\/\/www.palisadeshudson.com\/2018\/11\/yesterdays-grandeur-todays-problems\/"},{"ID":800211544,"Actor1":"GERMANY","Actor1_Country":"DEU","Actor2":"UNITED KINGDOM","Actor2_Country":"GBR","Code":40,"Class":1,"Action_Location":"United Kingdom","Lat":54.0,"Long":-4.0,"Timestamp":20181105181500,"Source":"https:\/\/www.palisadeshudson.com\/2018\/11\/yesterdays-grandeur-todays-problems\/"},{"ID":800211545,"Actor1":"GERMANY","Actor1_Country":"DEU","Actor2":"BRITISH","Actor2_Country":"GBR","Code":43,"Class":1,"Action_Location":"United Kingdom","Lat":54.0,"Long":-4.0,"Timestamp":20181105181500,"Source":"https:\/\/www.palisadeshudson.com\/2018\/11\/yesterdays-grandeur-todays-problems\/"},{"ID":800211546,"Actor1":"GERMANY","Actor1_Country":"DEU","Actor2":"JAPAN","Actor2_Country":"JPN","Code":190,"Class":4,"Action_Location":"Germany","Lat":51.5,"Long":10.5,"Timestamp":20181105181500,"Source":"https:\/\/www.foxnews.com\/science\/amazing-top-secret-wwii-antarctic-mission-to-spy-on-nazi-troops-in-the-south-pole-story-told"},{"ID":800211547,"Actor1":"GERMAN","Actor1_Country":"DEU","Actor2":"JAPANESE","Actor2_Country":"JPN","Code":190,"Class":4,"Action_Location":"Germany","Lat":51.5,"Long":10.5,"Timestamp":20181105181500,"Source":"https:\/\/www.foxnews.com\/science\/amazing-top-secret-wwii-antarctic-mission-to-spy-on-nazi-troops-in-the-south-pole-story-told"},{"ID":800211548,"Actor1":"GERMAN","Actor1_Country":"DEU","Actor2":"JAPANESE","Actor2_Country":"JPN","Code":190,"Class":4,"Action_Location":"United Kingdom","Lat":54.0,"Long":-4.0,"Timestamp":20181105181500,"Source":"https:\/\/www.foxnews.com\/science\/amazing-top-secret-wwii-antarctic-mission-to-spy-on-nazi-troops-in-the-south-pole-story-told"},{"ID":800211549,"Actor1":"GERMANY","Actor1_Country":"DEU","Actor2":"DETAINEE","Actor2_Country":null,"Code":1822,"Class":4,"Action_Location":"Syria","Lat":35.0,"Long":38.0,"Timestamp":20181105181500,"Source":"https:\/\/www.thehindu.com\/news\/international\/france-issues-warrant-for-3-syria-officials\/article25429569.ece"},{"ID":800211550,"Actor1":"ANGELA MERKEL","Actor1_Country":"DEU","Actor2":"GERMAN","Actor2_Country":"DEU","Code":46,"Class":1,"Action_Location":"Germany","Lat":51.5,"Long":10.5,"Timestamp":20181105181500,"Source":"https:\/\/www.onenewspage.com\/n\/World\/1zjaqpdjss\/Back-from-the-wilderness-Merz-leads-race-to.htm"},{"ID":800211551,"Actor1":"GERMANY","Actor1_Country":"DEU","Actor2":"GERMANY","Actor2_Country":"DEU","Code":90,"Class":2,"Action_Location":"Chemnitz, Sachsen, Germany","Lat":50.8333,"Long":12.9167,"Timestamp":20181105181500,"Source":"http:\/\/www.naharnet.com\/stories\/en\/252734-germany-ousts-domestic-spy-chief-at-center-of-govt-row"},{"ID":800211552,"Actor1":"GERMANY","Actor1_Country":"DEU","Actor2":"PROTESTER","Actor2_Country":null,"Code":90,"Class":2,"Action_Location":"Warsaw, (PL67), Poland","Lat":52.25,"Long":21.0,"Timestamp":20181105181500,"Source":"http:\/\/www.naharnet.com\/stories\/en\/252734-germany-ousts-domestic-spy-chief-at-center-of-govt-row"},{"ID":800211554,"Actor1":"DJIBOUTI","Actor1_Country":"DJI","Actor2":"EGYPT","Actor2_Country":"EGY","Code":10,"Class":1,"Action_Location":"Red Sea, Djibouti (general), Djibouti","Lat":19.0,"Long":39.5,"Timestamp":20181105181500,"Source":"https:\/\/www.itv.com\/news\/2018-11-05\/egypt-john-susan-cooper-thomas-cook-hurghada-rania-al-mashat\/"},{"ID":800211556,"Actor1":"DENMARK","Actor1_Country":"DNK","Actor2":"TEHRAN","Actor2_Country":"IRN","Code":161,"Class":4,"Action_Location":"Christiansborg Palace, Hovedstaden, Denmark","Lat":55.6751,"Long":12.5781,"Timestamp":20181105181500,"Source":"https:\/\/www.palisadeshudson.com\/2018\/11\/yesterdays-grandeur-todays-problems\/"},{"ID":800211557,"Actor1":"DENMARK","Actor1_Country":"DNK","Actor2":"TEHRAN","Actor2_Country":"IRN","Code":161,"Class":4,"Action_Location":"Christiansborg Palace, Hovedstaden, Denmark","Lat":55.6751,"Long":12.5781,"Timestamp":20181105181500,"Source":"https:\/\/www.palisadeshudson.com\/2018\/11\/yesterdays-grandeur-todays-problems\/"},{"ID":800211559,"Actor1":"LARS LOKKE RASMUSSEN","Actor1_Country":"DNK","Actor2":"IRANIAN","Actor2_Country":"IRN","Code":173,"Class":4,"Action_Location":"Christiansborg Palace, Hovedstaden, Denmark","Lat":55.6751,"Long":12.5781,"Timestamp":20181105181500,"Source":"https:\/\/www.palisadeshudson.com\/2018\/11\/yesterdays-grandeur-todays-problems\/"},{"ID":800211560,"Actor1":"LARS LOKKE RASMUSSEN","Actor1_Country":"DNK","Actor2":"IRANIAN","Actor2_Country":"IRN","Code":173,"Class":4,"Action_Location":"Florida, United States","Lat":27.8333,"Long":-81.717,"Timestamp":20181105181500,"Source":"https:\/\/www.palisadeshudson.com\/2018\/11\/yesterdays-grandeur-todays-problems\/"},{"ID":800211561,"Actor1":"LARS LOKKE RASMUSSEN","Actor1_Country":"DNK","Actor2":"NORWAY","Actor2_Country":"NOR","Code":186,"Class":4,"Action_Location":"Ahvaz, Khuzestan, Iran","Lat":31.3203,"Long":48.6693,"Timestamp":20181105181500,"Source":"https:\/\/www.palisadeshudson.com\/2018\/11\/yesterdays-grandeur-todays-problems\/"},{"ID":800211562,"Actor1":"LARS LOKKE RASMUSSEN","Actor1_Country":"DNK","Actor2":"NORWAY","Actor2_Country":"NOR","Code":186,"Class":4,"Action_Location":"Ahvaz, Khuzestan, Iran","Lat":31.3203,"Long":48.6693,"Timestamp":20181105181500,"Source":"https:\/\/www.palisadeshudson.com\/2018\/11\/yesterdays-grandeur-todays-problems\/"},{"ID":800211563,"Actor1":"LARS LOKKE RASMUSSEN","Actor1_Country":"DNK","Actor2":"FLORIDA","Actor2_Country":"USA","Code":42,"Class":1,"Action_Location":"Florida, United States","Lat":27.8333,"Long":-81.717,"Timestamp":20181105181500,"Source":"https:\/\/www.palisadeshudson.com\/2018\/11\/yesterdays-grandeur-todays-problems\/"},{"ID":800211564,"Actor1":"LARS LOKKE RASMUSSEN","Actor1_Country":"DNK","Actor2":"FLORIDA","Actor2_Country":"USA","Code":42,"Class":1,"Action_Location":"Christiansborg Palace, Hovedstaden, Denmark","Lat":55.6751,"Long":12.5781,"Timestamp":20181105181500,"Source":"https:\/\/www.palisadeshudson.com\/2018\/11\/yesterdays-grandeur-todays-problems\/"},{"ID":800211565,"Actor1":"ALGERIA","Actor1_Country":"DZA","Actor2":"ALGERIA","Actor2_Country":"DZA","Code":40,"Class":1,"Action_Location":"Algiers, Alger, Algeria","Lat":36.7631,"Long":3.05056,"Timestamp":20181105181500,"Source":"http:\/\/www.adnkronos.com\/aki-en\/politics\/2018\/11\/05\/italy-and-algeria-strengthen-cooperation-expulsions_5ojajZsbablF96qrNorjgN.html"},{"ID":800211566,"Actor1":"ALGERIA","Actor1_Country":"DZA","Actor2":"ALGERIA","Actor2_Country":"DZA","Code":46,"Class":1,"Action_Location":"Algiers, Alger, Algeria","Lat":36.7631,"Long":3.05056,"Timestamp":20181105181500,"Source":"http:\/\/www.adnkronos.com\/aki-en\/politics\/2018\/11\/05\/italy-and-algeria-strengthen-cooperation-expulsions_5ojajZsbablF96qrNorjgN.html"},{"ID":800211567,"Actor1":"ALGERIA","Actor1_Country":"DZA","Actor2":"ITALY","Actor2_Country":"ITA","Code":13,"Class":1,"Action_Location":"Palermo, Sicilia, Italy","Lat":38.1167,"Long":13.3667,"Timestamp":20181105181500,"Source":"http:\/\/www.adnkronos.com\/aki-en\/politics\/2018\/11\/05\/led-reconciliation-only-way-forward-for-libya-conte_vPByJNK1vyc9kuYV9FD1AI.html"},{"ID":800211568,"Actor1":"ALGERIA","Actor1_Country":"DZA","Actor2":"ITALY","Actor2_Country":"ITA","Code":13,"Class":1,"Action_Location":"Palermo, Sicilia, Italy","Lat":38.1167,"Long":13.3667,"Timestamp":20181105181500,"Source":"http:\/\/www.adnkronos.com\/aki-en\/politics\/2018\/11\/05\/led-reconciliation-only-way-forward-for-libya-conte_vPByJNK1vyc9kuYV9FD1AI.html"},{"ID":800211569,"Actor1":"ALGERIA","Actor1_Country":"DZA","Actor2":"ITALY","Actor2_Country":"ITA","Code":31,"Class":1,"Action_Location":"Algiers, Alger, Algeria","Lat":36.7631,"Long":3.05056,"Timestamp":20181105181500,"Source":"http:\/\/www.adnkronos.com\/aki-en\/politics\/2018\/11\/05\/italy-and-algeria-strengthen-cooperation-expulsions_5ojajZsbablF96qrNorjgN.html"},{"ID":800211570,"Actor1":"ALGERIA","Actor1_Country":"DZA","Actor2":"ITALY","Actor2_Country":"ITA","Code":31,"Class":1,"Action_Location":"Algiers, Alger, Algeria","Lat":36.7631,"Long":3.05056,"Timestamp":20181105181500,"Source":"http:\/\/www.adnkronos.com\/aki-en\/politics\/2018\/11\/05\/italy-and-algeria-strengthen-cooperation-expulsions_5ojajZsbablF96qrNorjgN.html"},{"ID":800211571,"Actor1":"ALGERIA","Actor1_Country":"DZA","Actor2":"ITALY","Actor2_Country":"ITA","Code":36,"Class":1,"Action_Location":"Tripoli, Tarabulus, Libya","Lat":32.8925,"Long":13.18,"Timestamp":20181105181500,"Source":"http:\/\/www.adnkronos.com\/aki-en\/politics\/2018\/11\/05\/led-reconciliation-only-way-forward-for-libya-conte_vPByJNK1vyc9kuYV9FD1AI.html"},{"ID":800211572,"Actor1":"ALGERIA","Actor1_Country":"DZA","Actor2":"ITALY","Actor2_Country":"ITA","Code":36,"Class":1,"Action_Location":"Algeria","Lat":28.0,"Long":3.0,"Timestamp":20181105181500,"Source":"http:\/\/www.adnkronos.com\/aki-en\/politics\/2018\/11\/05\/led-reconciliation-only-way-forward-for-libya-conte_vPByJNK1vyc9kuYV9FD1AI.html"},{"ID":800211573,"Actor1":"ALGERIA","Actor1_Country":"DZA","Actor2":"ITALY","Actor2_Country":"ITA","Code":50,"Class":1,"Action_Location":"Algiers, Alger, Algeria","Lat":36.7631,"Long":3.05056,"Timestamp":20181105181500,"Source":"http:\/\/www.adnkronos.com\/aki-en\/politics\/2018\/11\/05\/italy-and-algeria-strengthen-cooperation-expulsions_5ojajZsbablF96qrNorjgN.html"},{"ID":800211574,"Actor1":"ALGERIA","Actor1_Country":"DZA","Actor2":"ITALY","Actor2_Country":"ITA","Code":50,"Class":1,"Action_Location":"Algiers, Alger, Algeria","Lat":36.7631,"Long":3.05056,"Timestamp":20181105181500,"Source":"http:\/\/www.adnkronos.com\/aki-en\/politics\/2018\/11\/05\/italy-and-algeria-strengthen-cooperation-expulsions_5ojajZsbablF96qrNorjgN.html"},{"ID":800211575,"Actor1":"ALGERIAN","Actor1_Country":"DZA","Actor2":"WORKER","Actor2_Country":null,"Code":172,"Class":4,"Action_Location":"Algeria","Lat":28.0,"Long":3.0,"Timestamp":20181105181500,"Source":"http:\/\/www.copts-united.com\/English\/Details.php?I=2268&A=36564"},{"ID":800211576,"Actor1":"ALGERIAN","Actor1_Country":"DZA","Actor2":"WORKER","Actor2_Country":null,"Code":172,"Class":4,"Action_Location":"Algeria","Lat":28.0,"Long":3.0,"Timestamp":20181105181500,"Source":"http:\/\/www.copts-united.com\/English\/Details.php?I=2268&A=36564"},{"ID":800211578,"Actor1":"ALGERIA","Actor1_Country":"DZA","Actor2":"ALGERIA","Actor2_Country":"DZA","Code":46,"Class":1,"Action_Location":"Algiers, Alger, Algeria","Lat":36.7631,"Long":3.05056,"Timestamp":20181105181500,"Source":"http:\/\/www.adnkronos.com\/aki-en\/politics\/2018\/11\/05\/italy-and-algeria-strengthen-cooperation-expulsions_5ojajZsbablF96qrNorjgN.html"},{"ID":800211579,"Actor1":"ALGERIAN","Actor1_Country":"DZA","Actor2":"WORKER","Actor2_Country":null,"Code":172,"Class":4,"Action_Location":"Algeria","Lat":28.0,"Long":3.0,"Timestamp":20181105181500,"Source":"http:\/\/www.copts-united.com\/English\/Details.php?I=2268&A=36564"},{"ID":800211580,"Actor1":"ALGERIA","Actor1_Country":"DZA","Actor2":"ALGERIA","Actor2_Country":"DZA","Code":10,"Class":1,"Action_Location":"Johannesburg, Gauteng, South Africa","Lat":-26.2,"Long":28.0833,"Timestamp":20181105181500,"Source":"https:\/\/markets.businessinsider.com\/news\/stocks\/algerian-oil-gas-industry-leader-chooses-mix-telematics-solution-for-its-fleet-management-1027665217"},{"ID":800211581,"Actor1":"ALGERIA","Actor1_Country":"DZA","Actor2":"ALGERIA","Actor2_Country":"DZA","Code":10,"Class":1,"Action_Location":"Algeria","Lat":28.0,"Long":3.0,"Timestamp":20181105181500,"Source":"https:\/\/markets.businessinsider.com\/news\/stocks\/algerian-oil-gas-industry-leader-chooses-mix-telematics-solution-for-its-fleet-management-1027665217"},{"ID":800211584,"Actor1":"ECUADOR","Actor1_Country":"ECU","Actor2":"BUSINESS","Actor2_Country":null,"Code":43,"Class":1,"Action_Location":"Quito, Pichincha, Ecuador","Lat":-0.216667,"Long":-78.5,"Timestamp":20181105181500,"Source":"https:\/\/www.luxetravelfamily.com\/ten-things-to-do-in-old-town-quito-with-kids\/"},{"ID":800211585,"Actor1":"ECUADOR","Actor1_Country":"ECU","Actor2":"UNITED STATES","Actor2_Country":"USA","Code":43,"Class":1,"Action_Location":"Quito, Pichincha, Ecuador","Lat":-0.216667,"Long":-78.5,"Timestamp":20181105181500,"Source":"https:\/\/www.luxetravelfamily.com\/ten-things-to-do-in-old-town-quito-with-kids\/"},{"ID":800211606,"Actor1":"STUDENT","Actor1_Country":null,"Actor2":"RIO DE JANEIRO","Actor2_Country":"BRA","Code":140,"Class":3,"Action_Location":"Rio De Janeiro, Estado do Rio, Brazil","Lat":-22.9,"Long":-43.2333,"Timestamp":20181105181500,"Source":"https:\/\/nacla.org\/news\/2018\/11\/05\/specter-dictatorship-brazil"},{"ID":800211607,"Actor1":"STUDENT","Actor1_Country":null,"Actor2":"BUSINESS","Actor2_Country":null,"Code":40,"Class":1,"Action_Location":"Wisconsin, United States","Lat":44.2563,"Long":-89.6385,"Timestamp":20181105181500,"Source":"https:\/\/ecals.cals.wisc.edu\/2018\/11\/05\/new-summer-program-helps-incoming-freshmen-get-quickstart\/"},{"ID":800211609,"Actor1":"COLLEGE","Actor1_Country":null,"Actor2":"POLICE","Actor2_Country":null,"Code":43,"Class":1,"Action_Location":"Larnaca, Larnaca, Cyprus","Lat":34.9167,"Long":33.6292,"Timestamp":20181105181500,"Source":"https:\/\/cyprus-mail.com\/2018\/11\/05\/two-years-for-man-caught-smuggling-opioid-pills\/"},{"ID":800211610,"Actor1":"STUDENT","Actor1_Country":null,"Actor2":"IMMIGRANT","Actor2_Country":null,"Code":57,"Class":1,"Action_Location":"Washington, District of Columbia, United States","Lat":38.8951,"Long":-77.0364,"Timestamp":20181105181500,"Source":"https:\/\/www.dailyemerald.com\/2018\/11\/05\/22-student-groups-push-asuo-to-oppose-measure-105\/"},{"ID":800211611,"Actor1":"STUDENT","Actor1_Country":null,"Actor2":"IMMIGRANT","Actor2_Country":null,"Code":57,"Class":1,"Action_Location":"Oregon, United States","Lat":44.5672,"Long":-122.127,"Timestamp":20181105181500,"Source":"https:\/\/www.dailyemerald.com\/2018\/11\/05\/22-student-groups-push-asuo-to-oppose-measure-105\/"},{"ID":800211612,"Actor1":"UNIVERSITY","Actor1_Country":null,"Actor2":"UNIVERSITY","Actor2_Country":null,"Code":40,"Class":1,"Action_Location":"Ghana","Lat":8.0,"Long":-2.0,"Timestamp":20181105181500,"Source":"https:\/\/www.myjoyonline.com\/politics\/2018\/November-5th\/knust-council-saga-govt-being-totalitarian-prof-gyampo.php"},{"ID":800211613,"Actor1":"PUPIL","Actor1_Country":null,"Actor2":"FINLAND","Actor2_Country":"FIN","Code":42,"Class":1,"Action_Location":"Helsinki, Etel\u00e4uomen L\u00e4i, Finland","Lat":60.1756,"Long":24.9342,"Timestamp":20181105181500,"Source":"https:\/\/yle.fi\/uutiset\/osasto\/news\/primary_school_classroom_ceiling_collapses_in_helsinki\/10493288"},{"ID":800211614,"Actor1":"PUPIL","Actor1_Country":null,"Actor2":"HELSINKI","Actor2_Country":"FIN","Code":42,"Class":1,"Action_Location":"Helsinki, Etel\u00e4uomen L\u00e4i, Finland","Lat":60.1756,"Long":24.9342,"Timestamp":20181105181500,"Source":"https:\/\/yle.fi\/uutiset\/osasto\/news\/primary_school_classroom_ceiling_collapses_in_helsinki\/10493288"},{"ID":800211615,"Actor1":"PROFESSOR","Actor1_Country":null,"Actor2":"FIJI","Actor2_Country":"FJI","Code":10,"Class":1,"Action_Location":"Fiji","Lat":-18.0,"Long":178.0,"Timestamp":20181105181500,"Source":"https:\/\/www.fijitimes.com\/odpp-invites-professor-for-expert-evidence-on-incestuous-rape-case\/"},{"ID":800211616,"Actor1":"PROFESSOR","Actor1_Country":null,"Actor2":"FIJI","Actor2_Country":"FJI","Code":1821,"Class":4,"Action_Location":"Fiji","Lat":-18.0,"Long":178.0,"Timestamp":20181105181500,"Source":"https:\/\/www.fijitimes.com\/odpp-invites-professor-for-expert-evidence-on-incestuous-rape-case\/"},{"ID":800211617,"Actor1":"PROFESSOR","Actor1_Country":null,"Actor2":"UNITED KINGDOM","Actor2_Country":"GBR","Code":40,"Class":1,"Action_Location":"Bristol, Bristol, City of, United Kingdom","Lat":51.45,"Long":-2.58333,"Timestamp":20181105181500,"Source":"https:\/\/www.bionews.org.uk\/page_139493"},{"ID":800211618,"Actor1":"SCHOOL","Actor1_Country":null,"Actor2":"RHODES","Actor2_Country":"GRC","Code":111,"Class":3,"Action_Location":"New York, United States","Lat":42.1497,"Long":-74.9384,"Timestamp":20181105181500,"Source":"https:\/\/www.nhregister.com\/news\/article\/Election-2018-What-to-watch-in-New-York-state-13363905.php"},{"ID":800211620,"Actor1":"SCHOOL","Actor1_Country":null,"Actor2":"PROSECUTOR","Actor2_Country":null,"Code":112,"Class":3,"Action_Location":"Canyon County, Idaho, United States","Lat":43.8752,"Long":-116.959,"Timestamp":20181105181500,"Source":"https:\/\/www.idahostatejournal.com\/news\/local\/crimes-in-idaho-automatically-place-teens-in-adult-court-not\/article_b2526c46-e7c1-511d-95ab-71b5d088afc2.html"},{"ID":800211621,"Actor1":"SCHOOL","Actor1_Country":null,"Actor2":"PROSECUTOR","Actor2_Country":null,"Code":190,"Class":4,"Action_Location":"Columbia High School, New York, United States","Lat":42.6261,"Long":-73.6912,"Timestamp":20181105181500,"Source":"https:\/\/www.idahostatejournal.com\/news\/local\/crimes-in-idaho-automatically-place-teens-in-adult-court-not\/article_b2526c46-e7c1-511d-95ab-71b5d088afc2.html"},{"ID":800211622,"Actor1":"UNIVERSITY","Actor1_Country":null,"Actor2":"PUBLICATION","Actor2_Country":null,"Code":46,"Class":1,"Action_Location":"London, London, City of, United Kingdom","Lat":51.5,"Long":-0.116667,"Timestamp":20181105181500,"Source":"https:\/\/www.investmentweek.co.uk\/investment-week\/news\/3065688\/invesco-continues-to-build-government-relations-team-with-second-hire"},{"ID":800211623,"Actor1":"SCHOOL","Actor1_Country":null,"Actor2":"MILITARY","Actor2_Country":null,"Code":43,"Class":1,"Action_Location":"Lowndes High School, Georgia, United States","Lat":30.8383,"Long":-83.3263,"Timestamp":20181105181500,"Source":"http:\/\/valdostatoday.com\/news-2\/local\/2018\/11\/lowndes-high-selected-as-military-flagship-school-by-gdoe\/"},{"ID":800211626,"Actor1":"STUDENT","Actor1_Country":null,"Actor2":"UNITED STATES","Actor2_Country":"USA","Code":11,"Class":1,"Action_Location":"Oregon, United States","Lat":44.5672,"Long":-122.127,"Timestamp":20181105181500,"Source":"https:\/\/www.dailyemerald.com\/2018\/11\/05\/22-student-groups-push-asuo-to-oppose-measure-105\/"},{"ID":800211627,"Actor1":"STUDENT","Actor1_Country":null,"Actor2":"OREGON","Actor2_Country":"USA","Code":11,"Class":1,"Action_Location":"Oregon, United States","Lat":44.5672,"Long":-122.127,"Timestamp":20181105181500,"Source":"https:\/\/www.dailyemerald.com\/2018\/11\/05\/22-student-groups-push-asuo-to-oppose-measure-105\/"},{"ID":800211628,"Actor1":"UNIVERSITY","Actor1_Country":null,"Actor2":"IDAHO","Actor2_Country":"USA","Code":13,"Class":1,"Action_Location":"Idaho, United States","Lat":44.2394,"Long":-114.51,"Timestamp":20181105181500,"Source":"https:\/\/www.idahostatejournal.com\/news\/local\/crimes-in-idaho-automatically-place-teens-in-adult-court-not\/article_b2526c46-e7c1-511d-95ab-71b5d088afc2.html"},{"ID":800211629,"Actor1":"COLLEGE","Actor1_Country":null,"Actor2":"UNITED STATES","Actor2_Country":"USA","Code":40,"Class":1,"Action_Location":"Washington, District of Columbia, United States","Lat":38.8951,"Long":-77.0364,"Timestamp":20181105181500,"Source":"https:\/\/neonnettle.com\/news\/5545-senate-report-witness-had-encounter-with-ford-similar-to-her-kavanaugh-claim"},{"ID":800211630,"Actor1":"SCHOOL","Actor1_Country":null,"Actor2":"UNITED STATES","Actor2_Country":"USA","Code":42,"Class":1,"Action_Location":"Hinkley High School, Colorado, United States","Lat":39.735,"Long":-104.809,"Timestamp":20181105181500,"Source":"https:\/\/durangoherald.com\/articles\/249079-colorado-us-rep-coffman-is-fighting-for-his-political-life"},{"ID":800211631,"Actor1":"SCHOOL","Actor1_Country":null,"Actor2":"UNITED STATES","Actor2_Country":"USA","Code":42,"Class":1,"Action_Location":"Hinkley High School, Colorado, United States","Lat":39.735,"Long":-104.809,"Timestamp":20181105181500,"Source":"https:\/\/durangoherald.com\/articles\/249079-colorado-us-rep-coffman-is-fighting-for-his-political-life"},{"ID":800211632,"Actor1":"SCHOOL","Actor1_Country":null,"Actor2":"UNITED STATES","Actor2_Country":"USA","Code":42,"Class":1,"Action_Location":"Denver, Colorado, United States","Lat":39.7392,"Long":-104.985,"Timestamp":20181105181500,"Source":"https:\/\/durangoherald.com\/articles\/249079-colorado-us-rep-coffman-is-fighting-for-his-political-life"},{"ID":800211633,"Actor1":"SCHOOL","Actor1_Country":null,"Actor2":"DENVER","Actor2_Country":"USA","Code":43,"Class":1,"Action_Location":"Colorado State University, Colorado, United States","Lat":40.5672,"Long":-105.594,"Timestamp":20181105181500,"Source":"https:\/\/source.colostate.edu\/in-memory-kevin-ann-oltjenbruns\/"},{"ID":800211634,"Actor1":"UNIVERSITY","Actor1_Country":null,"Actor2":"UNITED STATES","Actor2_Country":"USA","Code":43,"Class":1,"Action_Location":"Thompson Free Library, Maine, United States","Lat":45.1814,"Long":-69.2194,"Timestamp":20181105181500,"Source":"https:\/\/observer-me.com\/2018\/11\/05\/author-paul-doiron-to-speak-at-thompson-free-library-nov-15\/"},{"ID":800211635,"Actor1":"SCHOOL","Actor1_Country":null,"Actor2":"UNITED STATES","Actor2_Country":"USA","Code":43,"Class":1,"Action_Location":"North Andover, Massachusetts, United States","Lat":42.6987,"Long":-71.1351,"Timestamp":20181105181500,"Source":"http:\/\/www.whav.net\/cms\/marie-t-st-hilaire-timpf-68\/"},