[{"ID":800255797,"Actor1":"AUSTRALIA","Actor1_Country":"AUS","Actor2":"SHANGHAI","Actor2_Country":"CHN","Code":13,"Class":1,"Action_Location":"Melbourne, Victoria, Australia","Lat":-37.8167,"Long":144.967,"Timestamp":20181105221500,"Source":"https:\/\/www.9news.com.au\/2018\/11\/06\/06\/27\/govt-mps-float-idea-for-2-polls-in-2019"},{"ID":800255798,"Actor1":"AUSTRALIA","Actor1_Country":"AUS","Actor2":"SHANGHAI","Actor2_Country":"CHN","Code":10,"Class":1,"Action_Location":"Melbourne, Victoria, Australia","Lat":-37.8167,"Long":144.967,"Timestamp":20181105221500,"Source":"https:\/\/www.9news.com.au\/2018\/11\/06\/06\/27\/govt-mps-float-idea-for-2-polls-in-2019"},{"ID":800255799,"Actor1":"PRISON","Actor1_Country":null,"Actor2":"TURKEY","Actor2_Country":"TUR","Code":190,"Class":4,"Action_Location":"Sussex Correctional Institution, Delaware, United States","Lat":38.6604,"Long":-75.3724,"Timestamp":20181105221500,"Source":"http:\/\/www.bradfordera.com\/news\/state\/mayhem-goin-on-inmates-detail-violent-vaughn-prison-uprising-further\/article_5236587d-f3b3-5bd8-bd80-381cfbbe1ae3.html"},{"ID":800255800,"Actor1":"PRISON","Actor1_Country":null,"Actor2":"TURKEY","Actor2_Country":"TUR","Code":190,"Class":4,"Action_Location":"Delaware, United States","Lat":39.3498,"Long":-75.5148,"Timestamp":20181105221500,"Source":"http:\/\/www.bradfordera.com\/news\/state\/mayhem-goin-on-inmates-detail-violent-vaughn-prison-uprising-further\/article_5236587d-f3b3-5bd8-bd80-381cfbbe1ae3.html"},{"ID":800255801,"Actor1":"BIRMINGHAM","Actor1_Country":"GBR","Actor2":"SHANGHAI","Actor2_Country":"CHN","Code":13,"Class":1,"Action_Location":"Melbourne, Victoria, Australia","Lat":-37.8167,"Long":144.967,"Timestamp":20181105221500,"Source":"https:\/\/www.9news.com.au\/2018\/11\/06\/06\/27\/govt-mps-float-idea-for-2-polls-in-2019"},{"ID":800255803,"Actor1":"GOVERNMENT","Actor1_Country":null,"Actor2":"AUSTRALIAN","Actor2_Country":"AUS","Code":14,"Class":1,"Action_Location":"Australia","Lat":-25.0,"Long":135.0,"Timestamp":20181105221500,"Source":"https:\/\/www.skynews.com.au\/details\/_5857930251001"},{"ID":800255804,"Actor1":"GOVERNMENT","Actor1_Country":null,"Actor2":"AUSTRALIAN","Actor2_Country":"AUS","Code":16,"Class":1,"Action_Location":"Australia","Lat":-25.0,"Long":135.0,"Timestamp":20181105221500,"Source":"https:\/\/www.skynews.com.au\/details\/_5857930251001"},{"ID":800255805,"Actor1":"GOVERNMENT","Actor1_Country":null,"Actor2":"AUSTRALIAN","Actor2_Country":"AUS","Code":20,"Class":1,"Action_Location":"Melbourne, Victoria, Australia","Lat":-37.8167,"Long":144.967,"Timestamp":20181105221500,"Source":"https:\/\/www.9news.com.au\/2018\/11\/06\/06\/27\/govt-mps-float-idea-for-2-polls-in-2019"},{"ID":800255813,"Actor1":"SINGAPORE","Actor1_Country":"SGP","Actor2":"CHINA","Actor2_Country":"CHN","Code":61,"Class":2,"Action_Location":"Singapore","Lat":1.366667,"Long":103.8,"Timestamp":20181105221500,"Source":"https:\/\/www.straitstimes.com\/business\/spore-firms-look-to-chinas-millennials-to-drive-future-sales"},{"ID":800255814,"Actor1":"SINGAPORE","Actor1_Country":"SGP","Actor2":"CHINA","Actor2_Country":"CHN","Code":61,"Class":2,"Action_Location":"Singapore","Lat":1.366667,"Long":103.8,"Timestamp":20181105221500,"Source":"https:\/\/www.straitstimes.com\/business\/spore-firms-look-to-chinas-millennials-to-drive-future-sales"},{"ID":800255821,"Actor1":"MIGRANT","Actor1_Country":null,"Actor2":"STUDENT","Actor2_Country":null,"Code":51,"Class":1,"Action_Location":"Edinburg, Texas, United States","Lat":26.3017,"Long":-98.1633,"Timestamp":20181105221500,"Source":"https:\/\/www.kveo.com\/news\/local-news\/migrant-neighborhood-recruitment-program-assists-students-and-families\/1574479706"},{"ID":800255825,"Actor1":"MILAN","Actor1_Country":"ITA","Actor2":"SWEDEN","Actor2_Country":"SWE","Code":193,"Class":4,"Action_Location":"Sweden","Lat":62.0,"Long":15.0,"Timestamp":20181105221500,"Source":"https:\/\/metro.co.uk\/2018\/11\/05\/former-manchester-united-striker-zlatan-ibrahimovic-brands-the-premier-league-overrated-8108368\/"},{"ID":800255827,"Actor1":"SUPERIOR COURT","Actor1_Country":null,"Actor2":"UNITED STATES","Actor2_Country":"USA","Code":173,"Class":4,"Action_Location":"Logansport, Indiana, United States","Lat":40.7545,"Long":-86.3567,"Timestamp":20181105221500,"Source":"https:\/\/www.pharostribune.com\/news\/local_news\/article_9086b6b5-6e44-5fad-ade5-b62fcc6aae85.html"},{"ID":800255828,"Actor1":"SUPERIOR COURT","Actor1_Country":null,"Actor2":"UNITED STATES","Actor2_Country":"USA","Code":173,"Class":4,"Action_Location":"Logansport, Indiana, United States","Lat":40.7545,"Long":-86.3567,"Timestamp":20181105221500,"Source":"https:\/\/www.pharostribune.com\/news\/local_news\/article_9086b6b5-6e44-5fad-ade5-b62fcc6aae85.html"},{"ID":800255829,"Actor1":"SUPERIOR COURT","Actor1_Country":null,"Actor2":"UNITED STATES","Actor2_Country":"USA","Code":173,"Class":4,"Action_Location":"Logansport, Indiana, United States","Lat":40.7545,"Long":-86.3567,"Timestamp":20181105221500,"Source":"https:\/\/www.pharostribune.com\/news\/local_news\/article_9086b6b5-6e44-5fad-ade5-b62fcc6aae85.html"},{"ID":800255831,"Actor1":"UNITED STATES","Actor1_Country":"USA","Actor2":"UNITED STATES","Actor2_Country":"USA","Code":51,"Class":1,"Action_Location":"Edinburg, Texas, United States","Lat":26.3017,"Long":-98.1633,"Timestamp":20181105221500,"Source":"https:\/\/www.kveo.com\/news\/local-news\/migrant-neighborhood-recruitment-program-assists-students-and-families\/1574479706"},{"ID":800255834,"Actor1":"ARGENTINA","Actor1_Country":"ARG","Actor2":"PRESIDENT","Actor2_Country":null,"Code":36,"Class":1,"Action_Location":"Paris, France (general), France","Lat":48.8667,"Long":2.33333,"Timestamp":20181105221500,"Source":"https:\/\/www.jpost.com\/Breaking-News\/Trump-unsure-if-he-will-meet-with-Putin-in-Paris-571147"},{"ID":800255835,"Actor1":"ARGENTINA","Actor1_Country":"ARG","Actor2":"RUSSIA","Actor2_Country":"RUS","Code":36,"Class":1,"Action_Location":"Paris, France (general), France","Lat":48.8667,"Long":2.33333,"Timestamp":20181105221500,"Source":"https:\/\/www.jpost.com\/Breaking-News\/Trump-unsure-if-he-will-meet-with-Putin-in-Paris-571147"},{"ID":800255837,"Actor1":"BUSINESS","Actor1_Country":null,"Actor2":"COMMUNITY","Actor2_Country":null,"Code":111,"Class":3,"Action_Location":"Brisbane, Queensland, Australia","Lat":-27.5,"Long":153.017,"Timestamp":20181105221500,"Source":"https:\/\/www.sunshinecoastdaily.com.au\/news\/architect-tells-council-carve-up-brisbane-rd-make-\/3568023\/"},{"ID":800255839,"Actor1":"SCHOOL","Actor1_Country":null,"Actor2":"UNITED STATES","Actor2_Country":"USA","Code":10,"Class":1,"Action_Location":"Lebanon","Lat":33.833333,"Long":35.833333,"Timestamp":20181105221500,"Source":"https:\/\/www.sfgate.com\/news\/article\/Ambulances-make-house-calls-to-prevent-future-13364647.php"},{"ID":800255840,"Actor1":"SCHOOL","Actor1_Country":null,"Actor2":"UNITED STATES","Actor2_Country":"USA","Code":10,"Class":1,"Action_Location":"Vermont, United States","Lat":44.0407,"Long":-72.7093,"Timestamp":20181105221500,"Source":"https:\/\/www.sfgate.com\/news\/article\/Ambulances-make-house-calls-to-prevent-future-13364647.php"},{"ID":800255841,"Actor1":"PRESIDENT","Actor1_Country":null,"Actor2":"ARGENTINA","Actor2_Country":"ARG","Code":36,"Class":1,"Action_Location":"Paris, France (general), France","Lat":48.8667,"Long":2.33333,"Timestamp":20181105221500,"Source":"https:\/\/www.jpost.com\/Breaking-News\/Trump-unsure-if-he-will-meet-with-Putin-in-Paris-571147"},{"ID":800255842,"Actor1":"ISRAELI","Actor1_Country":"ISR","Actor2":"ISRAEL","Actor2_Country":"ISR","Code":120,"Class":3,"Action_Location":"Istanbul, Istanbul, Turkey","Lat":41.0186,"Long":28.9647,"Timestamp":20181105221500,"Source":"https:\/\/www.jns.org\/us-israel-express-concern-over-whether-bin-salman-can-deliver-on-mideast-peace\/"},{"ID":800255843,"Actor1":"ISRAELI","Actor1_Country":"ISR","Actor2":"ARMY","Actor2_Country":null,"Code":10,"Class":1,"Action_Location":"Jerusalem, Israel (general), Israel","Lat":31.7667,"Long":35.2333,"Timestamp":20181105221500,"Source":"https:\/\/www.timesofisrael.com\/russia-israel-endangered-our-troops-by-not-giving-notice-before-syria-strikes\/"},{"ID":800255844,"Actor1":"ISRAELI","Actor1_Country":"ISR","Actor2":"UNITED STATES","Actor2_Country":"USA","Code":10,"Class":1,"Action_Location":"Washington, District of Columbia, United States","Lat":38.8951,"Long":-77.0364,"Timestamp":20181105221500,"Source":"https:\/\/www.jns.org\/us-israel-express-concern-over-whether-bin-salman-can-deliver-on-mideast-peace\/"},{"ID":800255845,"Actor1":"ISRAELI","Actor1_Country":"ISR","Actor2":"UNITED STATES","Actor2_Country":"USA","Code":10,"Class":1,"Action_Location":"Washington, District of Columbia, United States","Lat":38.8951,"Long":-77.0364,"Timestamp":20181105221500,"Source":"https:\/\/www.jns.org\/us-israel-express-concern-over-whether-bin-salman-can-deliver-on-mideast-peace\/"},{"ID":800255846,"Actor1":"ISRAELI","Actor1_Country":"ISR","Actor2":"UNITED STATES","Actor2_Country":"USA","Code":120,"Class":3,"Action_Location":"Istanbul, Istanbul, Turkey","Lat":41.0186,"Long":28.9647,"Timestamp":20181105221500,"Source":"https:\/\/www.jns.org\/us-israel-express-concern-over-whether-bin-salman-can-deliver-on-mideast-peace\/"},{"ID":800255847,"Actor1":"JEWISH","Actor1_Country":null,"Actor2":"PROVIDENCE","Actor2_Country":"USA","Code":40,"Class":1,"Action_Location":"Rhode Island, United States","Lat":41.6772,"Long":-71.5101,"Timestamp":20181105221500,"Source":"https:\/\/www.wpri.com\/fox-providence\/dan-yorke-state-of-mind\/115-ri-jewish-community-leaders-talk-synagogue-shooting-aftermath-on-state-of-mind\/1574497395"},{"ID":800255850,"Actor1":"MILITARY","Actor1_Country":null,"Actor2":"THE US","Actor2_Country":"USA","Code":36,"Class":1,"Action_Location":"Mexico","Lat":23.0,"Long":-102.0,"Timestamp":20181105221500,"Source":"https:\/\/www.onenewspage.com\/n\/World\/1zjaqpdktb\/Exclusive-Pentagon-balked-at-border-troops.htm"},{"ID":800255851,"Actor1":"RUSSIA","Actor1_Country":"RUS","Actor2":"ARGENTINA","Actor2_Country":"ARG","Code":36,"Class":1,"Action_Location":"Paris, France (general), France","Lat":48.8667,"Long":2.33333,"Timestamp":20181105221500,"Source":"https:\/\/www.jpost.com\/Breaking-News\/Trump-unsure-if-he-will-meet-with-Putin-in-Paris-571147"},{"ID":800255852,"Actor1":"THE US","Actor1_Country":"USA","Actor2":"MILITARY","Actor2_Country":null,"Code":36,"Class":1,"Action_Location":"Mexico","Lat":23.0,"Long":-102.0,"Timestamp":20181105221500,"Source":"https:\/\/www.onenewspage.com\/n\/World\/1zjaqpdktb\/Exclusive-Pentagon-balked-at-border-troops.htm"},{"ID":800255854,"Actor1":"AUSTRALIA","Actor1_Country":"AUS","Actor2":"AUSTRALIA","Actor2_Country":"AUS","Code":20,"Class":1,"Action_Location":"Bundaberg, Queensland, Australia","Lat":-24.8662,"Long":152.348,"Timestamp":20181105221500,"Source":"https:\/\/www.sunshinecoastdaily.com.au\/news\/man-accused-of-attempted-camp-fire-murder-torture-\/3568181\/"},{"ID":800255855,"Actor1":"BALE","Actor1_Country":"CHE","Actor2":"AUSTRALIA","Actor2_Country":"AUS","Code":20,"Class":1,"Action_Location":"Brisbane, Queensland, Australia","Lat":-27.5,"Long":153.017,"Timestamp":20181105221500,"Source":"https:\/\/www.sunshinecoastdaily.com.au\/news\/man-accused-of-attempted-camp-fire-murder-torture-\/3568181\/"},{"ID":800255856,"Actor1":"BALE","Actor1_Country":"CHE","Actor2":"MAGISTRATE","Actor2_Country":null,"Code":20,"Class":1,"Action_Location":"Brisbane, Queensland, Australia","Lat":-27.5,"Long":153.017,"Timestamp":20181105221500,"Source":"https:\/\/www.sunshinecoastdaily.com.au\/news\/man-accused-of-attempted-camp-fire-murder-torture-\/3568181\/"},{"ID":800255857,"Actor1":"CAMEROON","Actor1_Country":"CMR","Actor2":"PRESBYTERIAN","Actor2_Country":null,"Code":181,"Class":4,"Action_Location":"Bamenda, Nord-Ouest, Cameroon","Lat":5.95265,"Long":10.1582,"Timestamp":20181105221500,"Source":"https:\/\/www.chronicle.co.zw\/80-people-kidnapped-in-cameroon\/"},{"ID":800255858,"Actor1":"CAMEROON","Actor1_Country":"CMR","Actor2":"PRESBYTERIAN","Actor2_Country":null,"Code":181,"Class":4,"Action_Location":"Germany","Lat":51.5,"Long":10.5,"Timestamp":20181105221500,"Source":"https:\/\/www.chronicle.co.zw\/80-people-kidnapped-in-cameroon\/"},{"ID":800255859,"Actor1":"CAMEROON","Actor1_Country":"CMR","Actor2":"PRESBYTERIAN","Actor2_Country":null,"Code":181,"Class":4,"Action_Location":"Germany","Lat":51.5,"Long":10.5,"Timestamp":20181105221500,"Source":"https:\/\/www.chronicle.co.zw\/80-people-kidnapped-in-cameroon\/"},{"ID":800255860,"Actor1":"VILLAGE","Actor1_Country":null,"Actor2":"PRESBYTERIAN","Actor2_Country":null,"Code":181,"Class":4,"Action_Location":"Germany","Lat":51.5,"Long":10.5,"Timestamp":20181105221500,"Source":"https:\/\/www.chronicle.co.zw\/80-people-kidnapped-in-cameroon\/"},{"ID":800255861,"Actor1":"ACCRA","Actor1_Country":"GHA","Actor2":"BRITAIN","Actor2_Country":"GBR","Code":15,"Class":1,"Action_Location":"Gambia","Lat":13.5,"Long":-15.5,"Timestamp":20181105221500,"Source":"https:\/\/www.chronicle.co.zw\/prince-charles-admits-uk-role-in-horror-of-slave-trade\/"},{"ID":800255862,"Actor1":"GOVERNOR","Actor1_Country":null,"Actor2":"CAMEROON","Actor2_Country":"CMR","Code":181,"Class":4,"Action_Location":"Bamenda, Nord-Ouest, Cameroon","Lat":5.95265,"Long":10.1582,"Timestamp":20181105221500,"Source":"https:\/\/www.chronicle.co.zw\/80-people-kidnapped-in-cameroon\/"},{"ID":800255863,"Actor1":"GOVERNOR","Actor1_Country":null,"Actor2":"CAMEROON","Actor2_Country":"CMR","Code":181,"Class":4,"Action_Location":"Bamenda, Nord-Ouest, Cameroon","Lat":5.95265,"Long":10.1582,"Timestamp":20181105221500,"Source":"https:\/\/www.chronicle.co.zw\/80-people-kidnapped-in-cameroon\/"},{"ID":800255864,"Actor1":"GOVERNOR","Actor1_Country":null,"Actor2":"VILLAGE","Actor2_Country":null,"Code":181,"Class":4,"Action_Location":"Bamenda, Nord-Ouest, Cameroon","Lat":5.95265,"Long":10.1582,"Timestamp":20181105221500,"Source":"https:\/\/www.chronicle.co.zw\/80-people-kidnapped-in-cameroon\/"},{"ID":800255865,"Actor1":"ROYAL PALACE","Actor1_Country":null,"Actor2":"MILAN","Actor2_Country":"ITA","Code":46,"Class":1,"Action_Location":"Milan, Lombardia, Italy","Lat":45.4667,"Long":9.2,"Timestamp":20181105221500,"Source":"https:\/\/www.lastampa.it\/2018\/11\/05\/esteri\/from-turin-to-varese-the-thread-that-binds-italys-ultraright-to-putins-russia-AoFUpfnPDbZzuH4kC5A1aP\/pagina.html"},{"ID":800255866,"Actor1":"PRESIDENT","Actor1_Country":null,"Actor2":"SINGAPORE","Actor2_Country":"SGP","Code":186,"Class":4,"Action_Location":"Davos, Switzerland (general), Switzerland","Lat":46.8167,"Long":9.83333,"Timestamp":20181105221500,"Source":"http:\/\/www.arabnews.com\/node\/1399866"},{"ID":800255867,"Actor1":"PRESIDENT","Actor1_Country":null,"Actor2":"SINGAPORE","Actor2_Country":"SGP","Code":186,"Class":4,"Action_Location":"Sentosa, Singapore (general), Singapore","Lat":1.25,"Long":103.827,"Timestamp":20181105221500,"Source":"http:\/\/www.arabnews.com\/node\/1399866"},{"ID":800255868,"Actor1":"ADMINISTRATION","Actor1_Country":null,"Actor2":"BARACK OBAMA","Actor2_Country":"USA","Code":36,"Class":1,"Action_Location":"Tehran, Tehran, Iran","Lat":35.75,"Long":51.5148,"Timestamp":20181105221500,"Source":"https:\/\/www.chronicle.co.zw\/anger-in-iran-as-tough-us-sanctions-kick-in\/"},{"ID":800255869,"Actor1":"MILAN","Actor1_Country":"ITA","Actor2":"ROYAL PALACE","Actor2_Country":null,"Code":46,"Class":1,"Action_Location":"Donbass, Ukraine (general), Ukraine","Lat":48.5,"Long":38.5,"Timestamp":20181105221500,"Source":"https:\/\/www.lastampa.it\/2018\/11\/05\/esteri\/from-turin-to-varese-the-thread-that-binds-italys-ultraright-to-putins-russia-AoFUpfnPDbZzuH4kC5A1aP\/pagina.html"},{"ID":800255870,"Actor1":"ITALY","Actor1_Country":"ITA","Actor2":"ROYAL PALACE","Actor2_Country":null,"Code":46,"Class":1,"Action_Location":"Donbass, Ukraine (general), Ukraine","Lat":48.5,"Long":38.5,"Timestamp":20181105221500,"Source":"https:\/\/www.lastampa.it\/2018\/11\/05\/esteri\/from-turin-to-varese-the-thread-that-binds-italys-ultraright-to-putins-russia-AoFUpfnPDbZzuH4kC5A1aP\/pagina.html"},{"ID":800255871,"Actor1":"ITALY","Actor1_Country":"ITA","Actor2":"ROYAL PALACE","Actor2_Country":null,"Code":46,"Class":1,"Action_Location":"Milan, Lombardia, Italy","Lat":45.4667,"Long":9.2,"Timestamp":20181105221500,"Source":"https:\/\/www.lastampa.it\/2018\/11\/05\/esteri\/from-turin-to-varese-the-thread-that-binds-italys-ultraright-to-putins-russia-AoFUpfnPDbZzuH4kC5A1aP\/pagina.html"},{"ID":800256080,"Actor1":"AFGHANISTAN","Actor1_Country":"AFG","Actor2":"AFGHAN","Actor2_Country":"AFG","Code":190,"Class":4,"Action_Location":"Afghanistan","Lat":33.0,"Long":66.0,"Timestamp":20181105221500,"Source":"https:\/\/www.mcalesternews.com\/news\/local_news\/ramblin-round-fallen-utah-mayor-another-reason-to-vote\/article_b6252c2d-c7cc-5a39-908a-3c7f727f8243.html"},{"ID":800256081,"Actor1":"AFGHAN","Actor1_Country":"AFG","Actor2":"ASSAILANT","Actor2_Country":null,"Code":190,"Class":4,"Action_Location":"Afghanistan","Lat":33.0,"Long":66.0,"Timestamp":20181105221500,"Source":"https:\/\/www.mcalesternews.com\/news\/local_news\/ramblin-round-fallen-utah-mayor-another-reason-to-vote\/article_b6252c2d-c7cc-5a39-908a-3c7f727f8243.html"},{"ID":800256082,"Actor1":"AFGHANISTAN","Actor1_Country":"AFG","Actor2":"AFGHAN","Actor2_Country":"AFG","Code":190,"Class":4,"Action_Location":"Afghanistan","Lat":33.0,"Long":66.0,"Timestamp":20181105221500,"Source":"https:\/\/www.mcalesternews.com\/news\/local_news\/ramblin-round-fallen-utah-mayor-another-reason-to-vote\/article_b6252c2d-c7cc-5a39-908a-3c7f727f8243.html"},{"ID":800256086,"Actor1":"AFRICA","Actor1_Country":"AFR","Actor2":"BOTSWANA","Actor2_Country":"BWA","Code":42,"Class":1,"Action_Location":"Lilongwe, Lilongwe, Malawi","Lat":-13.9833,"Long":33.7833,"Timestamp":20181105221500,"Source":"https:\/\/arunachaltimes.in\/index.php\/2018\/11\/06\/india-malawi-ink-mous-on-extradition-atomic-energy-visas-as-naidu-meets-prez-mutharika\/"},{"ID":800256087,"Actor1":"AFRICA","Actor1_Country":"AFR","Actor2":"BOTSWANA","Actor2_Country":"BWA","Code":42,"Class":1,"Action_Location":"Lilongwe, Lilongwe, Malawi","Lat":-13.9833,"Long":33.7833,"Timestamp":20181105221500,"Source":"https:\/\/arunachaltimes.in\/index.php\/2018\/11\/06\/india-malawi-ink-mous-on-extradition-atomic-energy-visas-as-naidu-meets-prez-mutharika\/"},{"ID":800256088,"Actor1":"AFRICA","Actor1_Country":"AFR","Actor2":"CHINA","Actor2_Country":"CHN","Code":10,"Class":1,"Action_Location":"Shanghai, Shanghai, China","Lat":31.2222,"Long":121.458,"Timestamp":20181105221500,"Source":"http:\/\/www.mediamaxnetwork.co.ke\/482880\/uhuru-wants-china-to-open-market-for-africa\/"},{"ID":800256089,"Actor1":"AFRICA","Actor1_Country":"AFR","Actor2":"CHINA","Actor2_Country":"CHN","Code":10,"Class":1,"Action_Location":"Kenya","Lat":1.0,"Long":38.0,"Timestamp":20181105221500,"Source":"http:\/\/www.mediamaxnetwork.co.ke\/482880\/uhuru-wants-china-to-open-market-for-africa\/"},{"ID":800256090,"Actor1":"AFRICA","Actor1_Country":"AFR","Actor2":"MALAWI","Actor2_Country":"MWI","Code":42,"Class":1,"Action_Location":"Lilongwe, Lilongwe, Malawi","Lat":-13.9833,"Long":33.7833,"Timestamp":20181105221500,"Source":"https:\/\/arunachaltimes.in\/index.php\/2018\/11\/06\/india-malawi-ink-mous-on-extradition-atomic-energy-visas-as-naidu-meets-prez-mutharika\/"},{"ID":800256091,"Actor1":"AFRICA","Actor1_Country":"AFR","Actor2":"MALAWI","Actor2_Country":"MWI","Code":42,"Class":1,"Action_Location":"Lilongwe, Lilongwe, Malawi","Lat":-13.9833,"Long":33.7833,"Timestamp":20181105221500,"Source":"https:\/\/arunachaltimes.in\/index.php\/2018\/11\/06\/india-malawi-ink-mous-on-extradition-atomic-energy-visas-as-naidu-meets-prez-mutharika\/"},{"ID":800256092,"Actor1":"AFRICA","Actor1_Country":"AFR","Actor2":"MALAWI","Actor2_Country":"MWI","Code":42,"Class":1,"Action_Location":"Lilongwe, Lilongwe, Malawi","Lat":-13.9833,"Long":33.7833,"Timestamp":20181105221500,"Source":"https:\/\/arunachaltimes.in\/index.php\/2018\/11\/06\/india-malawi-ink-mous-on-extradition-atomic-energy-visas-as-naidu-meets-prez-mutharika\/"},{"ID":800256093,"Actor1":"AFRICA","Actor1_Country":"AFR","Actor2":"NIGERIA","Actor2_Country":"NGA","Code":42,"Class":1,"Action_Location":"Accra, Greater Accra, Ghana","Lat":5.55,"Long":-0.216667,"Timestamp":20181105221500,"Source":"https:\/\/www.dailymail.co.uk\/femail\/article-6356175\/Charles-Camilla-attend-state-banquet-night-Ghanaian-tour.html"},{"ID":800256094,"Actor1":"AFRICA","Actor1_Country":"AFR","Actor2":"UGANDA","Actor2_Country":"UGA","Code":42,"Class":1,"Action_Location":"Gulu District, Gulu, Uganda","Lat":2.85604,"Long":32.43,"Timestamp":20181105221500,"Source":"https:\/\/www.dailyindependent.com\/news\/local-vet-s-efforts-recognized\/article_271cf9aa-e142-11e8-9527-07ee72eb7e47.html"},{"ID":800256095,"Actor1":"AFRICA","Actor1_Country":"AFR","Actor2":"UGANDA","Actor2_Country":"UGA","Code":43,"Class":1,"Action_Location":"Gulu District, Gulu, Uganda","Lat":2.85604,"Long":32.43,"Timestamp":20181105221500,"Source":"https:\/\/www.dailyindependent.com\/news\/local-vet-s-efforts-recognized\/article_271cf9aa-e142-11e8-9527-07ee72eb7e47.html"},{"ID":800256096,"Actor1":"AFRICA","Actor1_Country":"AFR","Actor2":"UGANDA","Actor2_Country":"UGA","Code":51,"Class":1,"Action_Location":"Gulu District, Gulu, Uganda","Lat":2.85604,"Long":32.43,"Timestamp":20181105221500,"Source":"https:\/\/www.dailyindependent.com\/news\/local-vet-s-efforts-recognized\/article_271cf9aa-e142-11e8-9527-07ee72eb7e47.html"},{"ID":800256097,"Actor1":"AFRICA","Actor1_Country":"AFR","Actor2":"UNITED STATES","Actor2_Country":"USA","Code":100,"Class":3,"Action_Location":"Brighton Beach, New York, United States","Lat":40.5779,"Long":-73.9596,"Timestamp":20181105221500,"Source":"https:\/\/patch.com\/new-york\/downtown-nyc\/racist-graffiti-african-burial-ground-terrorism-pols-say"},{"ID":800256098,"Actor1":"AFRICA","Actor1_Country":"AFR","Actor2":"ZIMBABWE","Actor2_Country":"ZWE","Code":42,"Class":1,"Action_Location":"Lilongwe, Lilongwe, Malawi","Lat":-13.9833,"Long":33.7833,"Timestamp":20181105221500,"Source":"https:\/\/arunachaltimes.in\/index.php\/2018\/11\/06\/india-malawi-ink-mous-on-extradition-atomic-energy-visas-as-naidu-meets-prez-mutharika\/"},{"ID":800256099,"Actor1":"AFRICA","Actor1_Country":"AFR","Actor2":"ZIMBABWE","Actor2_Country":"ZWE","Code":42,"Class":1,"Action_Location":"Lilongwe, Lilongwe, Malawi","Lat":-13.9833,"Long":33.7833,"Timestamp":20181105221500,"Source":"https:\/\/arunachaltimes.in\/index.php\/2018\/11\/06\/india-malawi-ink-mous-on-extradition-atomic-energy-visas-as-naidu-meets-prez-mutharika\/"},{"ID":800256100,"Actor1":"AFRICA","Actor1_Country":"AFR","Actor2":"ZIMBABWE","Actor2_Country":"ZWE","Code":42,"Class":1,"Action_Location":"Lilongwe, Lilongwe, Malawi","Lat":-13.9833,"Long":33.7833,"Timestamp":20181105221500,"Source":"https:\/\/arunachaltimes.in\/index.php\/2018\/11\/06\/india-malawi-ink-mous-on-extradition-atomic-energy-visas-as-naidu-meets-prez-mutharika\/"},{"ID":800256102,"Actor1":"FARMER","Actor1_Country":null,"Actor2":"POLICEMEN","Actor2_Country":null,"Code":190,"Class":4,"Action_Location":"Cuttack, Orissa, India","Lat":20.5,"Long":85.8333,"Timestamp":20181105221500,"Source":"https:\/\/indianexpress.com\/article\/india\/protest-on-farmers-issues-turns-violent-in-odisha-5435490\/"},{"ID":800256103,"Actor1":"FARMER","Actor1_Country":null,"Actor2":"GOVERNMENT","Actor2_Country":null,"Code":874,"Class":2,"Action_Location":"Delhi, Delhi, India","Lat":28.6667,"Long":77.2167,"Timestamp":20181105221500,"Source":"http:\/\/tehelka.com\/aaps-mission-haryana-goes-full-steam\/"},{"ID":800256104,"Actor1":"FARMER","Actor1_Country":null,"Actor2":"GOVERNMENT","Actor2_Country":null,"Code":874,"Class":2,"Action_Location":"Delhi, Delhi, India","Lat":28.6667,"Long":77.2167,"Timestamp":20181105221500,"Source":"http:\/\/tehelka.com\/aaps-mission-haryana-goes-full-steam\/"},{"ID":800256105,"Actor1":"FARMER","Actor1_Country":null,"Actor2":"GOVERNMENT","Actor2_Country":null,"Code":874,"Class":2,"Action_Location":"Haryana, Haryana, India","Lat":29.6161,"Long":76.9806,"Timestamp":20181105221500,"Source":"http:\/\/tehelka.com\/aaps-mission-haryana-goes-full-steam\/"},{"ID":800256106,"Actor1":"FARMER","Actor1_Country":null,"Actor2":"GOVERNMENT","Actor2_Country":null,"Code":145,"Class":3,"Action_Location":"Delhi, Delhi, India","Lat":28.6667,"Long":77.2167,"Timestamp":20181105221500,"Source":"http:\/\/tehelka.com\/aaps-mission-haryana-goes-full-steam\/"},{"ID":800256107,"Actor1":"FARMER","Actor1_Country":null,"Actor2":"GOVERNMENT","Actor2_Country":null,"Code":145,"Class":3,"Action_Location":"Haryana, Haryana, India","Lat":29.6161,"Long":76.9806,"Timestamp":20181105221500,"Source":"http:\/\/tehelka.com\/aaps-mission-haryana-goes-full-steam\/"},{"ID":800256108,"Actor1":"FARMER","Actor1_Country":null,"Actor2":"BHUBANESWAR","Actor2_Country":"IND","Code":190,"Class":4,"Action_Location":"Cuttack, Orissa, India","Lat":20.5,"Long":85.8333,"Timestamp":20181105221500,"Source":"https:\/\/indianexpress.com\/article\/india\/protest-on-farmers-issues-turns-violent-in-odisha-5435490\/"},{"ID":800256109,"Actor1":"FARMER","Actor1_Country":null,"Actor2":"MINNEAPOLIS","Actor2_Country":"USA","Code":10,"Class":1,"Action_Location":"Minnesota, United States","Lat":45.7326,"Long":-93.9196,"Timestamp":20181105221500,"Source":"https:\/\/www.greenwichtime.com\/news\/article\/Minnesota-candidates-make-final-pitches-on-13363418.php"},{"ID":800256110,"Actor1":"DUBAI","Actor1_Country":"ARE","Actor2":"UGANDA","Actor2_Country":"UGA","Code":40,"Class":1,"Action_Location":"Dubai, Dubayy, United Arab Emirates","Lat":25.2522,"Long":55.28,"Timestamp":20181105221500,"Source":"https:\/\/www.journalducameroun.com\/en\/uganda-re-elected-to-world-telecom-council\/"},{"ID":800256112,"Actor1":"ARGENTINA","Actor1_Country":"ARG","Actor2":"DELEGATE","Actor2_Country":null,"Code":10,"Class":1,"Action_Location":"Mexico","Lat":23.0,"Long":-102.0,"Timestamp":20181105221500,"Source":"https:\/\/www.newsroompanama.com\/news\/panama\/world-conference-on-climate-change-biodiversity-panama-bound"},{"ID":800256113,"Actor1":"ARGENTINA","Actor1_Country":"ARG","Actor2":"MEXICO CITY","Actor2_Country":"MEX","Code":42,"Class":1,"Action_Location":"Mexico City, Distrito Federal, Mexico","Lat":19.4342,"Long":-99.1386,"Timestamp":20181105221500,"Source":"http:\/\/catholicphilly.com\/2018\/11\/news\/world-news\/caravan-heads-to-mexico-city-guadalupe-basilica-opens-for-migrants\/"},{"ID":800256114,"Actor1":"ARGENTINA","Actor1_Country":"ARG","Actor2":"RUSSIA","Actor2_Country":"RUS","Code":40,"Class":1,"Action_Location":"Kremlin, Moskva, Russia","Lat":55.7522,"Long":37.6156,"Timestamp":20181105221500,"Source":"https:\/\/www.jpost.com\/Breaking-News\/Trump-unsure-if-he-will-meet-with-Putin-in-Paris-571147"},{"ID":800256115,"Actor1":"ARGENTINA","Actor1_Country":"ARG","Actor2":"UNITED STATES","Actor2_Country":"USA","Code":42,"Class":1,"Action_Location":"Guadalupe, Nuevo Le\u00f3X, Mexico","Lat":24.4458,"Long":-99.8206,"Timestamp":20181105221500,"Source":"http:\/\/catholicphilly.com\/2018\/11\/news\/world-news\/caravan-heads-to-mexico-city-guadalupe-basilica-opens-for-migrants\/"},{"ID":800256135,"Actor1":"AUSTRALIAN","Actor1_Country":"AUS","Actor2":"AUSTRALIA","Actor2_Country":"AUS","Code":190,"Class":4,"Action_Location":"Townsville, Queensland, Australia","Lat":-19.2664,"Long":146.806,"Timestamp":20181105221500,"Source":"https:\/\/www.dailymail.co.uk\/news\/article-6356013\/Disgraced-former-soldiers-violent-sexual-fantasies-revealed-text-messages.html"},{"ID":800256136,"Actor1":"AUSTRALIA","Actor1_Country":"AUS","Actor2":"INDUSTRY","Actor2_Country":null,"Code":50,"Class":1,"Action_Location":"Sunshine Coast, Queensland, Australia","Lat":-26.5,"Long":153.0,"Timestamp":20181105221500,"Source":"https:\/\/www.sunshinecoastdaily.com.au\/news\/increased-prizemoney-bolsters-future-of-corbould-p\/3568281\/"},{"ID":800256137,"Actor1":"AUSTRALIA","Actor1_Country":"AUS","Actor2":"INDUSTRY","Actor2_Country":null,"Code":50,"Class":1,"Action_Location":"Eagle Farm, Queensland, Australia","Lat":-27.4278,"Long":153.05,"Timestamp":20181105221500,"Source":"https:\/\/www.sunshinecoastdaily.com.au\/news\/increased-prizemoney-bolsters-future-of-corbould-p\/3568281\/"},{"ID":800256138,"Actor1":"AUSTRALIA","Actor1_Country":"AUS","Actor2":"BUSINESS","Actor2_Country":null,"Code":20,"Class":1,"Action_Location":"Brisbane, Queensland, Australia","Lat":-27.5,"Long":153.017,"Timestamp":20181105221500,"Source":"https:\/\/www.sunshinecoastdaily.com.au\/news\/architect-tells-council-carve-up-brisbane-rd-make-\/3568023\/"},{"ID":800256139,"Actor1":"VICTORIA","Actor1_Country":"AUS","Actor2":"CANADA","Actor2_Country":"CAN","Code":42,"Class":1,"Action_Location":"Kelowna, British Columbia, Canada","Lat":49.9,"Long":-119.483,"Timestamp":20181105221500,"Source":"https:\/\/www.vicnews.com\/news\/kelowna-to-host-b-c-federal-liberals\/"},{"ID":800256140,"Actor1":"VICTORIA","Actor1_Country":"AUS","Actor2":"CANADA","Actor2_Country":"CAN","Code":43,"Class":1,"Action_Location":"Vimy Ridge, Ontario, Canada","Lat":48.4833,"Long":-80.3833,"Timestamp":20181105221500,"Source":"https:\/\/www.vicnews.com\/news\/trudeau-to-visit-vimy-ridge-paris-to-mark-wwi-anniversary\/"},{"ID":800256141,"Actor1":"AUSTRALIA","Actor1_Country":"AUS","Actor2":"SHANGHAI","Actor2_Country":"CHN","Code":13,"Class":1,"Action_Location":"Melbourne, Victoria, Australia","Lat":-37.8167,"Long":144.967,"Timestamp":20181105221500,"Source":"https:\/\/www.9news.com.au\/2018\/11\/06\/06\/27\/govt-mps-float-idea-for-2-polls-in-2019"},{"ID":800256142,"Actor1":"AUSTRALIA","Actor1_Country":"AUS","Actor2":"POLICE","Actor2_Country":null,"Code":10,"Class":1,"Action_Location":"Sydney, New South Wales, Australia","Lat":-33.8833,"Long":151.217,"Timestamp":20181105221500,"Source":"https:\/\/www.pantagraph.com\/news\/local\/crime-and-courts\/prosecutor-man-with-ties-to-b-n-murder-suspects-wants\/article_1bcec6c1-d0e2-56a6-a76e-148c34278ae0.html"},{"ID":800256143,"Actor1":"AUSTRALIA","Actor1_Country":"AUS","Actor2":"PRISON","Actor2_Country":null,"Code":173,"Class":4,"Action_Location":"Sydney, New South Wales, Australia","Lat":-33.8833,"Long":151.217,"Timestamp":20181105221500,"Source":"https:\/\/www.pantagraph.com\/news\/local\/crime-and-courts\/prosecutor-man-with-ties-to-b-n-murder-suspects-wants\/article_1bcec6c1-d0e2-56a6-a76e-148c34278ae0.html"},{"ID":800256145,"Actor1":"VICTORIA","Actor1_Country":"AUS","Actor2":"FRANCE","Actor2_Country":"FRA","Code":43,"Class":1,"Action_Location":"Paris, France (general), France","Lat":48.8667,"Long":2.33333,"Timestamp":20181105221500,"Source":"https:\/\/www.vicnews.com\/news\/trudeau-to-visit-vimy-ridge-paris-to-mark-wwi-anniversary\/"},{"ID":800256146,"Actor1":"VICTORIA","Actor1_Country":"AUS","Actor2":"PARIS","Actor2_Country":"FRA","Code":43,"Class":1,"Action_Location":"Vimy Ridge, Ontario, Canada","Lat":48.4833,"Long":-80.3833,"Timestamp":20181105221500,"Source":"https:\/\/www.vicnews.com\/news\/trudeau-to-visit-vimy-ridge-paris-to-mark-wwi-anniversary\/"},{"ID":800256147,"Actor1":"VICTORIA","Actor1_Country":"AUS","Actor2":"MINIST","Actor2_Country":null,"Code":40,"Class":1,"Action_Location":"Ottawa, Ontario, Canada","Lat":45.4167,"Long":-75.7,"Timestamp":20181105221500,"Source":"https:\/\/www.vicnews.com\/news\/minister-has-already-met-with-22-bands-in-trans-mountain-consultation-redo\/"},{"ID":800256148,"Actor1":"TASMANIA","Actor1_Country":"AUS","Actor2":"WRITER","Actor2_Country":null,"Code":43,"Class":1,"Action_Location":"Boronia, Victoria, Australia","Lat":-37.8667,"Long":145.283,"Timestamp":20181105221500,"Source":"https:\/\/www.afr.com\/lifestyle\/perfume-world-goes-mad-for-australian-wildflower-the-brown-boronia-20180928-h15zyx"},{"ID":800256149,"Actor1":"AUSTRALIAN","Actor1_Country":"AUS","Actor2":"BATTALION","Actor2_Country":null,"Code":46,"Class":1,"Action_Location":"Townsville, Queensland, Australia","Lat":-19.2664,"Long":146.806,"Timestamp":20181105221500,"Source":"https:\/\/www.dailymail.co.uk\/news\/article-6356013\/Disgraced-former-soldiers-violent-sexual-fantasies-revealed-text-messages.html"},{"ID":800256150,"Actor1":"AUSTRALIA","Actor1_Country":"AUS","Actor2":"NAURU","Actor2_Country":"NRU","Code":43,"Class":1,"Action_Location":"Nauru","Lat":-0.533333,"Long":166.916667,"Timestamp":20181105221500,"Source":"https:\/\/www.skynews.com.au\/details\/_5857871195001"},{"ID":800256152,"Actor1":"AUSTRALIA","Actor1_Country":"AUS","Actor2":"AUSTRALIA","Actor2_Country":"AUS","Code":10,"Class":1,"Action_Location":"Melbourne, Victoria, Australia","Lat":-37.8167,"Long":144.967,"Timestamp":20181105221500,"Source":"https:\/\/www.9news.com.au\/2018\/11\/06\/06\/27\/govt-mps-float-idea-for-2-polls-in-2019"},{"ID":800256153,"Actor1":"AUSTRALIA","Actor1_Country":"AUS","Actor2":"SHANGHAI","Actor2_Country":"CHN","Code":10,"Class":1,"Action_Location":"Melbourne, Victoria, Australia","Lat":-37.8167,"Long":144.967,"Timestamp":20181105221500,"Source":"https:\/\/www.9news.com.au\/2018\/11\/06\/06\/27\/govt-mps-float-idea-for-2-polls-in-2019"},{"ID":800256154,"Actor1":"AUSTRALIAN","Actor1_Country":"AUS","Actor2":"BATTALION","Actor2_Country":null,"Code":46,"Class":1,"Action_Location":"Townsville, Queensland, Australia","Lat":-19.2664,"Long":146.806,"Timestamp":20181105221500,"Source":"https:\/\/www.dailymail.co.uk\/news\/article-6356013\/Disgraced-former-soldiers-violent-sexual-fantasies-revealed-text-messages.html"},{"ID":800256155,"Actor1":"AUSTRALIAN","Actor1_Country":"AUS","Actor2":"BATTALION","Actor2_Country":null,"Code":190,"Class":4,"Action_Location":"Townsville, Queensland, Australia","Lat":-19.2664,"Long":146.806,"Timestamp":20181105221500,"Source":"https:\/\/www.dailymail.co.uk\/news\/article-6356013\/Disgraced-former-soldiers-violent-sexual-fantasies-revealed-text-messages.html"},{"ID":800256156,"Actor1":"BENIN","Actor1_Country":"BEN","Actor2":"SURGEON","Actor2_Country":null,"Code":17,"Class":1,"Action_Location":"Benin","Lat":9.5,"Long":2.25,"Timestamp":20181105221500,"Source":"https:\/\/www.today.ng\/news\/nigeria\/senior-surgeon-collapses-dies-ubth-conducting-operations-168385"},{"ID":800256157,"Actor1":"BRAZIL","Actor1_Country":"BRA","Actor2":"HOSPITAL","Actor2_Country":null,"Code":12,"Class":1,"Action_Location":"Rio De Janeiro, Estado do Rio, Brazil","Lat":-22.9,"Long":-43.2333,"Timestamp":20181105221500,"Source":"https:\/\/www.thenewamerican.com\/world-news\/item\/30556-brazil-s-new-president-christian-pro-life-pro-israel"},{"ID":800256158,"Actor1":"BRAZIL","Actor1_Country":"BRA","Actor2":"HOSPITAL","Actor2_Country":null,"Code":12,"Class":1,"Action_Location":"Rio De Janeiro, Estado do Rio, Brazil","Lat":-22.9,"Long":-43.2333,"Timestamp":20181105221500,"Source":"https:\/\/www.thenewamerican.com\/world-news\/item\/30556-brazil-s-new-president-christian-pro-life-pro-israel"},{"ID":800256159,"Actor1":"BRAZIL","Actor1_Country":"BRA","Actor2":"HOSPITAL","Actor2_Country":null,"Code":12,"Class":1,"Action_Location":"United States","Lat":39.828175,"Long":-98.5795,"Timestamp":20181105221500,"Source":"https:\/\/www.thenewamerican.com\/world-news\/item\/30556-brazil-s-new-president-christian-pro-life-pro-israel"},{"ID":800256160,"Actor1":"BRAZIL","Actor1_Country":"BRA","Actor2":"JEWISH","Actor2_Country":null,"Code":13,"Class":1,"Action_Location":"Jerusalem, Israel (general), Israel","Lat":31.7667,"Long":35.2333,"Timestamp":20181105221500,"Source":"https:\/\/www.thenewamerican.com\/world-news\/item\/30556-brazil-s-new-president-christian-pro-life-pro-israel"},{"ID":800256161,"Actor1":"BRAZIL","Actor1_Country":"BRA","Actor2":"JEWISH","Actor2_Country":null,"Code":13,"Class":1,"Action_Location":"United States","Lat":39.828175,"Long":-98.5795,"Timestamp":20181105221500,"Source":"https:\/\/www.thenewamerican.com\/world-news\/item\/30556-brazil-s-new-president-christian-pro-life-pro-israel"},{"ID":800256162,"Actor1":"BRAZIL","Actor1_Country":"BRA","Actor2":"UNITED STATES","Actor2_Country":"USA","Code":30,"Class":1,"Action_Location":"Rio De Janeiro, Estado do Rio, Brazil","Lat":-22.9,"Long":-43.2333,"Timestamp":20181105221500,"Source":"https:\/\/www.thenewamerican.com\/world-news\/item\/30556-brazil-s-new-president-christian-pro-life-pro-israel"},{"ID":800256163,"Actor1":"BRAZIL","Actor1_Country":"BRA","Actor2":"UNITED STATES","Actor2_Country":"USA","Code":30,"Class":1,"Action_Location":"Rio De Janeiro, Estado do Rio, Brazil","Lat":-22.9,"Long":-43.2333,"Timestamp":20181105221500,"Source":"https:\/\/www.thenewamerican.com\/world-news\/item\/30556-brazil-s-new-president-christian-pro-life-pro-israel"},{"ID":800256164,"Actor1":"RIO DE JANEIRO","Actor1_Country":"BRA","Actor2":"JEWISH","Actor2_Country":null,"Code":13,"Class":1,"Action_Location":"United States","Lat":39.828175,"Long":-98.5795,"Timestamp":20181105221500,"Source":"https:\/\/www.thenewamerican.com\/world-news\/item\/30556-brazil-s-new-president-christian-pro-life-pro-israel"},{"ID":800256179,"Actor1":"BUSINESS","Actor1_Country":null,"Actor2":"CHINA","Actor2_Country":"CHN","Code":20,"Class":1,"Action_Location":"China","Lat":35.0,"Long":105.0,"Timestamp":20181105221500,"Source":"https:\/\/www.straitstimes.com\/business\/spore-firms-look-to-chinas-millennials-to-drive-future-sales"},{"ID":800256180,"Actor1":"BUSINESS","Actor1_Country":null,"Actor2":"CHINA","Actor2_Country":"CHN","Code":42,"Class":1,"Action_Location":"China","Lat":35.0,"Long":105.0,"Timestamp":20181105221500,"Source":"https:\/\/www.straitstimes.com\/business\/spore-firms-look-to-chinas-millennials-to-drive-future-sales"},{"ID":800256181,"Actor1":"BUSINESS","Actor1_Country":null,"Actor2":"CHINA","Actor2_Country":"CHN","Code":42,"Class":1,"Action_Location":"Singapore","Lat":1.366667,"Long":103.8,"Timestamp":20181105221500,"Source":"https:\/\/www.straitstimes.com\/business\/spore-firms-look-to-chinas-millennials-to-drive-future-sales"},{"ID":800256182,"Actor1":"COMPANY","Actor1_Country":null,"Actor2":"POLICE","Actor2_Country":null,"Code":31,"Class":1,"Action_Location":"Malawi","Lat":-13.5,"Long":34.0,"Timestamp":20181105221500,"Source":"http:\/\/www.maravipost.com\/malawis-political-parties-act-to-start-biting-from-dec\/"},{"ID":800256184,"Actor1":"COMPANY","Actor1_Country":null,"Actor2":"UNITED KINGDOM","Actor2_Country":"GBR","Code":40,"Class":1,"Action_Location":"Glenarm, Larne, United Kingdom","Lat":54.9667,"Long":-5.96667,"Timestamp":20181105221500,"Source":"https:\/\/www.larnetimes.co.uk\/news\/business\/kilwaughter-minerals-in-larne-expands-business-with-4-5m-deal-1-8693931"},{"ID":800256185,"Actor1":"BUSINESS","Actor1_Country":null,"Actor2":"WALES","Actor2_Country":"GBR","Code":46,"Class":1,"Action_Location":"Asafo, Ghana (general), Ghana","Lat":6.39476,"Long":-2.6599,"Timestamp":20181105221500,"Source":"https:\/\/www.dailymail.co.uk\/femail\/article-6356175\/Charles-Camilla-attend-state-banquet-night-Ghanaian-tour.html"},{"ID":800256186,"Actor1":"BUSINESS","Actor1_Country":null,"Actor2":"WALES","Actor2_Country":"GBR","Code":46,"Class":1,"Action_Location":"Buckingham Palace, Westminster, United Kingdom","Lat":51.5,"Long":-0.133333,"Timestamp":20181105221500,"Source":"https:\/\/www.dailymail.co.uk\/femail\/article-6356175\/Charles-Camilla-attend-state-banquet-night-Ghanaian-tour.html"},{"ID":800256187,"Actor1":"BUSINESS","Actor1_Country":null,"Actor2":"GHANA","Actor2_Country":"GHA","Code":40,"Class":1,"Action_Location":"Buckingham Palace, Westminster, United Kingdom","Lat":51.5,"Long":-0.133333,"Timestamp":20181105221500,"Source":"https:\/\/www.dailymail.co.uk\/femail\/article-6356175\/Charles-Camilla-attend-state-banquet-night-Ghanaian-tour.html"},{"ID":800256188,"Actor1":"BUSINESS","Actor1_Country":null,"Actor2":"GHANA","Actor2_Country":"GHA","Code":40,"Class":1,"Action_Location":"Accra, Greater Accra, Ghana","Lat":5.55,"Long":-0.216667,"Timestamp":20181105221500,"Source":"https:\/\/www.dailymail.co.uk\/femail\/article-6356175\/Charles-Camilla-attend-state-banquet-night-Ghanaian-tour.html"},{"ID":800256189,"Actor1":"BUSINESS","Actor1_Country":null,"Actor2":"GHANA","Actor2_Country":"GHA","Code":46,"Class":1,"Action_Location":"Asafo, Ghana (general), Ghana","Lat":6.39476,"Long":-2.6599,"Timestamp":20181105221500,"Source":"https:\/\/www.dailymail.co.uk\/femail\/article-6356175\/Charles-Camilla-attend-state-banquet-night-Ghanaian-tour.html"},{"ID":800256190,"Actor1":"BUSINESS","Actor1_Country":null,"Actor2":"GHANA","Actor2_Country":"GHA","Code":46,"Class":1,"Action_Location":"Buckingham Palace, Westminster, United Kingdom","Lat":51.5,"Long":-0.133333,"Timestamp":20181105221500,"Source":"https:\/\/www.dailymail.co.uk\/femail\/article-6356175\/Charles-Camilla-attend-state-banquet-night-Ghanaian-tour.html"},{"ID":800256191,"Actor1":"COMPANY","Actor1_Country":null,"Actor2":"AUTHORITIES","Actor2_Country":null,"Code":40,"Class":1,"Action_Location":"Port Hedland, Western Australia, Australia","Lat":-20.3121,"Long":118.611,"Timestamp":20181105221500,"Source":"https:\/\/www.skynews.com.au\/details\/_5857862395001"},{"ID":800256192,"Actor1":"COMPANY","Actor1_Country":null,"Actor2":"AUTHORITIES","Actor2_Country":null,"Code":50,"Class":1,"Action_Location":"Port Hedland, Western Australia, Australia","Lat":-20.3121,"Long":118.611,"Timestamp":20181105221500,"Source":"https:\/\/www.skynews.com.au\/details\/_5857862395001"},{"ID":800256193,"Actor1":"INDUSTRY","Actor1_Country":null,"Actor2":"GOVERNMENT","Actor2_Country":null,"Code":51,"Class":1,"Action_Location":"Glasgow, Glasgow City, United Kingdom","Lat":55.8333,"Long":-4.25,"Timestamp":20181105221500,"Source":"https:\/\/www.drapersonline.com\/business-operations\/accessing-the-249bn-purple-pound\/7032768.article"},{"ID":800256194,"Actor1":"COMPANY","Actor1_Country":null,"Actor2":"AUTHORITIES","Actor2_Country":null,"Code":90,"Class":2,"Action_Location":"Port Hedland, Western Australia, Australia","Lat":-20.3121,"Long":118.611,"Timestamp":20181105221500,"Source":"https:\/\/www.skynews.com.au\/details\/_5857862395001"},{"ID":800256195,"Actor1":"AIRLINE","Actor1_Country":null,"Actor2":"ICELAND","Actor2_Country":"ISL","Code":100,"Class":3,"Action_Location":"Reykjavik, (IC10), Iceland","Lat":64.15,"Long":-21.95,"Timestamp":20181105221500,"Source":"https:\/\/finanza.repubblica.it\/Bloomberg\/2018\/11\/05\/icelandair_to_buy_wow_in_marriage_of_ailing_atlantic_rivals-PHPZDQSYF01U01_BLE\/"},{"ID":800256196,"Actor1":"EMPLOYER","Actor1_Country":null,"Actor2":"EMPLOYEE","Actor2_Country":null,"Code":40,"Class":1,"Action_Location":"Bahrain","Lat":26.0,"Long":50.5,"Timestamp":20181105221500,"Source":"http:\/\/www.gdnonline.com\/Details\/429457\/Gripes-of-wrath"},{"ID":800256197,"Actor1":"COMPANY","Actor1_Country":null,"Actor2":"EMPLOYEE","Actor2_Country":null,"Code":42,"Class":1,"Action_Location":"Newtown Creek, New York, United States","Lat":40.7362,"Long":-73.9629,"Timestamp":20181105221500,"Source":"https:\/\/www.vox.com\/the-goods\/2018\/11\/5\/18065704\/amazon-hq2-winner-two-cities"},{"ID":800256198,"Actor1":"CARGO SHIP","Actor1_Country":null,"Actor2":"COAST GUARD","Actor2_Country":null,"Code":90,"Class":2,"Action_Location":"Brazil","Lat":-10.0,"Long":-55.0,"Timestamp":20181105221500,"Source":"https:\/\/bangordailynews.com\/2018\/11\/05\/news\/portland\/shipowner-fined-3-2-million-for-illegally-discharging-bilge-water-and-covering-it-up\/"},{"ID":800256199,"Actor1":"INDUSTRY","Actor1_Country":null,"Actor2":"UNITED STATES","Actor2_Country":"USA","Code":43,"Class":1,"Action_Location":"Chapel Hill, North Carolina, United States","Lat":35.9429,"Long":-82.7088,"Timestamp":20181105221500,"Source":"http:\/\/www.bpr.org\/post\/it-s-art-you-wear-meet-jewelry-designer-william-travis-kukovich"},{"ID":800256200,"Actor1":"BUSINESS","Actor1_Country":null,"Actor2":"UNITED STATES","Actor2_Country":"USA","Code":61,"Class":2,"Action_Location":"Baton Rouge, Louisiana, United States","Lat":30.4507,"Long":-91.1545,"Timestamp":20181105221500,"Source":"https:\/\/www.businessreport.com\/article\/made-baton-rouge-local-businesses-selling-products-around-globe"},{"ID":800256201,"Actor1":"COMPANY","Actor1_Country":null,"Actor2":"MAINE","Actor2_Country":"USA","Code":180,"Class":4,"Action_Location":"Maine, United States","Lat":44.6074,"Long":-69.3977,"Timestamp":20181105221500,"Source":"https:\/\/bangordailynews.com\/2018\/11\/05\/news\/portland\/shipowner-fined-3-2-million-for-illegally-discharging-bilge-water-and-covering-it-up\/"},{"ID":800256204,"Actor1":"BOTSWANA","Actor1_Country":"BWA","Actor2":"AFRICA","Actor2_Country":"AFR","Code":43,"Class":1,"Action_Location":"Lilongwe, Lilongwe, Malawi","Lat":-13.9833,"Long":33.7833,"Timestamp":20181105221500,"Source":"https:\/\/arunachaltimes.in\/index.php\/2018\/11\/06\/india-malawi-ink-mous-on-extradition-atomic-energy-visas-as-naidu-meets-prez-mutharika\/"},{"ID":800256205,"Actor1":"BOTSWANA","Actor1_Country":"BWA","Actor2":"AFRICA","Actor2_Country":"AFR","Code":43,"Class":1,"Action_Location":"Lilongwe, Lilongwe, Malawi","Lat":-13.9833,"Long":33.7833,"Timestamp":20181105221500,"Source":"https:\/\/arunachaltimes.in\/index.php\/2018\/11\/06\/india-malawi-ink-mous-on-extradition-atomic-energy-visas-as-naidu-meets-prez-mutharika\/"},{"ID":800256212,"Actor1":"CANADA","Actor1_Country":"CAN","Actor2":"VICTORIA","Actor2_Country":"AUS","Code":17,"Class":1,"Action_Location":"Paris, France (general), France","Lat":48.8667,"Long":2.33333,"Timestamp":20181105221500,"Source":"https:\/\/www.vicnews.com\/news\/trudeau-to-visit-vimy-ridge-paris-to-mark-wwi-anniversary\/"},{"ID":800256213,"Actor1":"CANADA","Actor1_Country":"CAN","Actor2":"VICTORIA","Actor2_Country":"AUS","Code":42,"Class":1,"Action_Location":"Vimy Ridge, Ontario, Canada","Lat":48.4833,"Long":-80.3833,"Timestamp":20181105221500,"Source":"https:\/\/www.vicnews.com\/news\/trudeau-to-visit-vimy-ridge-paris-to-mark-wwi-anniversary\/"},{"ID":800256214,"Actor1":"CANADA","Actor1_Country":"CAN","Actor2":"VICTORIA","Actor2_Country":"AUS","Code":43,"Class":1,"Action_Location":"Kelowna, British Columbia, Canada","Lat":49.9,"Long":-119.483,"Timestamp":20181105221500,"Source":"https:\/\/www.vicnews.com\/news\/kelowna-to-host-b-c-federal-liberals\/"},{"ID":800256215,"Actor1":"CANADA","Actor1_Country":"CAN","Actor2":"VICTORIA","Actor2_Country":"AUS","Code":173,"Class":4,"Action_Location":"Toronto, Ontario, Canada","Lat":43.6667,"Long":-79.4167,"Timestamp":20181105221500,"Source":"https:\/\/www.vicnews.com\/news\/bruce-mcarthur-could-stand-trial-as-early-as-september-2019-judge\/"},{"ID":800256216,"Actor1":"CANADA","Actor1_Country":"CAN","Actor2":"BUSINESS","Actor2_Country":null,"Code":831,"Class":2,"Action_Location":"Caledonia, Ontario, Canada","Lat":43.0667,"Long":-79.95,"Timestamp":20181105221500,"Source":"https:\/\/www.caledoniacourier.com\/news\/doug-ford-announces-cabinet-shuffle-months-into-mandate\/"},{"ID":800256217,"Actor1":"CANADA","Actor1_Country":"CAN","Actor2":"BUSINESS","Actor2_Country":null,"Code":831,"Class":2,"Action_Location":"Caledonia, Ontario, Canada","Lat":43.0667,"Long":-79.95,"Timestamp":20181105221500,"Source":"https:\/\/www.caledoniacourier.com\/news\/doug-ford-announces-cabinet-shuffle-months-into-mandate\/"},{"ID":800256218,"Actor1":"ALBERTA","Actor1_Country":"CAN","Actor2":"AIRLINE","Actor2_Country":null,"Code":191,"Class":4,"Action_Location":"China","Lat":35.0,"Long":105.0,"Timestamp":20181105221500,"Source":"https:\/\/www.newswire.ca\/news-releases\/phenomenal-year-for-tourism-travel-alberta-releases-its-2017-18-annual-report-699668661.html"},{"ID":800256219,"Actor1":"CANADA","Actor1_Country":"CAN","Actor2":"CANADA","Actor2_Country":"CAN","Code":36,"Class":1,"Action_Location":"Toronto, Ontario, Canada","Lat":43.6667,"Long":-79.4167,"Timestamp":20181105221500,"Source":"https:\/\/www.caledoniacourier.com\/news\/bruce-mcarthur-could-stand-trial-as-early-as-september-2019-judge\/"},{"ID":800256220,"Actor1":"CANADA","Actor1_Country":"CAN","Actor2":"POLICE","Actor2_Country":null,"Code":180,"Class":4,"Action_Location":"Vancouver, British Columbia, Canada","Lat":49.25,"Long":-123.133,"Timestamp":20181105221500,"Source":"https:\/\/www.cbc.ca\/news\/canada\/british-columbia\/sexual-assault-report-barriers-to-justice-system-1.4892373"},{"ID":800256221,"Actor1":"MONTREAL","Actor1_Country":"CAN","Actor2":"QUITO","Actor2_Country":"ECU","Code":36,"Class":1,"Action_Location":"Quito, Pichincha, Ecuador","Lat":-0.216667,"Long":-78.5,"Timestamp":20181105221500,"Source":"http:\/\/ens-newswire.com\/2018\/11\/05\/ozone-layer-slowly-healing-thanks-to-montreal-protocol\/"},{"ID":800256223,"Actor1":"CANADA","Actor1_Country":"CAN","Actor2":"FRANCE","Actor2_Country":"FRA","Code":43,"Class":1,"Action_Location":"Paris, France (general), France","Lat":48.8667,"Long":2.33333,"Timestamp":20181105221500,"Source":"https:\/\/www.caledoniacourier.com\/news\/trudeau-to-visit-vimy-ridge-paris-to-mark-wwi-anniversary\/"},{"ID":800256224,"Actor1":"CANADA","Actor1_Country":"CAN","Actor2":"FRANCE","Actor2_Country":"FRA","Code":43,"Class":1,"Action_Location":"Vimy Ridge, Ontario, Canada","Lat":48.4833,"Long":-80.3833,"Timestamp":20181105221500,"Source":"https:\/\/www.caledoniacourier.com\/news\/trudeau-to-visit-vimy-ridge-paris-to-mark-wwi-anniversary\/"},{"ID":800256225,"Actor1":"CANADA","Actor1_Country":"CAN","Actor2":"FRANCE","Actor2_Country":"FRA","Code":43,"Class":1,"Action_Location":"Vimy Ridge, Ontario, Canada","Lat":48.4833,"Long":-80.3833,"Timestamp":20181105221500,"Source":"https:\/\/www.caledoniacourier.com\/news\/trudeau-to-visit-vimy-ridge-paris-to-mark-wwi-anniversary\/"},{"ID":800256226,"Actor1":"OTTAWA","Actor1_Country":"CAN","Actor2":"GOVERNMENT","Actor2_Country":null,"Code":10,"Class":1,"Action_Location":"Ottawa, Ontario, Canada","Lat":45.4167,"Long":-75.7,"Timestamp":20181105221500,"Source":"https:\/\/www.timescolonist.com\/news\/national\/liberals-detail-homelessness-program-set-to-unveil-anti-poverty-law-1.23486983"},{"ID":800256227,"Actor1":"CANADA","Actor1_Country":"CAN","Actor2":"MINIST","Actor2_Country":null,"Code":40,"Class":1,"Action_Location":"Caledonia, Ontario, Canada","Lat":43.0667,"Long":-79.95,"Timestamp":20181105221500,"Source":"https:\/\/www.caledoniacourier.com\/news\/minister-has-already-met-with-22-bands-in-trans-mountain-consultation-redo\/"},{"ID":800256228,"Actor1":"TORONTO","Actor1_Country":"CAN","Actor2":"HOSPITAL","Actor2_Country":null,"Code":42,"Class":1,"Action_Location":"Toronto, Ontario, Canada","Lat":43.6667,"Long":-79.4167,"Timestamp":20181105221500,"Source":"https:\/\/www.cp24.com\/news\/man-seriously-injured-in-oakwood-village-shooting-1.4164270"},{"ID":800256229,"Actor1":"CANADA","Actor1_Country":"CAN","Actor2":"ATTORNEY","Actor2_Country":null,"Code":36,"Class":1,"Action_Location":"Caledonia, Ontario, Canada","Lat":43.0667,"Long":-79.95,"Timestamp":20181105221500,"Source":"https:\/\/www.caledoniacourier.com\/news\/bruce-mcarthur-could-stand-trial-as-early-as-september-2019-judge\/"},{"ID":800256230,"Actor1":"CANADA","Actor1_Country":"CAN","Actor2":"JUDGE","Actor2_Country":null,"Code":173,"Class":4,"Action_Location":"Caledonia, Ontario, Canada","Lat":43.0667,"Long":-79.95,"Timestamp":20181105221500,"Source":"https:\/\/www.caledoniacourier.com\/news\/bruce-mcarthur-could-stand-trial-as-early-as-september-2019-judge\/"},{"ID":800256231,"Actor1":"CANADA","Actor1_Country":"CAN","Actor2":"CHAMBER","Actor2_Country":null,"Code":36,"Class":1,"Action_Location":"Winnipeg, Manitoba, Canada","Lat":49.8833,"Long":-97.1667,"Timestamp":20181105221500,"Source":"https:\/\/www.cbc.ca\/news\/canada\/manitoba\/bowman-epc-winnipeg-new-council-1.4892625"},{"ID":800256232,"Actor1":"CANADA","Actor1_Country":"CAN","Actor2":"INDIGENOUS","Actor2_Country":null,"Code":40,"Class":1,"Action_Location":"Caledonia, Ontario, Canada","Lat":43.0667,"Long":-79.95,"Timestamp":20181105221500,"Source":"https:\/\/www.caledoniacourier.com\/news\/minister-has-already-met-with-22-bands-in-trans-mountain-consultation-redo\/"},{"ID":800256233,"Actor1":"CANADA","Actor1_Country":"CAN","Actor2":"FEDERAL COURT","Actor2_Country":null,"Code":190,"Class":4,"Action_Location":"Caledonia, Ontario, Canada","Lat":43.0667,"Long":-79.95,"Timestamp":20181105221500,"Source":"https:\/\/www.caledoniacourier.com\/news\/minister-has-already-met-with-22-bands-in-trans-mountain-consultation-redo\/"},{"ID":800256234,"Actor1":"CANADA","Actor1_Country":"CAN","Actor2":"INDIGENOUS","Actor2_Country":null,"Code":40,"Class":1,"Action_Location":"Caledonia, Ontario, Canada","Lat":43.0667,"Long":-79.95,"Timestamp":20181105221500,"Source":"https:\/\/www.caledoniacourier.com\/news\/minister-has-already-met-with-22-bands-in-trans-mountain-consultation-redo\/"},{"ID":800256235,"Actor1":"CANADA","Actor1_Country":"CAN","Actor2":"ATTORNEY","Actor2_Country":null,"Code":36,"Class":1,"Action_Location":"Caledonia, Ontario, Canada","Lat":43.0667,"Long":-79.95,"Timestamp":20181105221500,"Source":"https:\/\/www.caledoniacourier.com\/news\/bruce-mcarthur-could-stand-trial-as-early-as-september-2019-judge\/"},{"ID":800256238,"Actor1":"SWITZERLAND","Actor1_Country":"CHE","Actor2":"WORLD BANK","Actor2_Country":null,"Code":31,"Class":1,"Action_Location":"Switzerland","Lat":47.0,"Long":8.0,"Timestamp":20181105221500,"Source":"https:\/\/newsinfo.inquirer.net\/1050738\/unsolicited-advice-for-new-customs-chief"},{"ID":800256245,"Actor1":"CHINA","Actor1_Country":"CHN","Actor2":"BUSINESS","Actor2_Country":null,"Code":43,"Class":1,"Action_Location":"China","Lat":35.0,"Long":105.0,"Timestamp":20181105221500,"Source":"https:\/\/www.straitstimes.com\/business\/spore-firms-look-to-chinas-millennials-to-drive-future-sales"},{"ID":800256246,"Actor1":"CHINA","Actor1_Country":"CHN","Actor2":"BUSINESS","Actor2_Country":null,"Code":43,"Class":1,"Action_Location":"Singapore","Lat":1.366667,"Long":103.8,"Timestamp":20181105221500,"Source":"https:\/\/www.straitstimes.com\/business\/spore-firms-look-to-chinas-millennials-to-drive-future-sales"},{"ID":800256247,"Actor1":"CHINA","Actor1_Country":"CHN","Actor2":"IRAN","Actor2_Country":"IRN","Code":90,"Class":2,"Action_Location":"Bushehr, Bushehr, Iran","Lat":28.9684,"Long":50.8385,"Timestamp":20181105221500,"Source":"https:\/\/www.timesofisrael.com\/us-permits-activity-at-3-iran-nuclear-sites-even-as-sanctions-renewed\/"},{"ID":800256248,"Actor1":"CHINA","Actor1_Country":"CHN","Actor2":"IRAN","Actor2_Country":"IRN","Code":90,"Class":2,"Action_Location":"Bushehr, Bushehr, Iran","Lat":28.9684,"Long":50.8385,"Timestamp":20181105221500,"Source":"https:\/\/www.timesofisrael.com\/us-permits-activity-at-3-iran-nuclear-sites-even-as-sanctions-renewed\/"},{"ID":800256249,"Actor1":"CHINA","Actor1_Country":"CHN","Actor2":"VIETNAM","Actor2_Country":"VNM","Code":36,"Class":1,"Action_Location":"Moscow, Moskva, Russia","Lat":55.7522,"Long":37.6156,"Timestamp":20181105221500,"Source":"https:\/\/www.chronicle.co.zw\/cuban-president-meets-kim-jong-in-pyongyang\/"},{"ID":800256250,"Actor1":"CHINA","Actor1_Country":"CHN","Actor2":"VIETNAM","Actor2_Country":"VNM","Code":36,"Class":1,"Action_Location":"China","Lat":35.0,"Long":105.0,"Timestamp":20181105221500,"Source":"https:\/\/www.chronicle.co.zw\/cuban-president-meets-kim-jong-in-pyongyang\/"},{"ID":800256251,"Actor1":"CHINA","Actor1_Country":"CHN","Actor2":"VIETNAM","Actor2_Country":"VNM","Code":36,"Class":1,"Action_Location":"China","Lat":35.0,"Long":105.0,"Timestamp":20181105221500,"Source":"https:\/\/www.chronicle.co.zw\/cuban-president-meets-kim-jong-in-pyongyang\/"},{"ID":800256255,"Actor1":"CATHOLIC","Actor1_Country":null,"Actor2":"STUDENT","Actor2_Country":null,"Code":42,"Class":1,"Action_Location":"Fairview, Michigan, United States","Lat":44.725,"Long":-84.0511,"Timestamp":20181105221500,"Source":"http:\/\/www.monroenews.com\/news\/20181105\/box-city-kicks-off-annual-homeless-awareness-week"},{"ID":800256256,"Actor1":"CATHOLIC","Actor1_Country":null,"Actor2":"RELIGION","Actor2_Country":null,"Code":51,"Class":1,"Action_Location":"Maryland, United States","Lat":39.0724,"Long":-76.7902,"Timestamp":20181105221500,"Source":"http:\/\/catholicphilly.com\/2018\/11\/news\/national-news\/high-court-to-consider-if-40-foot-cross-war-memorial-endorses-religion\/"},{"ID":800256257,"Actor1":"FRANCISCANS","Actor1_Country":null,"Actor2":"CORPORATION","Actor2_Country":null,"Code":71,"Class":2,"Action_Location":"San Francisco, California, United States","Lat":37.7749,"Long":-122.419,"Timestamp":20181105221500,"Source":"https:\/\/www.businessinsider.com\/tech-execs-for-against-san-francisco-prop-c-homelessness-2018-11"},{"ID":800256258,"Actor1":"FRANCISCANS","Actor1_Country":null,"Actor2":"CORPORATION","Actor2_Country":null,"Code":130,"Class":3,"Action_Location":"San Francisco, California, United States","Lat":37.7749,"Long":-122.419,"Timestamp":20181105221500,"Source":"https:\/\/www.businessinsider.com\/tech-execs-for-against-san-francisco-prop-c-homelessness-2018-11"},{"ID":800256261,"Actor1":"GOMA","Actor1_Country":"COD","Actor2":"UGANDAN","Actor2_Country":"UGA","Code":190,"Class":4,"Action_Location":"Kivu, Kiboga, Uganda","Lat":0.833333,"Long":32.1833,"Timestamp":20181105221500,"Source":"https:\/\/www.softpower.ug\/adf-kill-7-civilians-abduct-15-others-in-congo-says-army\/"},{"ID":800256262,"Actor1":"GOMA","Actor1_Country":"COD","Actor2":"UGANDAN","Actor2_Country":"UGA","Code":190,"Class":4,"Action_Location":"Kivu, Kiboga, Uganda","Lat":0.833333,"Long":32.1833,"Timestamp":20181105221500,"Source":"https:\/\/www.softpower.ug\/adf-kill-7-civilians-abduct-15-others-in-congo-says-army\/"},{"ID":800256263,"Actor1":"ZAIRE","Actor1_Country":"COD","Actor2":"UNITED STATES","Actor2_Country":"USA","Code":43,"Class":1,"Action_Location":"United States","Lat":39.828175,"Long":-98.5795,"Timestamp":20181105221500,"Source":"https:\/\/www.thenewamerican.com\/usnews\/item\/30558-u-n-finding-american-blacks-are-owed-reparations"},{"ID":800256264,"Actor1":"COLOMBIAN","Actor1_Country":"COL","Actor2":"CUBAN","Actor2_Country":"CUB","Code":40,"Class":1,"Action_Location":"Cuba","Lat":22.0,"Long":-79.5,"Timestamp":20181105221500,"Source":"https:\/\/www.cbsnews.com\/news\/reporters-notebook-what-the-midterms-look-like-on-election-eve\/"},{"ID":800256265,"Actor1":"COLOMBIA","Actor1_Country":"COL","Actor2":"CUBA","Actor2_Country":"CUB","Code":40,"Class":1,"Action_Location":"Cuba","Lat":22.0,"Long":-79.5,"Timestamp":20181105221500,"Source":"https:\/\/www.cbsnews.com\/news\/reporters-notebook-what-the-midterms-look-like-on-election-eve\/"},{"ID":800256266,"Actor1":"COLOMBIAN","Actor1_Country":"COL","Actor2":"CUBAN","Actor2_Country":"CUB","Code":40,"Class":1,"Action_Location":"Florida, United States","Lat":27.8333,"Long":-81.717,"Timestamp":20181105221500,"Source":"https:\/\/www.cbsnews.com\/news\/reporters-notebook-what-the-midterms-look-like-on-election-eve\/"},{"ID":800256267,"Actor1":"COLOMBIAN","Actor1_Country":"COL","Actor2":"UNITED STATES","Actor2_Country":"USA","Code":51,"Class":1,"Action_Location":"Pennsylvania, United States","Lat":40.5773,"Long":-77.264,"Timestamp":20181105221500,"Source":"https:\/\/www.cbsnews.com\/news\/reporters-notebook-what-the-midterms-look-like-on-election-eve\/"},{"ID":800256268,"Actor1":"COLOMBIAN","Actor1_Country":"COL","Actor2":"UNITED STATES","Actor2_Country":"USA","Code":51,"Class":1,"Action_Location":"Pennsylvania, United States","Lat":40.5773,"Long":-77.264,"Timestamp":20181105221500,"Source":"https:\/\/www.cbsnews.com\/news\/reporters-notebook-what-the-midterms-look-like-on-election-eve\/"},{"ID":800256269,"Actor1":"COLOMBIAN","Actor1_Country":"COL","Actor2":"VENEZUELAN","Actor2_Country":"VEN","Code":40,"Class":1,"Action_Location":"Cuba","Lat":22.0,"Long":-79.5,"Timestamp":20181105221500,"Source":"https:\/\/www.cbsnews.com\/news\/reporters-notebook-what-the-midterms-look-like-on-election-eve\/"},{"ID":800256270,"Actor1":"COLOMBIAN","Actor1_Country":"COL","Actor2":"VENEZUELAN","Actor2_Country":"VEN","Code":40,"Class":1,"Action_Location":"Florida, United States","Lat":27.8333,"Long":-81.717,"Timestamp":20181105221500,"Source":"https:\/\/www.cbsnews.com\/news\/reporters-notebook-what-the-midterms-look-like-on-election-eve\/"},{"ID":800256271,"Actor1":"COLOMBIAN","Actor1_Country":"COL","Actor2":"VENEZUELAN","Actor2_Country":"VEN","Code":40,"Class":1,"Action_Location":"Cuba","Lat":22.0,"Long":-79.5,"Timestamp":20181105221500,"Source":"https:\/\/www.cbsnews.com\/news\/reporters-notebook-what-the-midterms-look-like-on-election-eve\/"},{"ID":800256272,"Actor1":"COLOMBIA","Actor1_Country":"COL","Actor2":"VENEZUELA","Actor2_Country":"VEN","Code":40,"Class":1,"Action_Location":"Cuba","Lat":22.0,"Long":-79.5,"Timestamp":20181105221500,"Source":"https:\/\/www.cbsnews.com\/news\/reporters-notebook-what-the-midterms-look-like-on-election-eve\/"},{"ID":800256305,"Actor1":"POLICEMEN","Actor1_Country":null,"Actor2":"FARMER","Actor2_Country":null,"Code":190,"Class":4,"Action_Location":"Odisha, Orissa, India","Lat":20.5,"Long":84.4167,"Timestamp":20181105221500,"Source":"https:\/\/indianexpress.com\/article\/india\/protest-on-farmers-issues-turns-violent-in-odisha-5435490\/"},{"ID":800256306,"Actor1":"POLICE","Actor1_Country":null,"Actor2":"COMPANY","Actor2_Country":null,"Code":31,"Class":1,"Action_Location":"Malawi","Lat":-13.5,"Long":34.0,"Timestamp":20181105221500,"Source":"http:\/\/www.maravipost.com\/malawis-political-parties-act-to-start-biting-from-dec\/"},{"ID":800256308,"Actor1":"PRISON","Actor1_Country":null,"Actor2":"CRIMINAL","Actor2_Country":null,"Code":31,"Class":1,"Action_Location":"Northern Ireland, Craigavon, United Kingdom","Lat":54.5,"Long":-6.5,"Timestamp":20181105221500,"Source":"https:\/\/www.irishtimes.com\/news\/crime-and-law\/woman-to-challenge-prosecution-for-getting-abortion-pills-for-her-daughter-1.3687430"},{"ID":800256310,"Actor1":"POLICE","Actor1_Country":null,"Actor2":"GERMANY","Actor2_Country":"DEU","Code":190,"Class":4,"Action_Location":"Germany","Lat":51.5,"Long":10.5,"Timestamp":20181105221500,"Source":"https:\/\/www.mlive.com\/news\/index.ssf\/2018\/11\/police_id_man_who_shot_and_kil.html"},{"ID":800256311,"Actor1":"DETECTIVE","Actor1_Country":null,"Actor2":"UNITED KINGDOM","Actor2_Country":"GBR","Code":90,"Class":2,"Action_Location":"Enniskillen, Fermanagh, United Kingdom","Lat":54.3667,"Long":-7.63333,"Timestamp":20181105221500,"Source":"https:\/\/www.irishtimes.com\/news\/crime-and-law\/john-downey-arrested-in-co-donegal-over-enniskillen-killings-1.3687400"},{"ID":800256312,"Actor1":"DETECTIVE","Actor1_Country":null,"Actor2":"UNITED KINGDOM","Actor2_Country":"GBR","Code":90,"Class":2,"Action_Location":"Donegal, Donegal, Ireland","Lat":54.65,"Long":-8.11667,"Timestamp":20181105221500,"Source":"https:\/\/www.irishtimes.com\/news\/crime-and-law\/john-downey-arrested-in-co-donegal-over-enniskillen-killings-1.3687400"},{"ID":800256313,"Actor1":"DETECTIVE","Actor1_Country":null,"Actor2":"UNITED KINGDOM","Actor2_Country":"GBR","Code":90,"Class":2,"Action_Location":"Enniskillen, Fermanagh, United Kingdom","Lat":54.3667,"Long":-7.63333,"Timestamp":20181105221500,"Source":"https:\/\/www.irishtimes.com\/news\/crime-and-law\/john-downey-arrested-in-co-donegal-over-enniskillen-killings-1.3687400"},{"ID":800256314,"Actor1":"POLICE","Actor1_Country":null,"Actor2":"UNITED KINGDOM","Actor2_Country":"GBR","Code":173,"Class":4,"Action_Location":"Bedfordshire, United Kingdom (general), United Kingdom","Lat":52.0,"Long":-0.5,"Timestamp":20181105221500,"Source":"https:\/\/www.cbsnews.com\/news\/julian-cole-bedfordshire-british-police-officers-fired-2013-arrest\/"},{"ID":800256315,"Actor1":"DETECTIVE","Actor1_Country":null,"Actor2":"UNITED KINGDOM","Actor2_Country":"GBR","Code":190,"Class":4,"Action_Location":"Enniskillen, Fermanagh, United Kingdom","Lat":54.3667,"Long":-7.63333,"Timestamp":20181105221500,"Source":"https:\/\/www.irishtimes.com\/news\/crime-and-law\/john-downey-arrested-in-co-donegal-over-enniskillen-killings-1.3687400"},{"ID":800256316,"Actor1":"DETECTIVE","Actor1_Country":null,"Actor2":"UNITED KINGDOM","Actor2_Country":"GBR","Code":190,"Class":4,"Action_Location":"Enniskillen, Fermanagh, United Kingdom","Lat":54.3667,"Long":-7.63333,"Timestamp":20181105221500,"Source":"https:\/\/www.irishtimes.com\/news\/crime-and-law\/john-downey-arrested-in-co-donegal-over-enniskillen-killings-1.3687400"},{"ID":800256317,"Actor1":"POLICE","Actor1_Country":null,"Actor2":"AUTHORITIES","Actor2_Country":null,"Code":20,"Class":1,"Action_Location":"Houston, Texas, United States","Lat":29.7633,"Long":-95.3633,"Timestamp":20181105221500,"Source":"https:\/\/houston.cbslocal.com\/2018\/11\/05\/da-woman-kills-5-year-old-daughter-by-pushing-her-down-stairs-on-halloween\/"},{"ID":800256318,"Actor1":"PRISON","Actor1_Country":null,"Actor2":"HOSPITAL","Actor2_Country":null,"Code":42,"Class":1,"Action_Location":"Santo Tomas, Chiriqu\u00edM, Panama","Lat":8.38333,"Long":-82.65,"Timestamp":20181105221500,"Source":"https:\/\/www.newsroompanama.com\/news\/panama\/martinelli-heads-for-hypertension-check"},{"ID":800256321,"Actor1":"DETECTIVE","Actor1_Country":null,"Actor2":"REGIMENT","Actor2_Country":null,"Code":173,"Class":4,"Action_Location":"Gatwick, Surrey, United Kingdom","Lat":51.1667,"Long":-0.183333,"Timestamp":20181105221500,"Source":"https:\/\/www.eveningecho.ie\/nationalnews\/Man-arrested-in-Donegal-on-suspicion-of-1972-murder-of-two-UDR-soldiers-5763cedf-7756-40f9-a1b9-d842b671bfcb-ds"},{"ID":800256323,"Actor1":"PRISON","Actor1_Country":null,"Actor2":"PANAMA","Actor2_Country":"PAN","Code":42,"Class":1,"Action_Location":"Santo Tomas, Chiriqu\u00edM, Panama","Lat":8.38333,"Long":-82.65,"Timestamp":20181105221500,"Source":"https:\/\/www.newsroompanama.com\/news\/panama\/martinelli-heads-for-hypertension-check"},{"ID":800256325,"Actor1":"PRISON","Actor1_Country":null,"Actor2":"TURKEY","Actor2_Country":"TUR","Code":190,"Class":4,"Action_Location":"Sussex Correctional Institution, Delaware, United States","Lat":38.6604,"Long":-75.3724,"Timestamp":20181105221500,"Source":"http:\/\/www.bradfordera.com\/news\/state\/mayhem-goin-on-inmates-detail-violent-vaughn-prison-uprising-further\/article_5236587d-f3b3-5bd8-bd80-381cfbbe1ae3.html"},{"ID":800256326,"Actor1":"PRISON","Actor1_Country":null,"Actor2":"TURKEY","Actor2_Country":"TUR","Code":190,"Class":4,"Action_Location":"Delaware, United States","Lat":39.3498,"Long":-75.5148,"Timestamp":20181105221500,"Source":"http:\/\/www.bradfordera.com\/news\/state\/mayhem-goin-on-inmates-detail-violent-vaughn-prison-uprising-further\/article_5236587d-f3b3-5bd8-bd80-381cfbbe1ae3.html"},{"ID":800256327,"Actor1":"POLICE","Actor1_Country":null,"Actor2":"UNITED STATES","Actor2_Country":"USA","Code":42,"Class":1,"Action_Location":"Raleigh, North Carolina, United States","Lat":35.7721,"Long":-78.6386,"Timestamp":20181105221500,"Source":"https:\/\/www.greensboro.com\/news\/north_carolina\/n-c-judge-s-son-accused-of-burning-cross-threatening\/article_73da0296-5f99-5002-9885-2d5dfcafa26a.html"},{"ID":800256328,"Actor1":"POLICE","Actor1_Country":null,"Actor2":"UNITED STATES","Actor2_Country":"USA","Code":42,"Class":1,"Action_Location":"Fort Lauderdale, Florida, United States","Lat":26.1223,"Long":-80.1434,"Timestamp":20181105221500,"Source":"https:\/\/www.officer.com\/on-the-street\/k-9-equipment-services\/news\/21030671\/boynton-beach-florida-police-k9-hutch-who-helped-nab-more-than-200-suspects-dies"},{"ID":800256329,"Actor1":"POLICE","Actor1_Country":null,"Actor2":"WASHINGTON","Actor2_Country":"USA","Code":90,"Class":2,"Action_Location":"United States","Lat":39.828175,"Long":-98.5795,"Timestamp":20181105221500,"Source":"http:\/\/www.vulture.com\/2018\/11\/kerry-washington-broadway-play-american-son-trump.html"},{"ID":800256330,"Actor1":"POLICE","Actor1_Country":null,"Actor2":"UNITED STATES","Actor2_Country":"USA","Code":111,"Class":3,"Action_Location":"Raleigh, North Carolina, United States","Lat":35.7721,"Long":-78.6386,"Timestamp":20181105221500,"Source":"https:\/\/www.greensboro.com\/news\/north_carolina\/n-c-judge-s-son-accused-of-burning-cross-threatening\/article_73da0296-5f99-5002-9885-2d5dfcafa26a.html"},{"ID":800256331,"Actor1":"POLICE","Actor1_Country":null,"Actor2":"UNITED STATES","Actor2_Country":"USA","Code":112,"Class":3,"Action_Location":"Raleigh, North Carolina, United States","Lat":35.7721,"Long":-78.6386,"Timestamp":20181105221500,"Source":"https:\/\/www.greensboro.com\/news\/north_carolina\/n-c-judge-s-son-accused-of-burning-cross-threatening\/article_73da0296-5f99-5002-9885-2d5dfcafa26a.html"},{"ID":800256332,"Actor1":"POLICE","Actor1_Country":null,"Actor2":"UNITED STATES","Actor2_Country":"USA","Code":173,"Class":4,"Action_Location":"Winnsboro, Louisiana, United States","Lat":32.1632,"Long":-91.7207,"Timestamp":20181105221500,"Source":"https:\/\/www.shreveporttimes.com\/story\/news\/2018\/11\/05\/suspicious-package-closes-monroe-regional-airport\/1889567002\/"},{"ID":800256333,"Actor1":"POLICE","Actor1_Country":null,"Actor2":"UNITED STATES","Actor2_Country":"USA","Code":173,"Class":4,"Action_Location":"Raleigh, North Carolina, United States","Lat":35.7721,"Long":-78.6386,"Timestamp":20181105221500,"Source":"https:\/\/www.greensboro.com\/news\/north_carolina\/n-c-judge-s-son-accused-of-burning-cross-threatening\/article_73da0296-5f99-5002-9885-2d5dfcafa26a.html"},{"ID":800256334,"Actor1":"POLICE","Actor1_Country":null,"Actor2":"UNITED STATES","Actor2_Country":"USA","Code":173,"Class":4,"Action_Location":"Winnsboro, Louisiana, United States","Lat":32.1632,"Long":-91.7207,"Timestamp":20181105221500,"Source":"https:\/\/www.shreveporttimes.com\/story\/news\/2018\/11\/05\/suspicious-package-closes-monroe-regional-airport\/1889567002\/"},{"ID":800256335,"Actor1":"POLICE","Actor1_Country":null,"Actor2":"UNITED STATES","Actor2_Country":"USA","Code":180,"Class":4,"Action_Location":"Houston, Texas, United States","Lat":29.7633,"Long":-95.3633,"Timestamp":20181105221500,"Source":"https:\/\/houston.cbslocal.com\/2018\/11\/05\/police-family-dog-dies-trying-to-protect-woman-from-assault\/"},{"ID":800256337,"Actor1":"PRISON","Actor1_Country":null,"Actor2":"ZIMBABWE","Actor2_Country":"ZWE","Code":43,"Class":1,"Action_Location":"Zimbabwe","Lat":-19.0,"Long":29.0,"Timestamp":20181105221500,"Source":"https:\/\/www.technomag.co.zw\/2018\/11\/05\/they-wanted-to-kill-me-strive-masiyiwa\/"},{"ID":800256338,"Actor1":"POLICE","Actor1_Country":null,"Actor2":"POLICE","Actor2_Country":null,"Code":60,"Class":2,"Action_Location":"Sydney, New South Wales, Australia","Lat":-33.8833,"Long":151.217,"Timestamp":20181105221500,"Source":"https:\/\/www.pantagraph.com\/news\/local\/crime-and-courts\/prosecutor-man-with-ties-to-b-n-murder-suspects-wants\/article_1bcec6c1-d0e2-56a6-a76e-148c34278ae0.html"},{"ID":800256339,"Actor1":"COSTA RICA","Actor1_Country":"CRI","Actor2":"DELEGATE","Actor2_Country":null,"Code":10,"Class":1,"Action_Location":"Mexico","Lat":23.0,"Long":-102.0,"Timestamp":20181105221500,"Source":"https:\/\/www.newsroompanama.com\/news\/panama\/world-conference-on-climate-change-biodiversity-panama-bound"},{"ID":800256340,"Actor1":"COSTA RICA","Actor1_Country":"CRI","Actor2":"DELEGATE","Actor2_Country":null,"Code":10,"Class":1,"Action_Location":"Mexico","Lat":23.0,"Long":-102.0,"Timestamp":20181105221500,"Source":"https:\/\/www.newsroompanama.com\/news\/panama\/world-conference-on-climate-change-biodiversity-panama-bound"},{"ID":800256348,"Actor1":"CRIMINAL","Actor1_Country":null,"Actor2":"CRIMINAL","Actor2_Country":null,"Code":10,"Class":1,"Action_Location":"Vancouver, British Columbia, Canada","Lat":49.25,"Long":-123.133,"Timestamp":20181105221500,"Source":"https:\/\/www.cbc.ca\/news\/canada\/british-columbia\/sexual-assault-report-barriers-to-justice-system-1.4892373"},{"ID":800256349,"Actor1":"CRIMINAL","Actor1_Country":null,"Actor2":"UNITED STATES","Actor2_Country":"USA","Code":36,"Class":1,"Action_Location":"Philadelphia, Pennsylvania, United States","Lat":39.9523,"Long":-75.1638,"Timestamp":20181105221500,"Source":"https:\/\/www.phillymag.com\/news\/2018\/11\/05\/josh-shapiro-church-thinkfest\/"},{"ID":800256350,"Actor1":"CRIMINAL","Actor1_Country":null,"Actor2":"UNITED STATES","Actor2_Country":"USA","Code":173,"Class":4,"Action_Location":"Chambersburg, Pennsylvania, United States","Lat":39.9376,"Long":-77.6611,"Timestamp":20181105221500,"Source":"https:\/\/www.heraldmailmedia.com\/news\/tri_state\/pennsylvania\/charges-changed-in-franklin-county-homicide-case\/article_c8360a4e-3fbe-5c13-b981-f0152407b52e.html"},{"ID":800256351,"Actor1":"CRIMINAL","Actor1_Country":null,"Actor2":"UNITED STATES","Actor2_Country":"USA","Code":173,"Class":4,"Action_Location":"Chambersburg, Pennsylvania, United States","Lat":39.9376,"Long":-77.6611,"Timestamp":20181105221500,"Source":"https:\/\/www.heraldmailmedia.com\/news\/tri_state\/pennsylvania\/charges-changed-in-franklin-county-homicide-case\/article_c8360a4e-3fbe-5c13-b981-f0152407b52e.html"},{"ID":800256352,"Actor1":"CRIMINAL","Actor1_Country":null,"Actor2":"CANADA","Actor2_Country":"CAN","Code":13,"Class":1,"Action_Location":"Vancouver, British Columbia, Canada","Lat":49.25,"Long":-123.133,"Timestamp":20181105221500,"Source":"https:\/\/www.cbc.ca\/news\/canada\/british-columbia\/sexual-assault-report-barriers-to-justice-system-1.4892373"},{"ID":800256353,"Actor1":"CUBAN","Actor1_Country":"CUB","Actor2":"COLOMBIAN","Actor2_Country":"COL","Code":40,"Class":1,"Action_Location":"Cuba","Lat":22.0,"Long":-79.5,"Timestamp":20181105221500,"Source":"https:\/\/www.cbsnews.com\/news\/reporters-notebook-what-the-midterms-look-like-on-election-eve\/"},{"ID":800256354,"Actor1":"CUBA","Actor1_Country":"CUB","Actor2":"COLOMBIA","Actor2_Country":"COL","Code":40,"Class":1,"Action_Location":"Cuba","Lat":22.0,"Long":-79.5,"Timestamp":20181105221500,"Source":"https:\/\/www.cbsnews.com\/news\/reporters-notebook-what-the-midterms-look-like-on-election-eve\/"},{"ID":800256355,"Actor1":"CUBAN","Actor1_Country":"CUB","Actor2":"COLOMBIAN","Actor2_Country":"COL","Code":40,"Class":1,"Action_Location":"Florida, United States","Lat":27.8333,"Long":-81.717,"Timestamp":20181105221500,"Source":"https:\/\/www.cbsnews.com\/news\/reporters-notebook-what-the-midterms-look-like-on-election-eve\/"},{"ID":800256356,"Actor1":"CUBA","Actor1_Country":"CUB","Actor2":"PYONGYANG","Actor2_Country":"PRK","Code":42,"Class":1,"Action_Location":"Ukraine","Lat":49.0,"Long":32.0,"Timestamp":20181105221500,"Source":"https:\/\/www.chronicle.co.zw\/cuban-president-meets-kim-jong-in-pyongyang\/"},{"ID":800256357,"Actor1":"CUBAN","Actor1_Country":"CUB","Actor2":"UNITED STATES","Actor2_Country":"USA","Code":51,"Class":1,"Action_Location":"Pennsylvania, United States","Lat":40.5773,"Long":-77.264,"Timestamp":20181105221500,"Source":"https:\/\/www.cbsnews.com\/news\/reporters-notebook-what-the-midterms-look-like-on-election-eve\/"},{"ID":800256358,"Actor1":"CUBAN","Actor1_Country":"CUB","Actor2":"UNITED STATES","Actor2_Country":"USA","Code":51,"Class":1,"Action_Location":"Pennsylvania, United States","Lat":40.5773,"Long":-77.264,"Timestamp":20181105221500,"Source":"https:\/\/www.cbsnews.com\/news\/reporters-notebook-what-the-midterms-look-like-on-election-eve\/"},{"ID":800256359,"Actor1":"CUBAN","Actor1_Country":"CUB","Actor2":"PYONGYANG","Actor2_Country":"PRK","Code":40,"Class":1,"Action_Location":"Ukraine","Lat":49.0,"Long":32.0,"Timestamp":20181105221500,"Source":"https:\/\/www.chronicle.co.zw\/cuban-president-meets-kim-jong-in-pyongyang\/"},{"ID":800256395,"Actor1":"COMMUNITY","Actor1_Country":null,"Actor2":"AFGHANISTAN","Actor2_Country":"AFG","Code":20,"Class":1,"Action_Location":"Iraq","Lat":33.0,"Long":44.0,"Timestamp":20181105221500,"Source":"https:\/\/www.mcalesternews.com\/news\/local_news\/ramblin-round-fallen-utah-mayor-another-reason-to-vote\/article_b6252c2d-c7cc-5a39-908a-3c7f727f8243.html"},{"ID":800256397,"Actor1":"COMMUNITY","Actor1_Country":null,"Actor2":"BUSINESS","Actor2_Country":null,"Code":14,"Class":1,"Action_Location":"Lillooet, British Columbia, Canada","Lat":50.6833,"Long":-121.933,"Timestamp":20181105221500,"Source":"http:\/\/spacing.ca\/vancouver\/2018\/11\/05\/dining-out-in-the-downtown-eastside\/"},{"ID":800256398,"Actor1":"COMMUNITY","Actor1_Country":null,"Actor2":"BUSINESS","Actor2_Country":null,"Code":14,"Class":1,"Action_Location":"Toronto, Ontario, Canada","Lat":43.6667,"Long":-79.4167,"Timestamp":20181105221500,"Source":"http:\/\/spacing.ca\/vancouver\/2018\/11\/05\/dining-out-in-the-downtown-eastside\/"},{"ID":800256399,"Actor1":"COMMUNITY","Actor1_Country":null,"Actor2":"BUSINESS","Actor2_Country":null,"Code":14,"Class":1,"Action_Location":"Vancouver, British Columbia, Canada","Lat":49.25,"Long":-123.133,"Timestamp":20181105221500,"Source":"http:\/\/spacing.ca\/vancouver\/2018\/11\/05\/dining-out-in-the-downtown-eastside\/"},{"ID":800256401,"Actor1":"COMMUNITY","Actor1_Country":null,"Actor2":"ACADEMICS","Actor2_Country":null,"Code":51,"Class":1,"Action_Location":"Peshastin, Washington, United States","Lat":47.5707,"Long":-120.604,"Timestamp":20181105221500,"Source":"https:\/\/www.wenatcheeworld.com\/news\/2018\/nov\/05\/safety-valve-letters-readers\/"},{"ID":800256402,"Actor1":"VOTER","Actor1_Country":null,"Actor2":"PRESIDENT","Actor2_Country":null,"Code":51,"Class":1,"Action_Location":"New York, United States","Lat":42.1497,"Long":-74.9384,"Timestamp":20181105221500,"Source":"https:\/\/www.jns.org\/opinion\/did-israelis-err-in-backing-trump-after-pittsburgh\/"},{"ID":800256404,"Actor1":"MIGRANT","Actor1_Country":null,"Actor2":"MEXICO","Actor2_Country":"MEX","Code":50,"Class":1,"Action_Location":"Pijijiapan, Chiapas, Mexico","Lat":15.7,"Long":-93.2333,"Timestamp":20181105221500,"Source":"http:\/\/catholicphilly.com\/2018\/11\/news\/world-news\/caravan-heads-to-mexico-city-guadalupe-basilica-opens-for-migrants\/"},{"ID":800256405,"Actor1":"IMMIGRANT","Actor1_Country":null,"Actor2":"MILITARY","Actor2_Country":null,"Code":173,"Class":4,"Action_Location":"Buenos Aires, Distrito Federal, Argentina","Lat":-34.5875,"Long":-58.6725,"Timestamp":20181105221500,"Source":"https:\/\/www.gq.com\/story\/children-of-men-is-on-netflix"},{"ID":800256406,"Actor1":"IMMIGRANT","Actor1_Country":null,"Actor2":"MILITARY","Actor2_Country":null,"Code":173,"Class":4,"Action_Location":"United Kingdom","Lat":54.0,"Long":-4.0,"Timestamp":20181105221500,"Source":"https:\/\/www.gq.com\/story\/children-of-men-is-on-netflix"},{"ID":800256407,"Actor1":"COMMUNITY","Actor1_Country":null,"Actor2":"NIGERIA","Actor2_Country":"NGA","Code":173,"Class":4,"Action_Location":"Edo State, Edo, Nigeria","Lat":6.5,"Long":6.0,"Timestamp":20181105221500,"Source":"https:\/\/uncova.com\/obaseki-orders-arrest-of-bedc-officials-for-removing-transformer-bought-by-ihovbor-community"},{"ID":800256408,"Actor1":"VOTER","Actor1_Country":null,"Actor2":"EXTREMIST","Actor2_Country":null,"Code":110,"Class":3,"Action_Location":"New York, United States","Lat":42.1497,"Long":-74.9384,"Timestamp":20181105221500,"Source":"https:\/\/www.jns.org\/opinion\/did-israelis-err-in-backing-trump-after-pittsburgh\/"},{"ID":800256409,"Actor1":"MIGRANT","Actor1_Country":null,"Actor2":"EL SALVADOR","Actor2_Country":"SLV","Code":63,"Class":2,"Action_Location":"Boston, Massachusetts, United States","Lat":42.3584,"Long":-71.0598,"Timestamp":20181105221500,"Source":"https:\/\/www.csmonitor.com\/USA\/2018\/1105\/No-longer-protected-A-migrant-policy-shift-upends-deeply-rooted-lives"},{"ID":800256410,"Actor1":"VOTER","Actor1_Country":null,"Actor2":"ARIZONA","Actor2_Country":"USA","Code":10,"Class":1,"Action_Location":"Arizona, United States","Lat":33.7712,"Long":-111.388,"Timestamp":20181105221500,"Source":"https:\/\/kjzz.org\/content\/721427\/arizona-election-day-2018-how-find-your-polling-place"},{"ID":800256411,"Actor1":"IMMIGRANT","Actor1_Country":null,"Actor2":"UNITED STATES","Actor2_Country":"USA","Code":10,"Class":1,"Action_Location":"India","Lat":20.0,"Long":77.0,"Timestamp":20181105221500,"Source":"https:\/\/www.cbsnews.com\/news\/reporters-notebook-what-the-midterms-look-like-on-election-eve\/"},{"ID":800256412,"Actor1":"VOTER","Actor1_Country":null,"Actor2":"UNITED STATES","Actor2_Country":"USA","Code":14,"Class":1,"Action_Location":"Ann Arbor, Michigan, United States","Lat":42.2709,"Long":-83.7263,"Timestamp":20181105221500,"Source":"https:\/\/www.mlive.com\/news\/ann-arbor\/index.ssf\/2018\/11\/11300_voters_in_ann_arbor_have.html"},{"ID":800256413,"Actor1":"COMMUNITY","Actor1_Country":null,"Actor2":"UNITED STATES","Actor2_Country":"USA","Code":20,"Class":1,"Action_Location":"Chelan County, Washington, United States","Lat":47.8832,"Long":-120.635,"Timestamp":20181105221500,"Source":"https:\/\/www.wenatcheeworld.com\/news\/2018\/nov\/05\/safety-valve-letters-readers\/"},{"ID":800256414,"Actor1":"VOTER","Actor1_Country":null,"Actor2":"UNITED STATES","Actor2_Country":"USA","Code":20,"Class":1,"Action_Location":"Ann Arbor, Michigan, United States","Lat":42.2709,"Long":-83.7263,"Timestamp":20181105221500,"Source":"https:\/\/www.mlive.com\/news\/ann-arbor\/index.ssf\/2018\/11\/11300_voters_in_ann_arbor_have.html"},{"ID":800256415,"Actor1":"COMMUNITY","Actor1_Country":null,"Actor2":"UNITED STATES","Actor2_Country":"USA","Code":231,"Class":1,"Action_Location":"Atlantic Mine, Michigan, United States","Lat":47.0971,"Long":-88.6276,"Timestamp":20181105221500,"Source":"https:\/\/www.upmatters.com\/news\/local-news\/benefit-dinner-for-26-year-old-is-sunday\/1574237005"},{"ID":800256416,"Actor1":"VOTER","Actor1_Country":null,"Actor2":"PENNSYLVANIA","Actor2_Country":"USA","Code":40,"Class":1,"Action_Location":"Clarks Summit, Pennsylvania, United States","Lat":41.4887,"Long":-75.7085,"Timestamp":20181105221500,"Source":"https:\/\/www.cbsnews.com\/news\/reporters-notebook-what-the-midterms-look-like-on-election-eve\/"},{"ID":800256417,"Actor1":"VOTER","Actor1_Country":null,"Actor2":"UNITED STATES","Actor2_Country":"USA","Code":40,"Class":1,"Action_Location":"Georgia, United States","Lat":32.9866,"Long":-83.6487,"Timestamp":20181105221500,"Source":"https:\/\/www.vox.com\/policy-and-politics\/2018\/11\/5\/18064610\/trump-midterm-elections-voter-suppression"},{"ID":800256418,"Actor1":"VOTER","Actor1_Country":null,"Actor2":"TEXAS","Actor2_Country":"USA","Code":46,"Class":1,"Action_Location":"Texas, United States","Lat":31.106,"Long":-97.6475,"Timestamp":20181105221500,"Source":"https:\/\/www.kveo.com\/news\/local-news\/special-called-board-meeting-day-before-election-raises-outrages-community\/1574564685"},{"ID":800256419,"Actor1":"RESIDENTS","Actor1_Country":null,"Actor2":"UNITED STATES","Actor2_Country":"USA","Code":50,"Class":1,"Action_Location":"City Of Fernley, Nevada, United States","Lat":39.5653,"Long":-119.193,"Timestamp":20181105221500,"Source":"https:\/\/mynews4.com\/news\/local\/fernley-votes-on-fate-of-city-diesel-tax"},{"ID":800256420,"Actor1":"VOTER","Actor1_Country":null,"Actor2":"UNITED STATES","Actor2_Country":"USA","Code":51,"Class":1,"Action_Location":"Quinnipiac, Connecticut, United States","Lat":41.4334,"Long":-72.834,"Timestamp":20181105221500,"Source":"https:\/\/www.mysanantonio.com\/local\/article\/Murphy-Corey-in-a-quiet-contest-for-U-S-Senate-13364662.php"},{"ID":800256421,"Actor1":"VOTER","Actor1_Country":null,"Actor2":"UNITED STATES","Actor2_Country":"USA","Code":51,"Class":1,"Action_Location":"Quinnipiac, Connecticut, United States","Lat":41.4334,"Long":-72.834,"Timestamp":20181105221500,"Source":"https:\/\/www.mysanantonio.com\/local\/article\/Murphy-Corey-in-a-quiet-contest-for-U-S-Senate-13364662.php"},{"ID":800256422,"Actor1":"VOTER","Actor1_Country":null,"Actor2":"UNITED STATES","Actor2_Country":"USA","Code":51,"Class":1,"Action_Location":"Washington, District of Columbia, United States","Lat":38.8951,"Long":-77.0364,"Timestamp":20181105221500,"Source":"https:\/\/www.mysanantonio.com\/local\/article\/Murphy-Corey-in-a-quiet-contest-for-U-S-Senate-13364662.php"},{"ID":800256423,"Actor1":"VOTER","Actor1_Country":null,"Actor2":"UNITED STATES","Actor2_Country":"USA","Code":51,"Class":1,"Action_Location":"Connecticut, United States","Lat":41.5834,"Long":-72.7622,"Timestamp":20181105221500,"Source":"https:\/\/www.mysanantonio.com\/local\/article\/Murphy-Corey-in-a-quiet-contest-for-U-S-Senate-13364662.php"},{"ID":800256424,"Actor1":"IMMIGRANT","Actor1_Country":null,"Actor2":"UNITED STATES","Actor2_Country":"USA","Code":51,"Class":1,"Action_Location":"Pennsylvania, United States","Lat":40.5773,"Long":-77.264,"Timestamp":20181105221500,"Source":"https:\/\/www.cbsnews.com\/news\/reporters-notebook-what-the-midterms-look-like-on-election-eve\/"},{"ID":800256425,"Actor1":"IMMIGRANT","Actor1_Country":null,"Actor2":"AL JAZEERA","Actor2_Country":"QAT","Code":40,"Class":1,"Action_Location":"Arizona, United States","Lat":33.7712,"Long":-111.388,"Timestamp":20181105221500,"Source":"https:\/\/www.aljazeera.com\/news\/2018\/11\/time-immigrant-voters-feel-america-181105181700082.html"},{"ID":800256429,"Actor1":"GERMAN","Actor1_Country":"DEU","Actor2":"COMPANY","Actor2_Country":null,"Code":60,"Class":2,"Action_Location":"Germany","Lat":51.5,"Long":10.5,"Timestamp":20181105221500,"Source":"https:\/\/nationalinterest.org\/blog\/buzz\/m1-garand-gun-won-world-war-ii-35257"},{"ID":800256430,"Actor1":"GERMANY","Actor1_Country":"DEU","Actor2":"COMPANY","Actor2_Country":null,"Code":60,"Class":2,"Action_Location":"Japan","Lat":36.0,"Long":138.0,"Timestamp":20181105221500,"Source":"https:\/\/nationalinterest.org\/blog\/buzz\/m1-garand-gun-won-world-war-ii-35257"},{"ID":800256431,"Actor1":"GERMAN","Actor1_Country":"DEU","Actor2":"COMPANY","Actor2_Country":null,"Code":193,"Class":4,"Action_Location":"Germany","Lat":51.5,"Long":10.5,"Timestamp":20181105221500,"Source":"https:\/\/nationalinterest.org\/blog\/buzz\/m1-garand-gun-won-world-war-ii-35257"},{"ID":800256432,"Actor1":"HANOVER","Actor1_Country":"DEU","Actor2":"VOTER","Actor2_Country":null,"Code":51,"Class":1,"Action_Location":"Vermont, United States","Lat":44.0407,"Long":-72.7093,"Timestamp":20181105221500,"Source":"https:\/\/vtdigger.org\/2018\/11\/05\/voter-suppression-incidents-trigger-memories-vermont-freedom-riders\/"},{"ID":800256433,"Actor1":"BERLIN","Actor1_Country":"DEU","Actor2":"PARIS","Actor2_Country":"FRA","Code":42,"Class":1,"Action_Location":"Paris, France (general), France","Lat":48.8667,"Long":2.33333,"Timestamp":20181105221500,"Source":"http:\/\/www.omanobserver.om\/merkels-power-weakened-as-opposition-gained-ground\/"},{"ID":800256434,"Actor1":"BERLIN","Actor1_Country":"DEU","Actor2":"PARIS","Actor2_Country":"FRA","Code":42,"Class":1,"Action_Location":"Paris, France (general), France","Lat":48.8667,"Long":2.33333,"Timestamp":20181105221500,"Source":"http:\/\/www.omanobserver.om\/merkels-power-weakened-as-opposition-gained-ground\/"},{"ID":800256435,"Actor1":"GERMANY","Actor1_Country":"DEU","Actor2":"IRAN","Actor2_Country":"IRN","Code":20,"Class":1,"Action_Location":"Iran","Lat":32.0,"Long":53.0,"Timestamp":20181105221500,"Source":"https:\/\/www.iranfocus.com\/en\/index.php?option=com_content&view=article&id=33149:iran-rejects-bill-to-combat-terrrorism-financing&catid=4&tmpl=component&print=1&layout=default&page=&Itemid=109"},{"ID":800256436,"Actor1":"GERMANY","Actor1_Country":"DEU","Actor2":"IRAN","Actor2_Country":"IRN","Code":20,"Class":1,"Action_Location":"Iran","Lat":32.0,"Long":53.0,"Timestamp":20181105221500,"Source":"https:\/\/www.iranfocus.com\/en\/index.php?option=com_content&view=article&id=33149:iran-rejects-bill-to-combat-terrrorism-financing&catid=4&tmpl=component&print=1&layout=default&page=&Itemid=109"},{"ID":800256437,"Actor1":"GERMANY","Actor1_Country":"DEU","Actor2":"IRAN","Actor2_Country":"IRN","Code":30,"Class":1,"Action_Location":"Germany","Lat":51.5,"Long":10.5,"Timestamp":20181105221500,"Source":"https:\/\/www.iranfocus.com\/en\/index.php?option=com_content&view=article&id=33149:iran-rejects-bill-to-combat-terrrorism-financing&catid=4&tmpl=component&print=1&layout=default&page=&Itemid=109"},{"ID":800256438,"Actor1":"GERMANY","Actor1_Country":"DEU","Actor2":"IRAN","Actor2_Country":"IRN","Code":30,"Class":1,"Action_Location":"Germany","Lat":51.5,"Long":10.5,"Timestamp":20181105221500,"Source":"https:\/\/www.iranfocus.com\/en\/index.php?option=com_content&view=article&id=33149:iran-rejects-bill-to-combat-terrrorism-financing&catid=4&tmpl=component&print=1&layout=default&page=&Itemid=109"},{"ID":800256439,"Actor1":"GERMANY","Actor1_Country":"DEU","Actor2":"IRAN","Actor2_Country":"IRN","Code":90,"Class":2,"Action_Location":"Bushehr, Bushehr, Iran","Lat":28.9684,"Long":50.8385,"Timestamp":20181105221500,"Source":"https:\/\/www.timesofisrael.com\/us-permits-activity-at-3-iran-nuclear-sites-even-as-sanctions-renewed\/"},{"ID":800256440,"Actor1":"GERMANY","Actor1_Country":"DEU","Actor2":"IRAN","Actor2_Country":"IRN","Code":90,"Class":2,"Action_Location":"Bushehr, Bushehr, Iran","Lat":28.9684,"Long":50.8385,"Timestamp":20181105221500,"Source":"https:\/\/www.timesofisrael.com\/us-permits-activity-at-3-iran-nuclear-sites-even-as-sanctions-renewed\/"},{"ID":800256441,"Actor1":"GERMANY","Actor1_Country":"DEU","Actor2":"MEXICO","Actor2_Country":"MEX","Code":874,"Class":2,"Action_Location":"Mexico City, Distrito Federal, Mexico","Lat":19.4342,"Long":-99.1386,"Timestamp":20181105221500,"Source":"http:\/\/freerepublic.com\/tag\/*\/index?more=3703121"},{"ID":800256442,"Actor1":"BERLIN","Actor1_Country":"DEU","Actor2":"THE OPPOSITION","Actor2_Country":null,"Code":43,"Class":1,"Action_Location":"Paris, France (general), France","Lat":48.8667,"Long":2.33333,"Timestamp":20181105221500,"Source":"http:\/\/www.omanobserver.om\/merkels-power-weakened-as-opposition-gained-ground\/"},{"ID":800256443,"Actor1":"GERMANY","Actor1_Country":"DEU","Actor2":"MEXICO","Actor2_Country":"MEX","Code":874,"Class":2,"Action_Location":"Mexico City, Distrito Federal, Mexico","Lat":19.4342,"Long":-99.1386,"Timestamp":20181105221500,"Source":"http:\/\/freerepublic.com\/tag\/*\/index?more=3703121"},{"ID":800256444,"Actor1":"GERMANY","Actor1_Country":"DEU","Actor2":"MEXICO","Actor2_Country":"MEX","Code":110,"Class":3,"Action_Location":"Mexico City, Distrito Federal, Mexico","Lat":19.4342,"Long":-99.1386,"Timestamp":20181105221500,"Source":"http:\/\/freerepublic.com\/tag\/*\/index?more=3703121"},{"ID":800256445,"Actor1":"GERMANY","Actor1_Country":"DEU","Actor2":"MEXICO","Actor2_Country":"MEX","Code":110,"Class":3,"Action_Location":"Mexico City, Distrito Federal, Mexico","Lat":19.4342,"Long":-99.1386,"Timestamp":20181105221500,"Source":"http:\/\/freerepublic.com\/tag\/*\/index?more=3703121"},{"ID":800256446,"Actor1":"GERMANY","Actor1_Country":"DEU","Actor2":"MEXICO","Actor2_Country":"MEX","Code":111,"Class":3,"Action_Location":"Mexico City, Distrito Federal, Mexico","Lat":19.4342,"Long":-99.1386,"Timestamp":20181105221500,"Source":"http:\/\/freerepublic.com\/tag\/*\/index?more=3703121"},{"ID":800256447,"Actor1":"GERMANY","Actor1_Country":"DEU","Actor2":"MEXICO","Actor2_Country":"MEX","Code":111,"Class":3,"Action_Location":"Mexico City, Distrito Federal, Mexico","Lat":19.4342,"Long":-99.1386,"Timestamp":20181105221500,"Source":"http:\/\/freerepublic.com\/tag\/*\/index?more=3703121"},{"ID":800256448,"Actor1":"QUITO","Actor1_Country":"ECU","Actor2":"MONTREAL","Actor2_Country":"CAN","Code":36,"Class":1,"Action_Location":"Kigali, (RW09), Rwanda","Lat":-1.95361,"Long":30.0606,"Timestamp":20181105221500,"Source":"http:\/\/ens-newswire.com\/2018\/11\/05\/ozone-layer-slowly-healing-thanks-to-montreal-protocol\/"},{"ID":800256449,"Actor1":"QUITO","Actor1_Country":"ECU","Actor2":"JEWISH","Actor2_Country":null,"Code":57,"Class":1,"Action_Location":"Quito, Pichincha, Ecuador","Lat":-0.216667,"Long":-78.5,"Timestamp":20181105221500,"Source":"https:\/\/www.marketwatch.com\/press-release\/ajc-ecuador-jewish-community-sign-association-accord-2018-11-05"},{"ID":800256450,"Actor1":"ECUADOR","Actor1_Country":"ECU","Actor2":"DELEGATE","Actor2_Country":null,"Code":10,"Class":1,"Action_Location":"Mexico","Lat":23.0,"Long":-102.0,"Timestamp":20181105221500,"Source":"https:\/\/www.newsroompanama.com\/news\/panama\/world-conference-on-climate-change-biodiversity-panama-bound"},{"ID":800256451,"Actor1":"ECUADOR","Actor1_Country":"ECU","Actor2":"DELEGATE","Actor2_Country":null,"Code":10,"Class":1,"Action_Location":"Mexico","Lat":23.0,"Long":-102.0,"Timestamp":20181105221500,"Source":"https:\/\/www.newsroompanama.com\/news\/panama\/world-conference-on-climate-change-biodiversity-panama-bound"},{"ID":800256452,"Actor1":"LENIN MORENO","Actor1_Country":"ECU","Actor2":"JEWISH","Actor2_Country":null,"Code":70,"Class":2,"Action_Location":"Quito, Pichincha, Ecuador","Lat":-0.216667,"Long":-78.5,"Timestamp":20181105221500,"Source":"https:\/\/www.marketwatch.com\/press-release\/ajc-ecuador-jewish-community-sign-association-accord-2018-11-05"},{"ID":800256474,"Actor1":"PROFESSOR","Actor1_Country":null,"Actor2":"CHRISTIAN","Actor2_Country":null,"Code":130,"Class":3,"Action_Location":"Ohio, United States","Lat":40.3736,"Long":-82.7755,"Timestamp":20181105221500,"Source":"https:\/\/cedars.cedarville.edu\/2018\/11\/analysis-a-heated-debate\/"},{"ID":800256475,"Actor1":"STUDENT","Actor1_Country":null,"Actor2":"CATHOLIC","Actor2_Country":null,"Code":43,"Class":1,"Action_Location":"Monroe County, Michigan, United States","Lat":41.9334,"Long":-83.5499,"Timestamp":20181105221500,"Source":"http:\/\/www.monroenews.com\/news\/20181105\/box-city-kicks-off-annual-homeless-awareness-week"},{"ID":800256476,"Actor1":"COLLEGE","Actor1_Country":null,"Actor2":"VOTER","Actor2_Country":null,"Code":22,"Class":1,"Action_Location":"Morehouse College, Georgia, United States","Lat":33.7462,"Long":-84.4151,"Timestamp":20181105221500,"Source":"https:\/\/www.wbir.com\/article\/news\/nation-now\/historic-governors-race-in-georgia-now-in-the-hands-of-voters\/465-02b5215f-3557-4564-b700-80b542227fb0"},{"ID":800256477,"Actor1":"STUDENT","Actor1_Country":null,"Actor2":"UNITED KINGDOM","Actor2_Country":"GBR","Code":20,"Class":1,"Action_Location":"Bedfordshire, United Kingdom (general), United Kingdom","Lat":52.0,"Long":-0.5,"Timestamp":20181105221500,"Source":"https:\/\/www.cbsnews.com\/news\/julian-cole-bedfordshire-british-police-officers-fired-2013-arrest\/"},{"ID":800256478,"Actor1":"STUDENT","Actor1_Country":null,"Actor2":"GHANA","Actor2_Country":"GHA","Code":42,"Class":1,"Action_Location":"Accra, Greater Accra, Ghana","Lat":5.55,"Long":-0.216667,"Timestamp":20181105221500,"Source":"https:\/\/www.dailymail.co.uk\/femail\/article-6356175\/Charles-Camilla-attend-state-banquet-night-Ghanaian-tour.html"},{"ID":800256479,"Actor1":"UNIVERSITY","Actor1_Country":null,"Actor2":"KING","Actor2_Country":null,"Code":43,"Class":1,"Action_Location":"Columbia University, New York, United States","Lat":40.809,"Long":-73.9613,"Timestamp":20181105221500,"Source":"https:\/\/www.dailywire.com\/news\/37970\/prageru-hamilton-man-who-invented-america-jacob-airey"},{"ID":800256480,"Actor1":"UNIVERSITY","Actor1_Country":null,"Actor2":"KING","Actor2_Country":null,"Code":43,"Class":1,"Action_Location":"New York, United States","Lat":42.1497,"Long":-74.9384,"Timestamp":20181105221500,"Source":"https:\/\/www.dailywire.com\/news\/37970\/prageru-hamilton-man-who-invented-america-jacob-airey"},{"ID":800256484,"Actor1":"STUDENT","Actor1_Country":null,"Actor2":"UNITED STATES","Actor2_Country":"USA","Code":14,"Class":1,"Action_Location":"Michigan, United States","Lat":43.3504,"Long":-84.5603,"Timestamp":20181105221500,"Source":"https:\/\/www.mlive.com\/news\/ann-arbor\/index.ssf\/2018\/11\/11300_voters_in_ann_arbor_have.html"},{"ID":800256485,"Actor1":"COLLEGE","Actor1_Country":null,"Actor2":"UNITED STATES","Actor2_Country":"USA","Code":22,"Class":1,"Action_Location":"Georgia, United States","Lat":32.9866,"Long":-83.6487,"Timestamp":20181105221500,"Source":"https:\/\/www.wbir.com\/article\/news\/nation-now\/historic-governors-race-in-georgia-now-in-the-hands-of-voters\/465-02b5215f-3557-4564-b700-80b542227fb0"},{"ID":800256486,"Actor1":"COLLEGE","Actor1_Country":null,"Actor2":"UNITED STATES","Actor2_Country":"USA","Code":22,"Class":1,"Action_Location":"Georgia, United States","Lat":32.9866,"Long":-83.6487,"Timestamp":20181105221500,"Source":"https:\/\/www.wbir.com\/article\/news\/nation-now\/historic-governors-race-in-georgia-now-in-the-hands-of-voters\/465-02b5215f-3557-4564-b700-80b542227fb0"},{"ID":800256487,"Actor1":"COLLEGE","Actor1_Country":null,"Actor2":"PORTLAND","Actor2_Country":"USA","Code":30,"Class":1,"Action_Location":"Portland, Oregon, United States","Lat":45.5235,"Long":-122.676,"Timestamp":20181105221500,"Source":"https:\/\/www.linfield.edu\/linfield-news\/linfield-college-acquires-20-acre-portland-campus\/"},{"ID":800256488,"Actor1":"COLLEGE","Actor1_Country":null,"Actor2":"PORTLAND","Actor2_Country":"USA","Code":30,"Class":1,"Action_Location":"Portland, Oregon, United States","Lat":45.5235,"Long":-122.676,"Timestamp":20181105221500,"Source":"https:\/\/www.linfield.edu\/linfield-news\/linfield-college-acquires-20-acre-portland-campus\/"},{"ID":800256489,"Actor1":"STUDENT","Actor1_Country":null,"Actor2":"OKLAHOMA","Actor2_Country":"USA","Code":36,"Class":1,"Action_Location":"Wilburton, Washington, United States","Lat":47.6032,"Long":-122.181,"Timestamp":20181105221500,"Source":"https:\/\/www.mcalesternews.com\/news\/local_news\/eosc-to-honor-veterans-service-members-with-free-lunch-program\/article_a73dd2be-fc9e-56b5-a802-ce0e2e230195.html"},{"ID":800256490,"Actor1":"PROFESSOR","Actor1_Country":null,"Actor2":"UNITED STATES","Actor2_Country":"USA","Code":36,"Class":1,"Action_Location":"Hawaii, United States","Lat":21.1098,"Long":-157.531,"Timestamp":20181105221500,"Source":"https:\/\/www.cnn.com\/2018\/11\/05\/health\/man-dies-after-eating-slug-on-dare\/"},{"ID":800256491,"Actor1":"PROFESSOR","Actor1_Country":null,"Actor2":"TEXAS","Actor2_Country":"USA","Code":36,"Class":1,"Action_Location":"Texas, United States","Lat":31.106,"Long":-97.6475,"Timestamp":20181105221500,"Source":"https:\/\/today.agrilife.org\/2018\/11\/05\/future-innovations-in-agriculture-theme-of-texas-plant-protection-conference-dec-4-5\/"},{"ID":800256492,"Actor1":"UNIVERSITY","Actor1_Country":null,"Actor2":"UNITED STATES","Actor2_Country":"USA","Code":40,"Class":1,"Action_Location":"Nebraska, United States","Lat":41.1289,"Long":-98.2883,"Timestamp":20181105221500,"Source":"http:\/\/www.capitalpress.com\/Livestock\/20181105\/society-for-range-management-sets-annual-meeting"},{"ID":800256493,"Actor1":"STUDENT","Actor1_Country":null,"Actor2":"UNITED STATES","Actor2_Country":"USA","Code":42,"Class":1,"Action_Location":"Fairview, Michigan, United States","Lat":44.725,"Long":-84.0511,"Timestamp":20181105221500,"Source":"http:\/\/www.monroenews.com\/news\/20181105\/box-city-kicks-off-annual-homeless-awareness-week"},{"ID":800256494,"Actor1":"UNIVERSITY","Actor1_Country":null,"Actor2":"NEW YORK","Actor2_Country":"USA","Code":43,"Class":1,"Action_Location":"Columbia University, New York, United States","Lat":40.809,"Long":-73.9613,"Timestamp":20181105221500,"Source":"https:\/\/www.dailywire.com\/news\/37970\/prageru-hamilton-man-who-invented-america-jacob-airey"},{"ID":800256495,"Actor1":"STUDENT","Actor1_Country":null,"Actor2":"UNITED STATES","Actor2_Country":"USA","Code":51,"Class":1,"Action_Location":"Nevada, United States","Lat":38.4199,"Long":-117.122,"Timestamp":20181105221500,"Source":"https:\/\/www.wnc.edu\/wnc-veterans-resource-center-taking-donations-for-homeless-vets\/"},{"ID":800256496,"Actor1":"PROFESSOR","Actor1_Country":null,"Actor2":"TEXAS","Actor2_Country":"USA","Code":80,"Class":2,"Action_Location":"Texas, United States","Lat":31.106,"Long":-97.6475,"Timestamp":20181105221500,"Source":"https:\/\/today.agrilife.org\/2018\/11\/05\/future-innovations-in-agriculture-theme-of-texas-plant-protection-conference-dec-4-5\/"},