[{"ID":800109619,"Actor1":"PUBLISHER","Actor1_Country":null,"Actor2":"BUSINESS","Actor2_Country":null,"Code":71,"Class":2,"Action_Location":"Brussels, Bruxelles-Capitale, Belgium","Lat":50.8333,"Long":4.33333,"Timestamp":20181105103000,"Source":"http:\/\/www.sciencemag.org\/news\/2018\/11\/win-open-access-two-major-funders-bar-grantees-publishing-hybrid-journals"},{"ID":800109622,"Actor1":"SHENZHEN","Actor1_Country":"CHN","Actor2":"REUTERS","Actor2_Country":"USA","Code":13,"Class":1,"Action_Location":"Shenzhen, Guangdong, China","Lat":22.2,"Long":111.117,"Timestamp":20181105103000,"Source":"https:\/\/www.reuters.com\/article\/us-china-economy-exports\/export-orders-to-u-s-down-a-third-at-chinas-largest-trade-fair-idUSKCN1NA0HL"},{"ID":800109623,"Actor1":"CATHOLIC","Actor1_Country":null,"Actor2":"STUDENT","Actor2_Country":null,"Code":43,"Class":1,"Action_Location":"Lima, Lima, Peru","Lat":-12.05,"Long":-77.05,"Timestamp":20181105103000,"Source":"http:\/\/www.columbiabasinherald.com\/basin_life\/20181104\/st_rose_auction_helps_historic_catholic_school"},{"ID":800109624,"Actor1":"STUDENT","Actor1_Country":null,"Actor2":"CATHOLIC","Actor2_Country":null,"Code":42,"Class":1,"Action_Location":"Lima, Lima, Peru","Lat":-12.05,"Long":-77.05,"Timestamp":20181105103000,"Source":"http:\/\/www.columbiabasinherald.com\/basin_life\/20181104\/st_rose_auction_helps_historic_catholic_school"},{"ID":800109625,"Actor1":"STUDENT","Actor1_Country":null,"Actor2":"PERU","Actor2_Country":"PER","Code":42,"Class":1,"Action_Location":"Lima, Lima, Peru","Lat":-12.05,"Long":-77.05,"Timestamp":20181105103000,"Source":"http:\/\/www.columbiabasinherald.com\/basin_life\/20181104\/st_rose_auction_helps_historic_catholic_school"},{"ID":800109627,"Actor1":"ARMY","Actor1_Country":null,"Actor2":"POLICE","Actor2_Country":null,"Code":190,"Class":4,"Action_Location":"Bangladesh","Lat":24.0,"Long":90.0,"Timestamp":20181105103000,"Source":"http:\/\/www.china.org.cn\/world\/Off_the_Wire\/2018-11\/05\/content_70361150.htm"},{"ID":800109628,"Actor1":"PERU","Actor1_Country":"PER","Actor2":"STUDENT","Actor2_Country":null,"Code":43,"Class":1,"Action_Location":"Lima, Lima, Peru","Lat":-12.05,"Long":-77.05,"Timestamp":20181105103000,"Source":"http:\/\/www.columbiabasinherald.com\/basin_life\/20181104\/st_rose_auction_helps_historic_catholic_school"},{"ID":800109632,"Actor1":"AMERICAN","Actor1_Country":"USA","Actor2":"CHINA","Actor2_Country":"CHN","Code":61,"Class":2,"Action_Location":"North Dakota, United States","Lat":47.5362,"Long":-99.793,"Timestamp":20181105103000,"Source":"https:\/\/www.nytimes.com\/2018\/11\/05\/business\/soybeans-farmers-trade-war.html"},{"ID":800109633,"Actor1":"AMERICAN","Actor1_Country":"USA","Actor2":"CHINA","Actor2_Country":"CHN","Code":61,"Class":2,"Action_Location":"Shanghai, Shanghai, China","Lat":31.2222,"Long":121.458,"Timestamp":20181105103000,"Source":"https:\/\/www.nytimes.com\/2018\/11\/05\/business\/soybeans-farmers-trade-war.html"},{"ID":800109634,"Actor1":"UNITED STATES","Actor1_Country":"USA","Actor2":"SUDAN","Actor2_Country":"SDN","Code":85,"Class":2,"Action_Location":"United States","Lat":39.828175,"Long":-98.5795,"Timestamp":20181105103000,"Source":"https:\/\/www.aljazeera.com\/news\/2018\/11\/post-sanctions-sudan-revive-historical-suakin-port-181105095440968.html"},{"ID":800109635,"Actor1":"SYDNEY","Actor1_Country":"AUS","Actor2":"SCHOOL","Actor2_Country":null,"Code":172,"Class":4,"Action_Location":"Melbourne, Victoria, Australia","Lat":-37.8167,"Long":144.967,"Timestamp":20181105103000,"Source":"http:\/\/www.starobserver.com.au\/news\/national-news\/media-rhetoric-on-religious-freedom-creates-enduring-pain-for-lgbtiq-australians\/172976"},{"ID":800109636,"Actor1":"NURSE","Actor1_Country":null,"Actor2":"UNITED STATES","Actor2_Country":"USA","Code":193,"Class":4,"Action_Location":"Washington, District of Columbia, United States","Lat":38.8951,"Long":-77.0364,"Timestamp":20181105103000,"Source":"https:\/\/www.washingtonpost.com\/nation\/2018\/11\/05\/i-wanted-him-feel-compassion-jewish-nurse-who-treated-synagogue-shooting-suspect-tells-his-story\/"},{"ID":800109637,"Actor1":"MALDIVE","Actor1_Country":"MDV","Actor2":"LAWMAKER","Actor2_Country":null,"Code":120,"Class":3,"Action_Location":"Maldives","Lat":3.2,"Long":73.0,"Timestamp":20181105103000,"Source":"https:\/\/avas.mv\/en\/56127"},{"ID":800109638,"Actor1":"JOURNALIST","Actor1_Country":null,"Actor2":"SAUDI","Actor2_Country":"SAU","Code":190,"Class":4,"Action_Location":"Saudi Arabia","Lat":25.0,"Long":45.0,"Timestamp":20181105103000,"Source":"https:\/\/www.reuters.com\/article\/us-softbank-group-strategy-results\/softbanks-son-defends-saudi-ties-as-kingdom-backed-fund-boosts-profit-idUSKCN1NA0AV"},{"ID":800109639,"Actor1":"WEBSITE","Actor1_Country":null,"Actor2":"SCOTTISH","Actor2_Country":null,"Code":20,"Class":1,"Action_Location":"Rothesay, Argyll and Bute, United Kingdom","Lat":55.8333,"Long":-5.06667,"Timestamp":20181105103000,"Source":"https:\/\/www.buteman.co.uk\/news\/leader-responds-to-budget-1-4823829"},{"ID":800109640,"Actor1":"WEBSITE","Actor1_Country":null,"Actor2":"SCOTTISH","Actor2_Country":null,"Code":71,"Class":2,"Action_Location":"Rothesay, Argyll and Bute, United Kingdom","Lat":55.8333,"Long":-5.06667,"Timestamp":20181105103000,"Source":"https:\/\/www.buteman.co.uk\/news\/leader-responds-to-budget-1-4823829"},{"ID":800109641,"Actor1":"SAUDI ARABIA","Actor1_Country":"SAU","Actor2":"UNITED NATIONS","Actor2_Country":null,"Code":13,"Class":1,"Action_Location":"Geneva, Gen\u00e8, Switzerland","Lat":46.1956,"Long":6.14811,"Timestamp":20181105103000,"Source":"https:\/\/themuslimtimes.info\/2018\/11\/05\/saudi-arabia-told-the-un-top-human-rights-body-that-it-was-investigating-the-murder-of-journalist-jamal-khashoggi\/"},{"ID":800109644,"Actor1":"AUSTRALIA","Actor1_Country":"AUS","Actor2":"AUSTRALIA","Actor2_Country":"AUS","Code":10,"Class":1,"Action_Location":"Canberra, Australian Capital Territory, Australia","Lat":-35.2833,"Long":149.217,"Timestamp":20181105103000,"Source":"https:\/\/www.afr.com\/news\/world\/asia\/marise-payne-to-visit-china-on-thursday-first-ministerial-visit-in-18-months-20181105-h17jfc"},{"ID":800109645,"Actor1":"AUSTRALIA","Actor1_Country":"AUS","Actor2":"CHINA","Actor2_Country":"CHN","Code":10,"Class":1,"Action_Location":"Beijing, Beijing, China","Lat":39.9289,"Long":116.388,"Timestamp":20181105103000,"Source":"https:\/\/www.afr.com\/news\/world\/asia\/marise-payne-to-visit-china-on-thursday-first-ministerial-visit-in-18-months-20181105-h17jfc"},{"ID":800109647,"Actor1":"PRIME MINISTER","Actor1_Country":null,"Actor2":"CHINA","Actor2_Country":"CHN","Code":10,"Class":1,"Action_Location":"Beijing, Beijing, China","Lat":39.9289,"Long":116.388,"Timestamp":20181105103000,"Source":"https:\/\/www.afr.com\/news\/world\/asia\/marise-payne-to-visit-china-on-thursday-first-ministerial-visit-in-18-months-20181105-h17jfc"},{"ID":800109648,"Actor1":"ISRAEL","Actor1_Country":"ISR","Actor2":"IRAN","Actor2_Country":"IRN","Code":190,"Class":4,"Action_Location":"Washington, District of Columbia, United States","Lat":38.8951,"Long":-77.0364,"Timestamp":20181105103000,"Source":"https:\/\/www.chron.com\/news\/world\/article\/The-Latest-Israel-welcome-restored-US-sanctions-13362741.php"},{"ID":800109649,"Actor1":"ISRAEL","Actor1_Country":"ISR","Actor2":"HASSAN","Actor2_Country":"JOR","Code":190,"Class":4,"Action_Location":"Tehran, Tehran, Iran","Lat":35.75,"Long":51.5148,"Timestamp":20181105103000,"Source":"https:\/\/www.chron.com\/news\/world\/article\/The-Latest-Israel-welcome-restored-US-sanctions-13362741.php"},{"ID":800109650,"Actor1":"SHINZO ABE","Actor1_Country":"JPN","Actor2":"PARLIAMENT","Actor2_Country":null,"Code":13,"Class":1,"Action_Location":"Tokyo, Tokyo, Japan","Lat":35.685,"Long":139.751,"Timestamp":20181105103000,"Source":"https:\/\/www.bloombergquint.com\/business\/japan-s-top-diplomat-defends-firms-in-wwii-spat-with-south-korea"},{"ID":800109651,"Actor1":"MILITARY","Actor1_Country":null,"Actor2":"HASSAN","Actor2_Country":"JOR","Code":190,"Class":4,"Action_Location":"Tehran, Tehran, Iran","Lat":35.75,"Long":51.5148,"Timestamp":20181105103000,"Source":"https:\/\/www.chron.com\/news\/world\/article\/The-Latest-Israel-welcome-restored-US-sanctions-13362741.php"},{"ID":800109652,"Actor1":"TURKEY","Actor1_Country":"TUR","Actor2":"SAUDI","Actor2_Country":"SAU","Code":12,"Class":1,"Action_Location":"Ankara, Ankara, Turkey","Lat":39.9272,"Long":32.8644,"Timestamp":20181105103000,"Source":"https:\/\/www.timesnownews.com\/international\/article\/jamal-khashoggi-murder-two-saudis-sent-to-istanbul-to-cover-up-says-turkish-official\/309732"},{"ID":800109657,"Actor1":"PRIME MINISTER","Actor1_Country":null,"Actor2":"SWAZILAND","Actor2_Country":"SWZ","Code":42,"Class":1,"Action_Location":"Matsapha, Swaziland (general), Swaziland","Lat":-26.5167,"Long":31.3167,"Timestamp":20181105103000,"Source":"http:\/\/www.times.co.sz\/news\/120824-pm-god%E2%80%99s-answer-to-prayers-kasaro.html"},{"ID":800109658,"Actor1":"IRAN","Actor1_Country":"IRN","Actor2":"THE US","Actor2_Country":"USA","Code":17,"Class":1,"Action_Location":"United States","Lat":39.828175,"Long":-98.5795,"Timestamp":20181105103000,"Source":"https:\/\/www.iol.co.za\/pretoria-news\/iran-vents-fury-at-us-sanctions-17776872"},{"ID":800109659,"Actor1":"SWAZILAND","Actor1_Country":"SWZ","Actor2":"KING","Actor2_Country":null,"Code":42,"Class":1,"Action_Location":"Matsapha, Swaziland (general), Swaziland","Lat":-26.5167,"Long":31.3167,"Timestamp":20181105103000,"Source":"http:\/\/www.times.co.sz\/news\/120824-pm-god%E2%80%99s-answer-to-prayers-kasaro.html"},{"ID":800109660,"Actor1":"SWAZILAND","Actor1_Country":"SWZ","Actor2":"KING","Actor2_Country":null,"Code":42,"Class":1,"Action_Location":"Matsapha, Swaziland (general), Swaziland","Lat":-26.5167,"Long":31.3167,"Timestamp":20181105103000,"Source":"http:\/\/www.times.co.sz\/news\/120824-pm-god%E2%80%99s-answer-to-prayers-kasaro.html"},{"ID":800109662,"Actor1":"EMMERSON MNANGAGWA","Actor1_Country":"ZWE","Actor2":"ZIMBABWE","Actor2_Country":"ZWE","Code":190,"Class":4,"Action_Location":"Chiwenga, Masvingo, Zimbabwe","Lat":-20.1148,"Long":31.0356,"Timestamp":20181105103000,"Source":"https:\/\/allafrica.com\/view\/group\/main\/main\/id\/00064611.html"},{"ID":800109663,"Actor1":"EMMERSON MNANGAGWA","Actor1_Country":"ZWE","Actor2":"EMMERSON MNANGAGWA","Actor2_Country":"ZWE","Code":190,"Class":4,"Action_Location":"Chiwenga, Masvingo, Zimbabwe","Lat":-20.1148,"Long":31.0356,"Timestamp":20181105103000,"Source":"https:\/\/allafrica.com\/view\/group\/main\/main\/id\/00064611.html"},{"ID":800109836,"Actor1":"AFGHAN","Actor1_Country":"AFG","Actor2":"AFGHANISTAN","Actor2_Country":"AFG","Code":10,"Class":1,"Action_Location":"Ghazni, Ghazni, Afghanistan","Lat":33.5508,"Long":68.4225,"Timestamp":20181105103000,"Source":"https:\/\/www.rferl.org\/a\/afghanistan-13-killed-taliban-attack-ghazni-checkpoint\/29583225.html"},{"ID":800109837,"Actor1":"AFGHAN","Actor1_Country":"AFG","Actor2":"AFGHANISTAN","Actor2_Country":"AFG","Code":190,"Class":4,"Action_Location":"Ghazni, Ghazni, Afghanistan","Lat":33.5508,"Long":68.4225,"Timestamp":20181105103000,"Source":"https:\/\/www.rferl.org\/a\/afghanistan-13-killed-taliban-attack-ghazni-checkpoint\/29583225.html"},{"ID":800109838,"Actor1":"AFGHANISTAN","Actor1_Country":"AFG","Actor2":"UNIVERSITY","Actor2_Country":null,"Code":51,"Class":1,"Action_Location":"Badakhshan, Badakhshan, Afghanistan","Lat":36.75,"Long":72.0,"Timestamp":20181105103000,"Source":"https:\/\/www.hw.ac.uk\/about\/news\/2018\/from-war-torn-afghanistan-to-award-winning.htm"},{"ID":800109839,"Actor1":"AFGHAN","Actor1_Country":"AFG","Actor2":"ARMY","Actor2_Country":null,"Code":62,"Class":2,"Action_Location":"Ghazni, Ghazni, Afghanistan","Lat":33.5508,"Long":68.4225,"Timestamp":20181105103000,"Source":"https:\/\/www.rferl.org\/a\/afghanistan-13-killed-taliban-attack-ghazni-checkpoint\/29583225.html"},{"ID":800109840,"Actor1":"AFGHAN","Actor1_Country":"AFG","Actor2":"ARMY","Actor2_Country":null,"Code":62,"Class":2,"Action_Location":"Kabul, Kabol, Afghanistan","Lat":34.5167,"Long":69.1833,"Timestamp":20181105103000,"Source":"https:\/\/www.rferl.org\/a\/afghanistan-13-killed-taliban-attack-ghazni-checkpoint\/29583225.html"},{"ID":800109841,"Actor1":"AFGHAN","Actor1_Country":"AFG","Actor2":"ARMY","Actor2_Country":null,"Code":190,"Class":4,"Action_Location":"Kabul, Kabol, Afghanistan","Lat":34.5167,"Long":69.1833,"Timestamp":20181105103000,"Source":"https:\/\/www.rferl.org\/a\/afghanistan-13-killed-taliban-attack-ghazni-checkpoint\/29583225.html"},{"ID":800109842,"Actor1":"AFGHANISTAN","Actor1_Country":"AFG","Actor2":"AFGHAN","Actor2_Country":"AFG","Code":190,"Class":4,"Action_Location":"Ghazni, Ghazni, Afghanistan","Lat":33.5508,"Long":68.4225,"Timestamp":20181105103000,"Source":"https:\/\/www.rferl.org\/a\/afghanistan-13-killed-taliban-attack-ghazni-checkpoint\/29583225.html"},{"ID":800109843,"Actor1":"AFGHANISTAN","Actor1_Country":"AFG","Actor2":"AFGHANISTAN","Actor2_Country":"AFG","Code":874,"Class":2,"Action_Location":"Afghanistan","Lat":33.0,"Long":66.0,"Timestamp":20181105103000,"Source":"http:\/\/www.rediff.com\/news\/report\/americas-toughest-ever-sanctions-on-iran-come-into-force\/20181105.htm"},{"ID":800109844,"Actor1":"ASHRAF GHANI","Actor1_Country":"AFG","Actor2":"PARLIAMENT","Actor2_Country":null,"Code":100,"Class":3,"Action_Location":"Ghazni, Ghazni, Afghanistan","Lat":33.5508,"Long":68.4225,"Timestamp":20181105103000,"Source":"http:\/\/newageislam.com\/current-affairs\/ajit-kumar-singh\/the-taliban-and-the-afghanistan-elections\/d\/116790"},{"ID":800109845,"Actor1":"TALIBAN","Actor1_Country":"AFG","Actor2":"AFGHAN","Actor2_Country":"AFG","Code":190,"Class":4,"Action_Location":"Ghazni, Ghazni, Afghanistan","Lat":33.5508,"Long":68.4225,"Timestamp":20181105103000,"Source":"https:\/\/www.msn.com\/en-us\/news\/world\/taliban-attack-on-an-afghan-checkpoint-kills-13-soldiers-and-police-officers\/ar-BBPm6mM"},{"ID":800109852,"Actor1":"AFRICA","Actor1_Country":"AFR","Actor2":"COMPANIES","Actor2_Country":null,"Code":43,"Class":1,"Action_Location":"Accra, Greater Accra, Ghana","Lat":5.55,"Long":-0.216667,"Timestamp":20181105103000,"Source":"https:\/\/allafrica.com\/stories\/201811050318.html"},{"ID":800109853,"Actor1":"AFRICA","Actor1_Country":"AFR","Actor2":"POLICE OFFICER","Actor2_Country":null,"Code":42,"Class":1,"Action_Location":"Mafikeng, North-West, South Africa","Lat":-25.8652,"Long":25.6442,"Timestamp":20181105103000,"Source":"http:\/\/www.destinyman.com\/2018\/11\/05\/lerato-sengadi-claims-marital-home\/"},{"ID":800109854,"Actor1":"AFRICA","Actor1_Country":"AFR","Actor2":"KENYA","Actor2_Country":"KEN","Code":42,"Class":1,"Action_Location":"Uhuru, Nairobi Area, Kenya","Lat":-1.28333,"Long":36.8667,"Timestamp":20181105103000,"Source":"http:\/\/nehandaradio.com\/2018\/11\/05\/hopewell-chinono-for-how-long-shall-the-south-african-airways-cockpit-remain-the-preserve-of-white-boys\/"},{"ID":800109857,"Actor1":"ALBANIA","Actor1_Country":"ALB","Actor2":"TURKEY","Actor2_Country":"TUR","Code":10,"Class":1,"Action_Location":"Albania","Lat":41.0,"Long":20.0,"Timestamp":20181105103000,"Source":"https:\/\/www.newstimes.com\/news\/world\/article\/AP-finds-almost-4-900-migrants-headed-to-Europe-13353508.php"},{"ID":800109858,"Actor1":"ALBANIA","Actor1_Country":"ALB","Actor2":"TURKEY","Actor2_Country":"TUR","Code":10,"Class":1,"Action_Location":"Bangladesh","Lat":24.0,"Long":90.0,"Timestamp":20181105103000,"Source":"https:\/\/www.newstimes.com\/news\/world\/article\/AP-finds-almost-4-900-migrants-headed-to-Europe-13353508.php"},{"ID":800109859,"Actor1":"ALBANIA","Actor1_Country":"ALB","Actor2":"TURKEY","Actor2_Country":"TUR","Code":90,"Class":2,"Action_Location":"Milan, Lombardia, Italy","Lat":45.4667,"Long":9.2,"Timestamp":20181105103000,"Source":"https:\/\/www.newstimes.com\/news\/world\/article\/AP-finds-almost-4-900-migrants-headed-to-Europe-13353508.php"},{"ID":800109860,"Actor1":"ALBANIA","Actor1_Country":"ALB","Actor2":"TURKEY","Actor2_Country":"TUR","Code":90,"Class":2,"Action_Location":"Zarzis, Madanin, Tunisia","Lat":33.504,"Long":11.1122,"Timestamp":20181105103000,"Source":"https:\/\/www.newstimes.com\/news\/world\/article\/AP-finds-almost-4-900-migrants-headed-to-Europe-13353508.php"},{"ID":800109861,"Actor1":"DUBAI","Actor1_Country":"ARE","Actor2":"PROFESSOR","Actor2_Country":null,"Code":40,"Class":1,"Action_Location":"Sharjah, Ash Shariqah, United Arab Emirates","Lat":25.3573,"Long":55.4033,"Timestamp":20181105103000,"Source":"http:\/\/indiaeducationdiary.in\/jgu-founding-vc-awarded-global-education-leaders-award-india-uae-partnership-summit-2018-dubai\/"},{"ID":800109862,"Actor1":"DUBAI","Actor1_Country":"ARE","Actor2":"PROFESSOR","Actor2_Country":null,"Code":40,"Class":1,"Action_Location":"India","Lat":20.0,"Long":77.0,"Timestamp":20181105103000,"Source":"http:\/\/indiaeducationdiary.in\/jgu-founding-vc-awarded-global-education-leaders-award-india-uae-partnership-summit-2018-dubai\/"},{"ID":800109863,"Actor1":"DUBAI","Actor1_Country":"ARE","Actor2":"PROFESSOR","Actor2_Country":null,"Code":40,"Class":1,"Action_Location":"Dubai, Dubayy, United Arab Emirates","Lat":25.2522,"Long":55.28,"Timestamp":20181105103000,"Source":"http:\/\/indiaeducationdiary.in\/jgu-founding-vc-awarded-global-education-leaders-award-india-uae-partnership-summit-2018-dubai\/"},{"ID":800109867,"Actor1":"ARMENIA","Actor1_Country":"ARM","Actor2":"ARMENIAN","Actor2_Country":"ARM","Code":13,"Class":1,"Action_Location":"Yerevan, Yerevan*, Armenia","Lat":40.1811,"Long":44.5136,"Timestamp":20181105103000,"Source":"https:\/\/www.azatutyun.am\/a\/29583188.html"},{"ID":800109868,"Actor1":"ARMENIA","Actor1_Country":"ARM","Actor2":"ARMENIA","Actor2_Country":"ARM","Code":214,"Class":1,"Action_Location":"Yerevan, Yerevan*, Armenia","Lat":40.1811,"Long":44.5136,"Timestamp":20181105103000,"Source":"https:\/\/www.azatutyun.am\/a\/29583188.html"},{"ID":800109872,"Actor1":"AUSTRALIAN","Actor1_Country":"AUS","Actor2":"AUSTRALIA","Actor2_Country":"AUS","Code":130,"Class":3,"Action_Location":"Canberra, Australian Capital Territory, Australia","Lat":-35.2833,"Long":149.217,"Timestamp":20181105103000,"Source":"https:\/\/www.afr.com\/news\/world\/asia\/marise-payne-to-visit-china-on-thursday-first-ministerial-visit-in-18-months-20181105-h17jfc"},{"ID":800109873,"Actor1":"AUSTRALIAN","Actor1_Country":"AUS","Actor2":"AUSTRALIA","Actor2_Country":"AUS","Code":130,"Class":3,"Action_Location":"Beijing, Beijing, China","Lat":39.9289,"Long":116.388,"Timestamp":20181105103000,"Source":"https:\/\/www.afr.com\/news\/world\/asia\/marise-payne-to-visit-china-on-thursday-first-ministerial-visit-in-18-months-20181105-h17jfc"},{"ID":800109874,"Actor1":"AUSTRALIAN","Actor1_Country":"AUS","Actor2":"AUSTRALIA","Actor2_Country":"AUS","Code":130,"Class":3,"Action_Location":"Shanghai, Shanghai, China","Lat":31.2222,"Long":121.458,"Timestamp":20181105103000,"Source":"https:\/\/www.afr.com\/news\/world\/asia\/marise-payne-to-visit-china-on-thursday-first-ministerial-visit-in-18-months-20181105-h17jfc"},{"ID":800109875,"Actor1":"AUSTRALIAN","Actor1_Country":"AUS","Actor2":"CHINESE","Actor2_Country":"CHN","Code":36,"Class":1,"Action_Location":"Canberra, Australian Capital Territory, Australia","Lat":-35.2833,"Long":149.217,"Timestamp":20181105103000,"Source":"https:\/\/www.afr.com\/news\/world\/asia\/marise-payne-to-visit-china-on-thursday-first-ministerial-visit-in-18-months-20181105-h17jfc"},{"ID":800109876,"Actor1":"AUSTRALIAN","Actor1_Country":"AUS","Actor2":"CHINESE","Actor2_Country":"CHN","Code":36,"Class":1,"Action_Location":"Beijing, Beijing, China","Lat":39.9289,"Long":116.388,"Timestamp":20181105103000,"Source":"https:\/\/www.afr.com\/news\/world\/asia\/marise-payne-to-visit-china-on-thursday-first-ministerial-visit-in-18-months-20181105-h17jfc"},{"ID":800109877,"Actor1":"AUSTRALIAN","Actor1_Country":"AUS","Actor2":"CHINESE","Actor2_Country":"CHN","Code":36,"Class":1,"Action_Location":"Shanghai, Shanghai, China","Lat":31.2222,"Long":121.458,"Timestamp":20181105103000,"Source":"https:\/\/www.afr.com\/news\/world\/asia\/marise-payne-to-visit-china-on-thursday-first-ministerial-visit-in-18-months-20181105-h17jfc"},{"ID":800109878,"Actor1":"AUSTRALIAN","Actor1_Country":"AUS","Actor2":"CHINA","Actor2_Country":"CHN","Code":36,"Class":1,"Action_Location":"Canberra, Australian Capital Territory, Australia","Lat":-35.2833,"Long":149.217,"Timestamp":20181105103000,"Source":"https:\/\/www.afr.com\/news\/world\/asia\/marise-payne-to-visit-china-on-thursday-first-ministerial-visit-in-18-months-20181105-h17jfc"},{"ID":800109879,"Actor1":"AUSTRALIAN","Actor1_Country":"AUS","Actor2":"CHINESE","Actor2_Country":"CHN","Code":36,"Class":1,"Action_Location":"Shanghai, Shanghai, China","Lat":31.2222,"Long":121.458,"Timestamp":20181105103000,"Source":"https:\/\/www.afr.com\/news\/world\/asia\/marise-payne-to-visit-china-on-thursday-first-ministerial-visit-in-18-months-20181105-h17jfc"},{"ID":800109880,"Actor1":"AUSTRALIAN","Actor1_Country":"AUS","Actor2":"CHINA","Actor2_Country":"CHN","Code":40,"Class":1,"Action_Location":"Canberra, Australian Capital Territory, Australia","Lat":-35.2833,"Long":149.217,"Timestamp":20181105103000,"Source":"https:\/\/www.afr.com\/news\/world\/asia\/marise-payne-to-visit-china-on-thursday-first-ministerial-visit-in-18-months-20181105-h17jfc"},{"ID":800109881,"Actor1":"AUSTRALIAN","Actor1_Country":"AUS","Actor2":"CHINA","Actor2_Country":"CHN","Code":42,"Class":1,"Action_Location":"Shanghai, Shanghai, China","Lat":31.2222,"Long":121.458,"Timestamp":20181105103000,"Source":"https:\/\/www.afr.com\/news\/world\/asia\/marise-payne-to-visit-china-on-thursday-first-ministerial-visit-in-18-months-20181105-h17jfc"},{"ID":800109882,"Actor1":"AUSTRALIAN","Actor1_Country":"AUS","Actor2":"CHINA","Actor2_Country":"CHN","Code":42,"Class":1,"Action_Location":"Shanghai, Shanghai, China","Lat":31.2222,"Long":121.458,"Timestamp":20181105103000,"Source":"https:\/\/www.afr.com\/news\/world\/asia\/marise-payne-to-visit-china-on-thursday-first-ministerial-visit-in-18-months-20181105-h17jfc"},{"ID":800109883,"Actor1":"AUSTRALIAN","Actor1_Country":"AUS","Actor2":"CHINA","Actor2_Country":"CHN","Code":42,"Class":1,"Action_Location":"Shanghai, Shanghai, China","Lat":31.2222,"Long":121.458,"Timestamp":20181105103000,"Source":"https:\/\/www.afr.com\/news\/world\/asia\/marise-payne-to-visit-china-on-thursday-first-ministerial-visit-in-18-months-20181105-h17jfc"},{"ID":800109884,"Actor1":"AUSTRALIAN","Actor1_Country":"AUS","Actor2":"CHINA","Actor2_Country":"CHN","Code":130,"Class":3,"Action_Location":"Canberra, Australian Capital Territory, Australia","Lat":-35.2833,"Long":149.217,"Timestamp":20181105103000,"Source":"https:\/\/www.afr.com\/news\/world\/asia\/marise-payne-to-visit-china-on-thursday-first-ministerial-visit-in-18-months-20181105-h17jfc"},{"ID":800109885,"Actor1":"AUSTRALIAN","Actor1_Country":"AUS","Actor2":"CHINA","Actor2_Country":"CHN","Code":130,"Class":3,"Action_Location":"Beijing, Beijing, China","Lat":39.9289,"Long":116.388,"Timestamp":20181105103000,"Source":"https:\/\/www.afr.com\/news\/world\/asia\/marise-payne-to-visit-china-on-thursday-first-ministerial-visit-in-18-months-20181105-h17jfc"},{"ID":800109886,"Actor1":"AUSTRALIAN","Actor1_Country":"AUS","Actor2":"CHINA","Actor2_Country":"CHN","Code":130,"Class":3,"Action_Location":"Canberra, Australian Capital Territory, Australia","Lat":-35.2833,"Long":149.217,"Timestamp":20181105103000,"Source":"https:\/\/www.afr.com\/news\/world\/asia\/marise-payne-to-visit-china-on-thursday-first-ministerial-visit-in-18-months-20181105-h17jfc"},{"ID":800109887,"Actor1":"AUSTRALIAN","Actor1_Country":"AUS","Actor2":"CHINA","Actor2_Country":"CHN","Code":130,"Class":3,"Action_Location":"Shanghai, Shanghai, China","Lat":31.2222,"Long":121.458,"Timestamp":20181105103000,"Source":"https:\/\/www.afr.com\/news\/world\/asia\/marise-payne-to-visit-china-on-thursday-first-ministerial-visit-in-18-months-20181105-h17jfc"},{"ID":800109888,"Actor1":"AUSTRALIA","Actor1_Country":"AUS","Actor2":"BEIJING","Actor2_Country":"CHN","Code":160,"Class":4,"Action_Location":"Canberra, Australian Capital Territory, Australia","Lat":-35.2833,"Long":149.217,"Timestamp":20181105103000,"Source":"https:\/\/www.afr.com\/news\/world\/asia\/marise-payne-to-visit-china-on-thursday-first-ministerial-visit-in-18-months-20181105-h17jfc"},{"ID":800109889,"Actor1":"AUSTRALIA","Actor1_Country":"AUS","Actor2":"BEIJING","Actor2_Country":"CHN","Code":160,"Class":4,"Action_Location":"Beijing, Beijing, China","Lat":39.9289,"Long":116.388,"Timestamp":20181105103000,"Source":"https:\/\/www.afr.com\/news\/world\/asia\/marise-payne-to-visit-china-on-thursday-first-ministerial-visit-in-18-months-20181105-h17jfc"},{"ID":800109890,"Actor1":"AUSTRALIA","Actor1_Country":"AUS","Actor2":"UNIVERSITY","Actor2_Country":null,"Code":172,"Class":4,"Action_Location":"Philippines","Lat":13.0,"Long":122.0,"Timestamp":20181105103000,"Source":"http:\/\/www.visayandailystar.com\/2018\/November\/05\/perspective.htm"},{"ID":800109891,"Actor1":"AUSTRALIA","Actor1_Country":"AUS","Actor2":"CHAMPAGNE","Actor2_Country":"FRA","Code":111,"Class":3,"Action_Location":"Sydney, New South Wales, Australia","Lat":-33.8833,"Long":151.217,"Timestamp":20181105103000,"Source":"https:\/\/www.afr.com\/business\/media-and-marketing\/advertising\/why-mumm-champagne-abandoned-above-the-line-and-built-a-rocketship-20181105-h17icd"},{"ID":800109892,"Actor1":"AUSTRALIA","Actor1_Country":"AUS","Actor2":"CHAMPAGNE","Actor2_Country":"FRA","Code":172,"Class":4,"Action_Location":"Melbourne, Victoria, Australia","Lat":-37.8167,"Long":144.967,"Timestamp":20181105103000,"Source":"https:\/\/www.afr.com\/business\/media-and-marketing\/advertising\/why-mumm-champagne-abandoned-above-the-line-and-built-a-rocketship-20181105-h17icd"},{"ID":800109893,"Actor1":"AUSTRALIA","Actor1_Country":"AUS","Actor2":"CHAMPAGNE","Actor2_Country":"FRA","Code":172,"Class":4,"Action_Location":"Sydney, New South Wales, Australia","Lat":-33.8833,"Long":151.217,"Timestamp":20181105103000,"Source":"https:\/\/www.afr.com\/business\/media-and-marketing\/advertising\/why-mumm-champagne-abandoned-above-the-line-and-built-a-rocketship-20181105-h17icd"},{"ID":800109894,"Actor1":"AUSTRALIA","Actor1_Country":"AUS","Actor2":"GOVERNMENT","Actor2_Country":null,"Code":100,"Class":3,"Action_Location":"Sydney, New South Wales, Australia","Lat":-33.8833,"Long":151.217,"Timestamp":20181105103000,"Source":"https:\/\/www.cbc.ca\/news\/canada\/nova-scotia\/cape-breton-hospital-closing-health-plans-unknown-1.4890424"},{"ID":800109895,"Actor1":"AUSTRALIA","Actor1_Country":"AUS","Actor2":"FEDERAL COURT","Actor2_Country":null,"Code":10,"Class":1,"Action_Location":"Australia","Lat":-25.0,"Long":135.0,"Timestamp":20181105103000,"Source":"https:\/\/www.afr.com\/business\/legal\/with-respect-the-federal-court-is-not-above-scrutiny-20181102-h17fxj"},{"ID":800109896,"Actor1":"AUSTRALIA","Actor1_Country":"AUS","Actor2":"FEDERAL COURT","Actor2_Country":null,"Code":71,"Class":2,"Action_Location":"Australia","Lat":-25.0,"Long":135.0,"Timestamp":20181105103000,"Source":"https:\/\/www.afr.com\/business\/legal\/with-respect-the-federal-court-is-not-above-scrutiny-20181102-h17fxj"},{"ID":800109897,"Actor1":"AUSTRALIA","Actor1_Country":"AUS","Actor2":"CATALAN","Actor2_Country":null,"Code":43,"Class":1,"Action_Location":"Australia","Lat":-25.0,"Long":135.0,"Timestamp":20181105103000,"Source":"http:\/\/www.visayandailystar.com\/2018\/November\/05\/perspective.htm"},{"ID":800109898,"Actor1":"AUSTRALIAN","Actor1_Country":"AUS","Actor2":"CHINESE","Actor2_Country":"CHN","Code":36,"Class":1,"Action_Location":"Canberra, Australian Capital Territory, Australia","Lat":-35.2833,"Long":149.217,"Timestamp":20181105103000,"Source":"https:\/\/www.afr.com\/news\/world\/asia\/marise-payne-to-visit-china-on-thursday-first-ministerial-visit-in-18-months-20181105-h17jfc"},{"ID":800109899,"Actor1":"AUSTRALIAN","Actor1_Country":"AUS","Actor2":"CHINA","Actor2_Country":"CHN","Code":36,"Class":1,"Action_Location":"Beijing, Beijing, China","Lat":39.9289,"Long":116.388,"Timestamp":20181105103000,"Source":"https:\/\/www.afr.com\/news\/world\/asia\/marise-payne-to-visit-china-on-thursday-first-ministerial-visit-in-18-months-20181105-h17jfc"},{"ID":800109900,"Actor1":"AUSTRALIAN","Actor1_Country":"AUS","Actor2":"CHINESE","Actor2_Country":"CHN","Code":36,"Class":1,"Action_Location":"Canberra, Australian Capital Territory, Australia","Lat":-35.2833,"Long":149.217,"Timestamp":20181105103000,"Source":"https:\/\/www.afr.com\/news\/world\/asia\/marise-payne-to-visit-china-on-thursday-first-ministerial-visit-in-18-months-20181105-h17jfc"},{"ID":800109901,"Actor1":"AUSTRALIAN","Actor1_Country":"AUS","Actor2":"CHINESE","Actor2_Country":"CHN","Code":42,"Class":1,"Action_Location":"Shanghai, Shanghai, China","Lat":31.2222,"Long":121.458,"Timestamp":20181105103000,"Source":"https:\/\/www.afr.com\/news\/world\/asia\/marise-payne-to-visit-china-on-thursday-first-ministerial-visit-in-18-months-20181105-h17jfc"},{"ID":800109902,"Actor1":"AUSTRALIAN","Actor1_Country":"AUS","Actor2":"CHINESE","Actor2_Country":"CHN","Code":130,"Class":3,"Action_Location":"Canberra, Australian Capital Territory, Australia","Lat":-35.2833,"Long":149.217,"Timestamp":20181105103000,"Source":"https:\/\/www.afr.com\/news\/world\/asia\/marise-payne-to-visit-china-on-thursday-first-ministerial-visit-in-18-months-20181105-h17jfc"},{"ID":800109903,"Actor1":"AUSTRALIAN","Actor1_Country":"AUS","Actor2":"CHINESE","Actor2_Country":"CHN","Code":130,"Class":3,"Action_Location":"Canberra, Australian Capital Territory, Australia","Lat":-35.2833,"Long":149.217,"Timestamp":20181105103000,"Source":"https:\/\/www.afr.com\/news\/world\/asia\/marise-payne-to-visit-china-on-thursday-first-ministerial-visit-in-18-months-20181105-h17jfc"},{"ID":800109907,"Actor1":"AUSTRIAN","Actor1_Country":"AUT","Actor2":"CONGRESSMAN","Actor2_Country":null,"Code":40,"Class":1,"Action_Location":"Austria","Lat":47.333333,"Long":13.333333,"Timestamp":20181105103000,"Source":"https:\/\/www.newsweek.com\/watch-iowa-congressman-steve-king-has-special-mix-racism-and-stupid-john-1200865"},{"ID":800109908,"Actor1":"AUSTRIAN","Actor1_Country":"AUT","Actor2":"IOWA","Actor2_Country":"USA","Code":40,"Class":1,"Action_Location":"Iowa, United States","Lat":42.0046,"Long":-93.214,"Timestamp":20181105103000,"Source":"https:\/\/www.newsweek.com\/watch-iowa-congressman-steve-king-has-special-mix-racism-and-stupid-john-1200865"},{"ID":800109909,"Actor1":"BRUSSELS","Actor1_Country":"BEL","Actor2":"IRANIAN","Actor2_Country":"IRN","Code":51,"Class":1,"Action_Location":"Brussels, Bruxelles-Capitale, Belgium","Lat":50.8333,"Long":4.33333,"Timestamp":20181105103000,"Source":"https:\/\/www.dw.com\/en\/smaller-german-firms-to-continue-trade-with-iran\/av-46154607"},{"ID":800109910,"Actor1":"BELGIUM","Actor1_Country":"BEL","Actor2":"IRAN","Actor2_Country":"IRN","Code":51,"Class":1,"Action_Location":"Brussels, Bruxelles-Capitale, Belgium","Lat":50.8333,"Long":4.33333,"Timestamp":20181105103000,"Source":"https:\/\/www.dw.com\/en\/smaller-german-firms-to-continue-trade-with-iran\/av-46154607"},{"ID":800109911,"Actor1":"BENIN","Actor1_Country":"BEN","Actor2":"PRESIDENT","Actor2_Country":null,"Code":40,"Class":1,"Action_Location":"Benin","Lat":9.5,"Long":2.25,"Timestamp":20181105103000,"Source":"https:\/\/punchng.com\/buhari-urges-monarchs-to-remain-bridge-builders\/"},{"ID":800109913,"Actor1":"BANGLADESH","Actor1_Country":"BGD","Actor2":"CABINET","Actor2_Country":null,"Code":20,"Class":1,"Action_Location":"Dhaka, Dhaka, Bangladesh","Lat":23.7231,"Long":90.4086,"Timestamp":20181105103000,"Source":"http:\/\/banglamirrornews.com\/2018\/11\/05\/govt-launches-national-social-security-strategy-action-plan\/"},{"ID":800109914,"Actor1":"BANGLADESH","Actor1_Country":"BGD","Actor2":"PROSECUTOR","Actor2_Country":null,"Code":15,"Class":1,"Action_Location":"Bangladesh","Lat":24.0,"Long":90.0,"Timestamp":20181105103000,"Source":"https:\/\/www.nytimes.com\/2018\/11\/05\/nyregion\/port-authority-bomber-trial.html"},{"ID":800109915,"Actor1":"BANGLADESH","Actor1_Country":"BGD","Actor2":"MYANMAR","Actor2_Country":"MMR","Code":36,"Class":1,"Action_Location":"Bangladesh","Lat":24.0,"Long":90.0,"Timestamp":20181105103000,"Source":"http:\/\/www.china.org.cn\/world\/Off_the_Wire\/2018-11\/05\/content_70361150.htm"},{"ID":800109916,"Actor1":"BANGLADESH","Actor1_Country":"BGD","Actor2":"TURKEY","Actor2_Country":"TUR","Code":10,"Class":1,"Action_Location":"Albania","Lat":41.0,"Long":20.0,"Timestamp":20181105103000,"Source":"https:\/\/www.newstimes.com\/news\/world\/article\/AP-finds-almost-4-900-migrants-headed-to-Europe-13353508.php"},{"ID":800109917,"Actor1":"BANGLADESH","Actor1_Country":"BGD","Actor2":"TURKEY","Actor2_Country":"TUR","Code":10,"Class":1,"Action_Location":"Bangladesh","Lat":24.0,"Long":90.0,"Timestamp":20181105103000,"Source":"https:\/\/www.newstimes.com\/news\/world\/article\/AP-finds-almost-4-900-migrants-headed-to-Europe-13353508.php"},{"ID":800109918,"Actor1":"BANGLADESH","Actor1_Country":"BGD","Actor2":"TURKEY","Actor2_Country":"TUR","Code":10,"Class":1,"Action_Location":"Turkey","Lat":39.059012,"Long":34.911546,"Timestamp":20181105103000,"Source":"https:\/\/www.newstimes.com\/news\/world\/article\/AP-finds-almost-4-900-migrants-headed-to-Europe-13353508.php"},{"ID":800109919,"Actor1":"BANGLADESH","Actor1_Country":"BGD","Actor2":"TURKEY","Actor2_Country":"TUR","Code":90,"Class":2,"Action_Location":"Milan, Lombardia, Italy","Lat":45.4667,"Long":9.2,"Timestamp":20181105103000,"Source":"https:\/\/www.newstimes.com\/news\/world\/article\/AP-finds-almost-4-900-migrants-headed-to-Europe-13353508.php"},{"ID":800109920,"Actor1":"BANGLADESH","Actor1_Country":"BGD","Actor2":"TURKEY","Actor2_Country":"TUR","Code":90,"Class":2,"Action_Location":"Albania","Lat":41.0,"Long":20.0,"Timestamp":20181105103000,"Source":"https:\/\/www.newstimes.com\/news\/world\/article\/AP-finds-almost-4-900-migrants-headed-to-Europe-13353508.php"},{"ID":800109921,"Actor1":"BANGLADESH","Actor1_Country":"BGD","Actor2":"TURKEY","Actor2_Country":"TUR","Code":90,"Class":2,"Action_Location":"Turkey","Lat":39.059012,"Long":34.911546,"Timestamp":20181105103000,"Source":"https:\/\/www.newstimes.com\/news\/world\/article\/AP-finds-almost-4-900-migrants-headed-to-Europe-13353508.php"},{"ID":800109923,"Actor1":"MANAMA","Actor1_Country":"BHR","Actor2":"SAUDI","Actor2_Country":"SAU","Code":12,"Class":1,"Action_Location":"Jeddah, Makkah, Saudi Arabia","Lat":21.5169,"Long":39.2192,"Timestamp":20181105103000,"Source":"https:\/\/gulfnews.com\/news\/gulf\/saudi-arabia\/khashoggi-sons-concerned-about-misuse-of-legacy-1.2297962"},{"ID":800109924,"Actor1":"MINSK","Actor1_Country":"BLR","Actor2":"BELARUS","Actor2_Country":"BLR","Code":10,"Class":1,"Action_Location":"Minsk, Belarus (general), Belarus","Lat":53.9,"Long":27.5667,"Timestamp":20181105103000,"Source":"https:\/\/eng.belta.by\/politics\/view\/belarus-to-publish-msc-core-group-meeting-initiatives-116288-2018\/"},{"ID":800109925,"Actor1":"BELARUSIAN","Actor1_Country":"BLR","Actor2":"VLADIMIR","Actor2_Country":"RUS","Code":42,"Class":1,"Action_Location":"Minsk, Belarus (general), Belarus","Lat":53.9,"Long":27.5667,"Timestamp":20181105103000,"Source":"https:\/\/eng.belta.by\/politics\/view\/belarus-to-publish-msc-core-group-meeting-initiatives-116288-2018\/"},{"ID":800109926,"Actor1":"MINSK","Actor1_Country":"BLR","Actor2":"VLADIMIR","Actor2_Country":"RUS","Code":10,"Class":1,"Action_Location":"Minsk, Belarus (general), Belarus","Lat":53.9,"Long":27.5667,"Timestamp":20181105103000,"Source":"https:\/\/eng.belta.by\/politics\/view\/belarus-to-publish-msc-core-group-meeting-initiatives-116288-2018\/"},{"ID":800109928,"Actor1":"BUDDHIST","Actor1_Country":null,"Actor2":"MYANMAR","Actor2_Country":"MMR","Code":43,"Class":1,"Action_Location":"Delhi, Delhi, India","Lat":28.6667,"Long":77.2167,"Timestamp":20181105103000,"Source":"https:\/\/www.newsx.com\/national\/rohingya-repatriation-jammu-and-kashmir-governor-satya-pal-malik-says-biometric-details-of-refugees-will-be-collected-within-two-months"},{"ID":800109953,"Actor1":"COMPANIES","Actor1_Country":null,"Actor2":"AFRICA","Actor2_Country":"AFR","Code":42,"Class":1,"Action_Location":"Accra, Greater Accra, Ghana","Lat":5.55,"Long":-0.216667,"Timestamp":20181105103000,"Source":"https:\/\/allafrica.com\/stories\/201811050318.html"},{"ID":800109954,"Actor1":"COMPANY","Actor1_Country":null,"Actor2":"NEWFOUNDLAND AND LABRADOR","Actor2_Country":"CAN","Code":84,"Class":2,"Action_Location":"Quebec, Quebec, Canada","Lat":47.5,"Long":-72.0,"Timestamp":20181105103000,"Source":"http:\/\/vocm.com\/news\/workers-shocked-by-rona-closure-announcement-says-union\/"},{"ID":800109955,"Actor1":"PRODUCER","Actor1_Country":null,"Actor2":"CHINA","Actor2_Country":"CHN","Code":51,"Class":1,"Action_Location":"Nairobi, Nairobi Area, Kenya","Lat":-1.28333,"Long":36.8167,"Timestamp":20181105103000,"Source":"http:\/\/www.coastweek.com\/4144-Chinese-firm-launches-beverages-in-Kenyan-market.htm"},{"ID":800109956,"Actor1":"COMPANIES","Actor1_Country":null,"Actor2":"CHINA","Actor2_Country":"CHN","Code":51,"Class":1,"Action_Location":"Tokyo, Tokyo, Japan","Lat":35.685,"Long":139.751,"Timestamp":20181105103000,"Source":"https:\/\/www.reuters.com\/article\/us-softbank-group-strategy-results\/softbanks-son-defends-saudi-ties-as-kingdom-backed-fund-boosts-profit-idUSKCN1NA0AV"},{"ID":800109957,"Actor1":"PRODUCER","Actor1_Country":null,"Actor2":"CHINA","Actor2_Country":"CHN","Code":51,"Class":1,"Action_Location":"Langjiu, Hainan, China","Lat":19.1218,"Long":109.355,"Timestamp":20181105103000,"Source":"http:\/\/www.coastweek.com\/4144-Chinese-firm-launches-beverages-in-Kenyan-market.htm"},{"ID":800109958,"Actor1":"COMPANIES","Actor1_Country":null,"Actor2":"CHINA","Actor2_Country":"CHN","Code":60,"Class":2,"Action_Location":"Ellendale, North Dakota, United States","Lat":46.0028,"Long":-98.527,"Timestamp":20181105103000,"Source":"https:\/\/www.nytimes.com\/2018\/11\/05\/business\/soybeans-farmers-trade-war.html"},{"ID":800109959,"Actor1":"PRODUCER","Actor1_Country":null,"Actor2":"CHINESE","Actor2_Country":"CHN","Code":61,"Class":2,"Action_Location":"Shenzhen, Guangdong, China","Lat":22.2,"Long":111.117,"Timestamp":20181105103000,"Source":"https:\/\/www.reuters.com\/article\/us-china-economy-exports\/export-orders-to-u-s-down-a-third-at-chinas-largest-trade-fair-idUSKCN1NA0HL"},{"ID":800109960,"Actor1":"COMPANY","Actor1_Country":null,"Actor2":"SETTLEMENT","Actor2_Country":null,"Code":40,"Class":1,"Action_Location":"Australia","Lat":-25.0,"Long":135.0,"Timestamp":20181105103000,"Source":"https:\/\/www.afr.com\/street-talk\/pexa-ipo-unsuccessful-link-poised-to-sign-deal-20181105-h17ieh"},{"ID":800109961,"Actor1":"CEOS","Actor1_Country":null,"Actor2":"COMMUNITY","Actor2_Country":null,"Code":43,"Class":1,"Action_Location":"White Hall, West Virginia, United States","Lat":39.4212,"Long":-80.1826,"Timestamp":20181105103000,"Source":"https:\/\/www.timeswv.com\/community\/white-hall-column-improved-attendance-educational-events-highlight-november\/article_3af3df92-e0b2-11e8-be05-8b50ba635606.html"},{"ID":800109962,"Actor1":"COMPANIES","Actor1_Country":null,"Actor2":"RESIDENTS","Actor2_Country":null,"Code":51,"Class":1,"Action_Location":"Saint-Denis, Reunion (general), Reunion","Lat":-20.8667,"Long":55.4667,"Timestamp":20181105103000,"Source":"https:\/\/www.businesswire.com\/news\/home\/20181105005246\/en\/J.P.-Morgan-Invest-30-Million-USD-Greater"},{"ID":800109963,"Actor1":"BUSINESS","Actor1_Country":null,"Actor2":"GERMANY","Actor2_Country":"DEU","Code":46,"Class":1,"Action_Location":"Frankfurt, Brandenburg, Germany","Lat":52.35,"Long":14.55,"Timestamp":20181105103000,"Source":"https:\/\/www.tmcnet.com\/usubmit\/2018\/11\/05\/8845876.htm"},{"ID":800109964,"Actor1":"BUSINESS","Actor1_Country":null,"Actor2":"EUROPE","Actor2_Country":"EUR","Code":46,"Class":1,"Action_Location":"Frankfurt, Brandenburg, Germany","Lat":52.35,"Long":14.55,"Timestamp":20181105103000,"Source":"https:\/\/www.tmcnet.com\/usubmit\/2018\/11\/05\/8845876.htm"},{"ID":800109965,"Actor1":"INDUSTRY","Actor1_Country":null,"Actor2":"EUROPE","Actor2_Country":"EUR","Code":51,"Class":1,"Action_Location":"United States","Lat":39.828175,"Long":-98.5795,"Timestamp":20181105103000,"Source":"https:\/\/www.thechronicleherald.ca\/news\/local\/mit-expert-carbon-neutral-biomass-accounting-fraud-256464\/"},{"ID":800109966,"Actor1":"INVESTOR","Actor1_Country":null,"Actor2":"UNITED KINGDOM","Actor2_Country":"GBR","Code":12,"Class":1,"Action_Location":"Italy","Lat":42.833333,"Long":12.833333,"Timestamp":20181105103000,"Source":"https:\/\/www.businessinsider.com.au\/no-deal-brexit-steve-eisman-big-short-investor-betting-against-uk-stocks-2018-11"},{"ID":800109967,"Actor1":"COMPANY","Actor1_Country":null,"Actor2":"GLASGOW","Actor2_Country":"GBR","Code":42,"Class":1,"Action_Location":"Glasgow, Glasgow City, United Kingdom","Lat":55.8333,"Long":-4.25,"Timestamp":20181105103000,"Source":"https:\/\/www.hw.ac.uk\/about\/news\/2018\/from-war-torn-afghanistan-to-award-winning.htm"},{"ID":800109968,"Actor1":"CHAMBER OF COMMERCE AND INDUSTRY","Actor1_Country":null,"Actor2":"GOVERNMENT","Actor2_Country":null,"Code":112,"Class":3,"Action_Location":"Kashmir, Jammu and Kashmir, India","Lat":33.9167,"Long":76.6667,"Timestamp":20181105103000,"Source":"https:\/\/www.thecitizen.in\/index.php\/en\/NewsDetail\/index\/3\/15451\/Snow-Comes-With-Humour-But-Also-Tears"},{"ID":800109969,"Actor1":"COMPANY","Actor1_Country":null,"Actor2":"KING","Actor2_Country":null,"Code":190,"Class":4,"Action_Location":"Toronto, Ontario, Canada","Lat":43.6667,"Long":-79.4167,"Timestamp":20181105103000,"Source":"https:\/\/www.newsweek.com\/watch-iowa-congressman-steve-king-has-special-mix-racism-and-stupid-john-1200865"},{"ID":800109970,"Actor1":"AIRLINE","Actor1_Country":null,"Actor2":"INTERNATIONAL CIVIL AVIATION ORGANIZATION","Actor2_Country":null,"Code":60,"Class":2,"Action_Location":"Nairobi, Nairobi Area, Kenya","Lat":-1.28333,"Long":36.8167,"Timestamp":20181105103000,"Source":"http:\/\/www.businesstravelerusa.com\/news\/kenya-airways-launched-new-york-nairobi-nonstop"},{"ID":800109971,"Actor1":"AIRLINE","Actor1_Country":null,"Actor2":"EMPLOYEE","Actor2_Country":null,"Code":10,"Class":1,"Action_Location":"Johannesburg, Gauteng, South Africa","Lat":-26.2,"Long":28.0833,"Timestamp":20181105103000,"Source":"https:\/\/www.fin24.com\/Companies\/we-need-to-clean-out-the-dirt-gordhan-tells-saa-staff-20181105"},{"ID":800109972,"Actor1":"COMPANIES","Actor1_Country":null,"Actor2":"WORKER","Actor2_Country":null,"Code":20,"Class":1,"Action_Location":"Elk River, West Virginia, United States","Lat":38.3551,"Long":-81.6451,"Timestamp":20181105103000,"Source":"https:\/\/www.timeswv.com\/news\/miller-s-son-ojeda-address-issues-prior-to-election\/article_902789d2-e0b2-11e8-a2ab-fb255143cf83.html"},{"ID":800109974,"Actor1":"AIRLINE","Actor1_Country":null,"Actor2":"PUBLISHER","Actor2_Country":null,"Code":43,"Class":1,"Action_Location":"Italy","Lat":42.833333,"Long":12.833333,"Timestamp":20181105103000,"Source":"http:\/\/www.ttnworldwide.com\/Article\/285448\/Arabian-Adventures-invests-in-Italy"},{"ID":800109975,"Actor1":"COMPANY","Actor1_Country":null,"Actor2":"PAKISTAN","Actor2_Country":"PAK","Code":211,"Class":1,"Action_Location":"Islamabad, Islamabad, Pakistan","Lat":33.7,"Long":73.1667,"Timestamp":20181105103000,"Source":"http:\/\/dailytimes.com.pk\/318749\/no-document-to-prove-nawaz-made-flagship-investments-wajid-zia-tells-ac-as-cross-examination-enters-final-stage\/"},{"ID":800109976,"Actor1":"COMPANY","Actor1_Country":null,"Actor2":"PAKISTAN","Actor2_Country":"PAK","Code":211,"Class":1,"Action_Location":"Rawalpindi, Punjab, Pakistan","Lat":33.6,"Long":73.0667,"Timestamp":20181105103000,"Source":"http:\/\/dailytimes.com.pk\/318749\/no-document-to-prove-nawaz-made-flagship-investments-wajid-zia-tells-ac-as-cross-examination-enters-final-stage\/"},{"ID":800109977,"Actor1":"COMPANIES","Actor1_Country":null,"Actor2":"SAUDI","Actor2_Country":"SAU","Code":70,"Class":2,"Action_Location":"Japan","Lat":36.0,"Long":138.0,"Timestamp":20181105103000,"Source":"https:\/\/www.industryleadersmagazine.com\/softbank-dumps-1-1-of-its-visions-fund-in-a-smart-window-glass-company\/"},{"ID":800109978,"Actor1":"COMPANY","Actor1_Country":null,"Actor2":"VERMONT","Actor2_Country":"USA","Code":20,"Class":1,"Action_Location":"Hopkinton, New Hampshire, United States","Lat":43.1915,"Long":-71.6754,"Timestamp":20181105103000,"Source":"http:\/\/www.nashuatelegraph.com\/news\/local-news\/2018\/11\/05\/solar-farm-at-brox-eyed\/"},{"ID":800109979,"Actor1":"COMPANY","Actor1_Country":null,"Actor2":"VERMONT","Actor2_Country":"USA","Code":20,"Class":1,"Action_Location":"Hopkinton, New Hampshire, United States","Lat":43.1915,"Long":-71.6754,"Timestamp":20181105103000,"Source":"http:\/\/www.nashuatelegraph.com\/news\/local-news\/2018\/11\/05\/solar-farm-at-brox-eyed\/"},{"ID":800109980,"Actor1":"COMPANY","Actor1_Country":null,"Actor2":"VERMONT","Actor2_Country":"USA","Code":20,"Class":1,"Action_Location":"Vermont, United States","Lat":44.0407,"Long":-72.7093,"Timestamp":20181105103000,"Source":"http:\/\/www.nashuatelegraph.com\/news\/local-news\/2018\/11\/05\/solar-farm-at-brox-eyed\/"},{"ID":800109981,"Actor1":"INDUSTRY","Actor1_Country":null,"Actor2":"UNITED STATES","Actor2_Country":"USA","Code":51,"Class":1,"Action_Location":"Queens County, New Brunswick, Canada","Lat":45.8333,"Long":-66.0,"Timestamp":20181105103000,"Source":"https:\/\/www.thechronicleherald.ca\/news\/local\/mit-expert-carbon-neutral-biomass-accounting-fraud-256464\/"},{"ID":800109982,"Actor1":"INDUSTRY","Actor1_Country":null,"Actor2":"UNITED STATES","Actor2_Country":"USA","Code":51,"Class":1,"Action_Location":"United States","Lat":39.828175,"Long":-98.5795,"Timestamp":20181105103000,"Source":"https:\/\/www.thechronicleherald.ca\/news\/local\/mit-expert-carbon-neutral-biomass-accounting-fraud-256464\/"},{"ID":800109983,"Actor1":"MANUFACTURER","Actor1_Country":null,"Actor2":"CINCINNATI","Actor2_Country":"USA","Code":60,"Class":2,"Action_Location":"Cincinnati, Ohio, United States","Lat":39.162,"Long":-84.4569,"Timestamp":20181105103000,"Source":"https:\/\/www.belfasttelegraph.co.uk\/business\/jobs\/20-jobs-to-go-in-portadown-as-kingspan-closes-solar-tubes-line-37491144.html"},{"ID":800109984,"Actor1":"MANUFACTURER","Actor1_Country":null,"Actor2":"CINCINNATI","Actor2_Country":"USA","Code":60,"Class":2,"Action_Location":"Cincinnati, Ohio, United States","Lat":39.162,"Long":-84.4569,"Timestamp":20181105103000,"Source":"https:\/\/www.belfasttelegraph.co.uk\/business\/jobs\/20-jobs-to-go-in-portadown-as-kingspan-closes-solar-tubes-line-37491144.html"},{"ID":800109985,"Actor1":"COMPANY","Actor1_Country":null,"Actor2":"UNITED STATES","Actor2_Country":"USA","Code":61,"Class":2,"Action_Location":"United States","Lat":39.828175,"Long":-98.5795,"Timestamp":20181105103000,"Source":"https:\/\/www.reuters.com\/article\/us-china-economy-exports\/export-orders-to-u-s-down-a-third-at-chinas-largest-trade-fair-idUSKCN1NA0HL"},{"ID":800109986,"Actor1":"COMPANY","Actor1_Country":null,"Actor2":"UNITED STATES","Actor2_Country":"USA","Code":61,"Class":2,"Action_Location":"United States","Lat":39.828175,"Long":-98.5795,"Timestamp":20181105103000,"Source":"https:\/\/www.reuters.com\/article\/us-china-economy-exports\/export-orders-to-u-s-down-a-third-at-chinas-largest-trade-fair-idUSKCN1NA0HL"},{"ID":800109987,"Actor1":"COMPANY","Actor1_Country":null,"Actor2":"UNITED STATES","Actor2_Country":"USA","Code":190,"Class":4,"Action_Location":"Iowa, United States","Lat":42.0046,"Long":-93.214,"Timestamp":20181105103000,"Source":"https:\/\/www.newsweek.com\/watch-iowa-congressman-steve-king-has-special-mix-racism-and-stupid-john-1200865"},{"ID":800109988,"Actor1":"COMPANY","Actor1_Country":null,"Actor2":"UNITED STATES","Actor2_Country":"USA","Code":190,"Class":4,"Action_Location":"Iowa, United States","Lat":42.0046,"Long":-93.214,"Timestamp":20181105103000,"Source":"https:\/\/www.newsweek.com\/watch-iowa-congressman-steve-king-has-special-mix-racism-and-stupid-john-1200865"},{"ID":800109989,"Actor1":"BUSINESS","Actor1_Country":null,"Actor2":"ZIMBABWE","Actor2_Country":"ZWE","Code":20,"Class":1,"Action_Location":"Chipinge, Manicaland, Zimbabwe","Lat":-20.1883,"Long":32.6236,"Timestamp":20181105103000,"Source":"https:\/\/allafrica.com\/stories\/201811050374.html"},{"ID":800109991,"Actor1":"BUSINESS","Actor1_Country":null,"Actor2":"RESIDENTS","Actor2_Country":null,"Code":51,"Class":1,"Action_Location":"Rhode Island, United States","Lat":41.6772,"Long":-71.5101,"Timestamp":20181105103000,"Source":"https:\/\/pbn.com\/leonard-hair-transplant-associates-opens-warwick-location\/"},{"ID":800109992,"Actor1":"BUSINESS","Actor1_Country":null,"Actor2":"UNITED STATES","Actor2_Country":"USA","Code":51,"Class":1,"Action_Location":"Rhode Island, United States","Lat":41.6772,"Long":-71.5101,"Timestamp":20181105103000,"Source":"https:\/\/pbn.com\/leonard-hair-transplant-associates-opens-warwick-location\/"},{"ID":800110001,"Actor1":"CANADIAN","Actor1_Country":"CAN","Actor2":"CANADA","Actor2_Country":"CAN","Code":30,"Class":1,"Action_Location":"Kelowna, British Columbia, Canada","Lat":49.9,"Long":-119.483,"Timestamp":20181105103000,"Source":"https:\/\/www.prnewswire.com:443\/news-releases\/valens-signs-multi-year-cannabis-extraction-agreement-with-gtec-holdings-300743672.html"},{"ID":800110002,"Actor1":"CANADIAN","Actor1_Country":"CAN","Actor2":"CANADA","Actor2_Country":"CAN","Code":32,"Class":1,"Action_Location":"Okanagan, British Columbia, Canada","Lat":50.3667,"Long":-119.35,"Timestamp":20181105103000,"Source":"https:\/\/www.prnewswire.com:443\/news-releases\/valens-signs-multi-year-cannabis-extraction-agreement-with-gtec-holdings-300743672.html"},{"ID":800110003,"Actor1":"CANADA","Actor1_Country":"CAN","Actor2":"SCHOOL","Actor2_Country":null,"Code":43,"Class":1,"Action_Location":"Chilliwack, British Columbia, Canada","Lat":49.1667,"Long":-121.95,"Timestamp":20181105103000,"Source":"https:\/\/www.durhamregion.com\/news-story\/8997863-one-of-canada-s-youngest-female-school-board-trustees-is-right-here-in-durham\/"},{"ID":800110004,"Actor1":"CANADA","Actor1_Country":"CAN","Actor2":"SCHOOL","Actor2_Country":null,"Code":43,"Class":1,"Action_Location":"Chilliwack, British Columbia, Canada","Lat":49.1667,"Long":-121.95,"Timestamp":20181105103000,"Source":"https:\/\/www.durhamregion.com\/news-story\/8997863-one-of-canada-s-youngest-female-school-board-trustees-is-right-here-in-durham\/"},{"ID":800110005,"Actor1":"CANADA","Actor1_Country":"CAN","Actor2":"HEALTH CARE PROVIDER","Actor2_Country":null,"Code":20,"Class":1,"Action_Location":"Calgary, Alberta, Canada","Lat":51.0833,"Long":-114.083,"Timestamp":20181105103000,"Source":"https:\/\/www.cbc.ca\/news\/health\/adults-needle-fear-phobia-flu-season-1.4879098"},{"ID":800110006,"Actor1":"ONTARIO","Actor1_Country":"CAN","Actor2":"JORDAN","Actor2_Country":"JOR","Code":20,"Class":1,"Action_Location":"Quebec, Quebec, Canada","Lat":47.5,"Long":-72.0,"Timestamp":20181105103000,"Source":"https:\/\/www.crisismagazine.com\/2018\/gender-ideologues-threaten-albertas-christian-schools"},{"ID":800110007,"Actor1":"CANADA","Actor1_Country":"CAN","Actor2":"SENEGAL","Actor2_Country":"SEN","Code":51,"Class":1,"Action_Location":"Senegal","Lat":14.0,"Long":-14.0,"Timestamp":20181105103000,"Source":"https:\/\/appablog.wordpress.com\/2018\/11\/05\/msd-congratulates-senegal-on-the-successful-launch-of-its-national-immunisation-programme-for-human-papillomavirus-hpv\/"},{"ID":800110008,"Actor1":"CANADA","Actor1_Country":"CAN","Actor2":"SENEGAL","Actor2_Country":"SEN","Code":51,"Class":1,"Action_Location":"Canada","Lat":60.0,"Long":-96.0,"Timestamp":20181105103000,"Source":"https:\/\/appablog.wordpress.com\/2018\/11\/05\/msd-congratulates-senegal-on-the-successful-launch-of-its-national-immunisation-programme-for-human-papillomavirus-hpv\/"},{"ID":800110010,"Actor1":"TORONTO","Actor1_Country":"CAN","Actor2":"CANADA","Actor2_Country":"CAN","Code":60,"Class":2,"Action_Location":"Toronto, Ontario, Canada","Lat":43.6667,"Long":-79.4167,"Timestamp":20181105103000,"Source":"https:\/\/www.khaleejtimes.com\/dnata-doubles-operations-in-canada"},{"ID":800110013,"Actor1":"ALBERTA","Actor1_Country":"CAN","Actor2":"CHRISTIAN","Actor2_Country":null,"Code":180,"Class":4,"Action_Location":"Prairie Provinces, Saskatchewan, Canada","Lat":55.0,"Long":-105.0,"Timestamp":20181105103000,"Source":"https:\/\/www.crisismagazine.com\/2018\/gender-ideologues-threaten-albertas-christian-schools"},{"ID":800110015,"Actor1":"BALE","Actor1_Country":"CHE","Actor2":"INVESTOR","Actor2_Country":null,"Code":12,"Class":1,"Action_Location":"Brisbane, Queensland, Australia","Lat":-27.5,"Long":153.017,"Timestamp":20181105103000,"Source":"https:\/\/www.afr.com\/business\/banking-and-finance\/hedge-funds\/corporate-travel-shares-down-as-investors-anticipates-vgi-response-20181105-h17ivn"},{"ID":800110016,"Actor1":"GENEVA","Actor1_Country":"CHE","Actor2":"SWITZERLAND","Actor2_Country":"CHE","Code":43,"Class":1,"Action_Location":"Geneva, Gen\u00e8, Switzerland","Lat":46.1956,"Long":6.14811,"Timestamp":20181105103000,"Source":"https:\/\/allafrica.com\/stories\/201811050407.html"},{"ID":800110017,"Actor1":"SWITZERLAND","Actor1_Country":"CHE","Actor2":"UNITED NATIONS","Actor2_Country":null,"Code":13,"Class":1,"Action_Location":"Geneva, Gen\u00e8, Switzerland","Lat":46.1956,"Long":6.14811,"Timestamp":20181105103000,"Source":"https:\/\/allafrica.com\/stories\/201811050407.html"},{"ID":800110018,"Actor1":"SWITZERLAND","Actor1_Country":"CHE","Actor2":"CITIGROUP","Actor2_Country":"USA","Code":46,"Class":1,"Action_Location":"Frankfurt, Brandenburg, Germany","Lat":52.35,"Long":14.55,"Timestamp":20181105103000,"Source":"https:\/\/www.businesswire.com\/news\/home\/20181105005259\/en\/Houlihan-Lokey-Continues-Expansion-Global-Industrials-Group"},{"ID":800110019,"Actor1":"SWITZERLAND","Actor1_Country":"CHE","Actor2":"CITIGROUP","Actor2_Country":"USA","Code":46,"Class":1,"Action_Location":"Frankfurt, Brandenburg, Germany","Lat":52.35,"Long":14.55,"Timestamp":20181105103000,"Source":"https:\/\/www.businesswire.com\/news\/home\/20181105005259\/en\/Houlihan-Lokey-Continues-Expansion-Global-Industrials-Group"},{"ID":800110020,"Actor1":"SWITZERLAND","Actor1_Country":"CHE","Actor2":"GENEVA","Actor2_Country":"CHE","Code":42,"Class":1,"Action_Location":"Geneva, Gen\u00e8, Switzerland","Lat":46.1956,"Long":6.14811,"Timestamp":20181105103000,"Source":"https:\/\/allafrica.com\/stories\/201811050407.html"},{"ID":800110028,"Actor1":"CHINA","Actor1_Country":"CHN","Actor2":"AUSTRALIAN","Actor2_Country":"AUS","Code":36,"Class":1,"Action_Location":"Canberra, Australian Capital Territory, Australia","Lat":-35.2833,"Long":149.217,"Timestamp":20181105103000,"Source":"https:\/\/www.afr.com\/news\/world\/asia\/marise-payne-to-visit-china-on-thursday-first-ministerial-visit-in-18-months-20181105-h17jfc"},{"ID":800110029,"Actor1":"CHINESE","Actor1_Country":"CHN","Actor2":"AUSTRALIAN","Actor2_Country":"AUS","Code":36,"Class":1,"Action_Location":"Canberra, Australian Capital Territory, Australia","Lat":-35.2833,"Long":149.217,"Timestamp":20181105103000,"Source":"https:\/\/www.afr.com\/news\/world\/asia\/marise-payne-to-visit-china-on-thursday-first-ministerial-visit-in-18-months-20181105-h17jfc"},{"ID":800110030,"Actor1":"CHINESE","Actor1_Country":"CHN","Actor2":"AUSTRALIAN","Actor2_Country":"AUS","Code":36,"Class":1,"Action_Location":"Beijing, Beijing, China","Lat":39.9289,"Long":116.388,"Timestamp":20181105103000,"Source":"https:\/\/www.afr.com\/news\/world\/asia\/marise-payne-to-visit-china-on-thursday-first-ministerial-visit-in-18-months-20181105-h17jfc"},{"ID":800110031,"Actor1":"CHINESE","Actor1_Country":"CHN","Actor2":"AUSTRALIAN","Actor2_Country":"AUS","Code":36,"Class":1,"Action_Location":"Shanghai, Shanghai, China","Lat":31.2222,"Long":121.458,"Timestamp":20181105103000,"Source":"https:\/\/www.afr.com\/news\/world\/asia\/marise-payne-to-visit-china-on-thursday-first-ministerial-visit-in-18-months-20181105-h17jfc"},{"ID":800110032,"Actor1":"CHINESE","Actor1_Country":"CHN","Actor2":"AUSTRALIAN","Actor2_Country":"AUS","Code":36,"Class":1,"Action_Location":"Shanghai, Shanghai, China","Lat":31.2222,"Long":121.458,"Timestamp":20181105103000,"Source":"https:\/\/www.afr.com\/news\/world\/asia\/marise-payne-to-visit-china-on-thursday-first-ministerial-visit-in-18-months-20181105-h17jfc"},{"ID":800110033,"Actor1":"CHINA","Actor1_Country":"CHN","Actor2":"AUSTRALIAN","Actor2_Country":"AUS","Code":40,"Class":1,"Action_Location":"Canberra, Australian Capital Territory, Australia","Lat":-35.2833,"Long":149.217,"Timestamp":20181105103000,"Source":"https:\/\/www.afr.com\/news\/world\/asia\/marise-payne-to-visit-china-on-thursday-first-ministerial-visit-in-18-months-20181105-h17jfc"},{"ID":800110034,"Actor1":"CHINA","Actor1_Country":"CHN","Actor2":"AUSTRALIAN","Actor2_Country":"AUS","Code":43,"Class":1,"Action_Location":"Shanghai, Shanghai, China","Lat":31.2222,"Long":121.458,"Timestamp":20181105103000,"Source":"https:\/\/www.afr.com\/news\/world\/asia\/marise-payne-to-visit-china-on-thursday-first-ministerial-visit-in-18-months-20181105-h17jfc"},{"ID":800110035,"Actor1":"CHINA","Actor1_Country":"CHN","Actor2":"AUSTRALIAN","Actor2_Country":"AUS","Code":43,"Class":1,"Action_Location":"Shanghai, Shanghai, China","Lat":31.2222,"Long":121.458,"Timestamp":20181105103000,"Source":"https:\/\/www.afr.com\/news\/world\/asia\/marise-payne-to-visit-china-on-thursday-first-ministerial-visit-in-18-months-20181105-h17jfc"},{"ID":800110036,"Actor1":"CANTON","Actor1_Country":"CHN","Actor2":"AUSTRALIA","Actor2_Country":"AUS","Code":61,"Class":2,"Action_Location":"China","Lat":35.0,"Long":105.0,"Timestamp":20181105103000,"Source":"http:\/\/www.nampa.org\/index.php?model=categories&function=display&id=18449728"},{"ID":800110037,"Actor1":"CHINESE","Actor1_Country":"CHN","Actor2":"AUSTRALIAN","Actor2_Country":"AUS","Code":36,"Class":1,"Action_Location":"Canberra, Australian Capital Territory, Australia","Lat":-35.2833,"Long":149.217,"Timestamp":20181105103000,"Source":"https:\/\/www.afr.com\/news\/world\/asia\/marise-payne-to-visit-china-on-thursday-first-ministerial-visit-in-18-months-20181105-h17jfc"},{"ID":800110038,"Actor1":"CHINA","Actor1_Country":"CHN","Actor2":"AUSTRALIAN","Actor2_Country":"AUS","Code":36,"Class":1,"Action_Location":"Beijing, Beijing, China","Lat":39.9289,"Long":116.388,"Timestamp":20181105103000,"Source":"https:\/\/www.afr.com\/news\/world\/asia\/marise-payne-to-visit-china-on-thursday-first-ministerial-visit-in-18-months-20181105-h17jfc"},{"ID":800110039,"Actor1":"CHINESE","Actor1_Country":"CHN","Actor2":"AUSTRALIAN","Actor2_Country":"AUS","Code":36,"Class":1,"Action_Location":"Canberra, Australian Capital Territory, Australia","Lat":-35.2833,"Long":149.217,"Timestamp":20181105103000,"Source":"https:\/\/www.afr.com\/news\/world\/asia\/marise-payne-to-visit-china-on-thursday-first-ministerial-visit-in-18-months-20181105-h17jfc"},{"ID":800110040,"Actor1":"CHINESE","Actor1_Country":"CHN","Actor2":"AUSTRALIAN","Actor2_Country":"AUS","Code":43,"Class":1,"Action_Location":"Shanghai, Shanghai, China","Lat":31.2222,"Long":121.458,"Timestamp":20181105103000,"Source":"https:\/\/www.afr.com\/news\/world\/asia\/marise-payne-to-visit-china-on-thursday-first-ministerial-visit-in-18-months-20181105-h17jfc"},{"ID":800110041,"Actor1":"CHINA","Actor1_Country":"CHN","Actor2":"BRAZIL","Actor2_Country":"BRA","Code":61,"Class":2,"Action_Location":"Brazil","Lat":-10.0,"Long":-55.0,"Timestamp":20181105103000,"Source":"https:\/\/www.nytimes.com\/2018\/11\/05\/business\/soybeans-farmers-trade-war.html"},{"ID":800110042,"Actor1":"CHINA","Actor1_Country":"CHN","Actor2":"BRAZIL","Actor2_Country":"BRA","Code":61,"Class":2,"Action_Location":"Ukraine","Lat":49.0,"Long":32.0,"Timestamp":20181105103000,"Source":"https:\/\/www.nytimes.com\/2018\/11\/05\/business\/soybeans-farmers-trade-war.html"},{"ID":800110043,"Actor1":"CHINA","Actor1_Country":"CHN","Actor2":"PRODUCER","Actor2_Country":null,"Code":51,"Class":1,"Action_Location":"Nairobi, Nairobi Area, Kenya","Lat":-1.28333,"Long":36.8167,"Timestamp":20181105103000,"Source":"http:\/\/www.coastweek.com\/4144-Chinese-firm-launches-beverages-in-Kenyan-market.htm"},{"ID":800110044,"Actor1":"CHINA","Actor1_Country":"CHN","Actor2":"PRODUCER","Actor2_Country":null,"Code":51,"Class":1,"Action_Location":"Nairobi, Nairobi Area, Kenya","Lat":-1.28333,"Long":36.8167,"Timestamp":20181105103000,"Source":"http:\/\/www.coastweek.com\/4144-Chinese-firm-launches-beverages-in-Kenyan-market.htm"},{"ID":800110045,"Actor1":"CHINA","Actor1_Country":"CHN","Actor2":"PRODUCER","Actor2_Country":null,"Code":51,"Class":1,"Action_Location":"Langjiu, Hainan, China","Lat":19.1218,"Long":109.355,"Timestamp":20181105103000,"Source":"http:\/\/www.coastweek.com\/4144-Chinese-firm-launches-beverages-in-Kenyan-market.htm"},{"ID":800110046,"Actor1":"CHINESE","Actor1_Country":"CHN","Actor2":"PRODUCER","Actor2_Country":null,"Code":61,"Class":2,"Action_Location":"Shenzhen, Guangdong, China","Lat":22.2,"Long":111.117,"Timestamp":20181105103000,"Source":"https:\/\/www.reuters.com\/article\/us-china-economy-exports\/export-orders-to-u-s-down-a-third-at-chinas-largest-trade-fair-idUSKCN1NA0HL"},{"ID":800110047,"Actor1":"CHINA","Actor1_Country":"CHN","Actor2":"PRESIDENT","Actor2_Country":null,"Code":20,"Class":1,"Action_Location":"Shanghai, Shanghai, China","Lat":31.2222,"Long":121.458,"Timestamp":20181105103000,"Source":"https:\/\/africabusinesscommunities.com\/news\/kenya-asks-china-to-give-preferential-treatment-for-african-goods\/"},{"ID":800110048,"Actor1":"CHINA","Actor1_Country":"CHN","Actor2":"GOVERNMENT","Actor2_Country":null,"Code":51,"Class":1,"Action_Location":"Beijing, Beijing, China","Lat":39.9289,"Long":116.388,"Timestamp":20181105103000,"Source":"https:\/\/www.afr.com\/news\/world\/asia\/marise-payne-to-visit-china-on-thursday-first-ministerial-visit-in-18-months-20181105-h17jfc"},{"ID":800110049,"Actor1":"CHINA","Actor1_Country":"CHN","Actor2":"GOVERNMENT","Actor2_Country":null,"Code":51,"Class":1,"Action_Location":"Singapore","Lat":1.366667,"Long":103.8,"Timestamp":20181105103000,"Source":"https:\/\/www.afr.com\/news\/world\/asia\/marise-payne-to-visit-china-on-thursday-first-ministerial-visit-in-18-months-20181105-h17jfc"},{"ID":800110050,"Actor1":"BEIJING","Actor1_Country":"CHN","Actor2":"IRAN","Actor2_Country":"IRN","Code":12,"Class":1,"Action_Location":"Beijing, Beijing, China","Lat":39.9289,"Long":116.388,"Timestamp":20181105103000,"Source":"https:\/\/www.japantimes.co.jp\/?post_type=opinion&p=1564373"},{"ID":800110051,"Actor1":"BEIJING","Actor1_Country":"CHN","Actor2":"IRAN","Actor2_Country":"IRN","Code":12,"Class":1,"Action_Location":"Beijing, Beijing, China","Lat":39.9289,"Long":116.388,"Timestamp":20181105103000,"Source":"https:\/\/www.japantimes.co.jp\/?post_type=opinion&p=1564373"},{"ID":800110052,"Actor1":"CHINA","Actor1_Country":"CHN","Actor2":"IRAN","Actor2_Country":"IRN","Code":874,"Class":2,"Action_Location":"Beijing, Beijing, China","Lat":39.9289,"Long":116.388,"Timestamp":20181105103000,"Source":"https:\/\/www.msn.com\/en-us\/finance\/news\/china-to-continue-iran-trade-despite-new-us-sanctions\/ar-BBPmewq"},{"ID":800110053,"Actor1":"BEIJING","Actor1_Country":"CHN","Actor2":"IRAN","Actor2_Country":"IRN","Code":163,"Class":4,"Action_Location":"Beijing, Beijing, China","Lat":39.9289,"Long":116.388,"Timestamp":20181105103000,"Source":"https:\/\/www.japantimes.co.jp\/?post_type=opinion&p=1564373"},{"ID":800110054,"Actor1":"BEIJING","Actor1_Country":"CHN","Actor2":"IRAN","Actor2_Country":"IRN","Code":163,"Class":4,"Action_Location":"Beijing, Beijing, China","Lat":39.9289,"Long":116.388,"Timestamp":20181105103000,"Source":"https:\/\/www.japantimes.co.jp\/?post_type=opinion&p=1564373"},{"ID":800110055,"Actor1":"CHINA","Actor1_Country":"CHN","Actor2":"RUSSIA","Actor2_Country":"RUS","Code":874,"Class":2,"Action_Location":"Beijing, Beijing, China","Lat":39.9289,"Long":116.388,"Timestamp":20181105103000,"Source":"https:\/\/www.msn.com\/en-us\/finance\/news\/china-to-continue-iran-trade-despite-new-us-sanctions\/ar-BBPmewq"},{"ID":800110056,"Actor1":"CHINA","Actor1_Country":"CHN","Actor2":"SINGAPORE","Actor2_Country":"SGP","Code":36,"Class":1,"Action_Location":"Beijing, Beijing, China","Lat":39.9289,"Long":116.388,"Timestamp":20181105103000,"Source":"https:\/\/www.afr.com\/news\/world\/asia\/marise-payne-to-visit-china-on-thursday-first-ministerial-visit-in-18-months-20181105-h17jfc"},{"ID":800110057,"Actor1":"CHINA","Actor1_Country":"CHN","Actor2":"SINGAPORE","Actor2_Country":"SGP","Code":36,"Class":1,"Action_Location":"Beijing, Beijing, China","Lat":39.9289,"Long":116.388,"Timestamp":20181105103000,"Source":"https:\/\/www.afr.com\/news\/world\/asia\/marise-payne-to-visit-china-on-thursday-first-ministerial-visit-in-18-months-20181105-h17jfc"},{"ID":800110058,"Actor1":"CHINA","Actor1_Country":"CHN","Actor2":"UNITED STATES","Actor2_Country":"USA","Code":30,"Class":1,"Action_Location":"North Dakota, United States","Lat":47.5362,"Long":-99.793,"Timestamp":20181105103000,"Source":"https:\/\/www.nytimes.com\/2018\/11\/05\/business\/soybeans-farmers-trade-war.html"},{"ID":800110059,"Actor1":"CHINA","Actor1_Country":"CHN","Actor2":"UNITED STATES","Actor2_Country":"USA","Code":30,"Class":1,"Action_Location":"North Dakota, United States","Lat":47.5362,"Long":-99.793,"Timestamp":20181105103000,"Source":"https:\/\/www.nytimes.com\/2018\/11\/05\/business\/soybeans-farmers-trade-war.html"},{"ID":800110060,"Actor1":"CHINA","Actor1_Country":"CHN","Actor2":"UNITED STATES","Actor2_Country":"USA","Code":30,"Class":1,"Action_Location":"Shanghai, Shanghai, China","Lat":31.2222,"Long":121.458,"Timestamp":20181105103000,"Source":"https:\/\/www.nytimes.com\/2018\/11\/05\/business\/soybeans-farmers-trade-war.html"},{"ID":800110061,"Actor1":"BEIJING","Actor1_Country":"CHN","Actor2":"WASHINGTON","Actor2_Country":"USA","Code":50,"Class":1,"Action_Location":"South China Sea, Brunei (general), Brunei","Lat":15.0,"Long":115.0,"Timestamp":20181105103000,"Source":"https:\/\/www.afr.com\/news\/world\/asia\/marise-payne-to-visit-china-on-thursday-first-ministerial-visit-in-18-months-20181105-h17jfc"},{"ID":800110062,"Actor1":"BEIJING","Actor1_Country":"CHN","Actor2":"WASHINGTON","Actor2_Country":"USA","Code":50,"Class":1,"Action_Location":"Beijing, Beijing, China","Lat":39.9289,"Long":116.388,"Timestamp":20181105103000,"Source":"https:\/\/www.afr.com\/news\/world\/asia\/marise-payne-to-visit-china-on-thursday-first-ministerial-visit-in-18-months-20181105-h17jfc"},{"ID":800110063,"Actor1":"BEIJING","Actor1_Country":"CHN","Actor2":"WASHINGTON","Actor2_Country":"USA","Code":50,"Class":1,"Action_Location":"Washington, District of Columbia, United States","Lat":38.8951,"Long":-77.0364,"Timestamp":20181105103000,"Source":"https:\/\/www.afr.com\/news\/world\/asia\/marise-payne-to-visit-china-on-thursday-first-ministerial-visit-in-18-months-20181105-h17jfc"},{"ID":800110065,"Actor1":"CHINA","Actor1_Country":"CHN","Actor2":"AUSTRALIA","Actor2_Country":"AUS","Code":30,"Class":1,"Action_Location":"Beijing, Beijing, China","Lat":39.9289,"Long":116.388,"Timestamp":20181105103000,"Source":"https:\/\/www.afr.com\/news\/world\/asia\/marise-payne-to-visit-china-on-thursday-first-ministerial-visit-in-18-months-20181105-h17jfc"},{"ID":800110066,"Actor1":"CHINA","Actor1_Country":"CHN","Actor2":"CHINA","Actor2_Country":"CHN","Code":36,"Class":1,"Action_Location":"Canberra, Australian Capital Territory, Australia","Lat":-35.2833,"Long":149.217,"Timestamp":20181105103000,"Source":"https:\/\/www.afr.com\/news\/world\/asia\/marise-payne-to-visit-china-on-thursday-first-ministerial-visit-in-18-months-20181105-h17jfc"},{"ID":800110067,"Actor1":"CHINA","Actor1_Country":"CHN","Actor2":"SHANGHAI","Actor2_Country":"CHN","Code":46,"Class":1,"Action_Location":"Shanghai, Shanghai, China","Lat":31.2222,"Long":121.458,"Timestamp":20181105103000,"Source":"https:\/\/www.npr.org\/2018\/11\/05\/664280742\/expo-promotes-chinas-desire-to-attract-foreign-imports"},{"ID":800110069,"Actor1":"ANGLICAN","Actor1_Country":null,"Actor2":"MEDIA","Actor2_Country":null,"Code":40,"Class":1,"Action_Location":"Sydney, New South Wales, Australia","Lat":-33.8833,"Long":151.217,"Timestamp":20181105103000,"Source":"http:\/\/www.starobserver.com.au\/news\/national-news\/media-rhetoric-on-religious-freedom-creates-enduring-pain-for-lgbtiq-australians\/172976"},{"ID":800110073,"Actor1":"CATHOLICISM","Actor1_Country":null,"Actor2":"PROTESTANT","Actor2_Country":null,"Code":43,"Class":1,"Action_Location":"Mexico","Lat":23.0,"Long":-102.0,"Timestamp":20181105103000,"Source":"https:\/\/www.crisismagazine.com\/2018\/finding-true-meaning-in-the-modern-world-willa-cathers-death-comes-for-the-archbishop"},{"ID":800110074,"Actor1":"CATHOLICISM","Actor1_Country":null,"Actor2":"PROTESTANT","Actor2_Country":null,"Code":43,"Class":1,"Action_Location":"United States","Lat":39.828175,"Long":-98.5795,"Timestamp":20181105103000,"Source":"https:\/\/www.crisismagazine.com\/2018\/finding-true-meaning-in-the-modern-world-willa-cathers-death-comes-for-the-archbishop"},{"ID":800110075,"Actor1":"CATHOLIC","Actor1_Country":null,"Actor2":"UNITED STATES","Actor2_Country":"USA","Code":43,"Class":1,"Action_Location":"Mexico","Lat":23.0,"Long":-102.0,"Timestamp":20181105103000,"Source":"https:\/\/www.crisismagazine.com\/2018\/finding-true-meaning-in-the-modern-world-willa-cathers-death-comes-for-the-archbishop"},{"ID":800110077,"Actor1":"PROTESTANT","Actor1_Country":null,"Actor2":"CATHOLICISM","Actor2_Country":null,"Code":42,"Class":1,"Action_Location":"Mexico","Lat":23.0,"Long":-102.0,"Timestamp":20181105103000,"Source":"https:\/\/www.crisismagazine.com\/2018\/finding-true-meaning-in-the-modern-world-willa-cathers-death-comes-for-the-archbishop"},{"ID":800110078,"Actor1":"PROTESTANT","Actor1_Country":null,"Actor2":"CATHOLICISM","Actor2_Country":null,"Code":42,"Class":1,"Action_Location":"United States","Lat":39.828175,"Long":-98.5795,"Timestamp":20181105103000,"Source":"https:\/\/www.crisismagazine.com\/2018\/finding-true-meaning-in-the-modern-world-willa-cathers-death-comes-for-the-archbishop"},{"ID":800110079,"Actor1":"PROTESTANTISM","Actor1_Country":null,"Actor2":"AMERICAN","Actor2_Country":"USA","Code":175,"Class":4,"Action_Location":"United States","Lat":39.828175,"Long":-98.5795,"Timestamp":20181105103000,"Source":"https:\/\/www.crisismagazine.com\/2018\/finding-true-meaning-in-the-modern-world-willa-cathers-death-comes-for-the-archbishop"},{"ID":800110080,"Actor1":"PRESBYTERIAN","Actor1_Country":null,"Actor2":"UNITED STATES","Actor2_Country":"USA","Code":42,"Class":1,"Action_Location":"Roger Mills County, Oklahoma, United States","Lat":35.7,"Long":-99.7004,"Timestamp":20181105103000,"Source":"https:\/\/nondoc.com\/2018\/11\/05\/editorial-five-things-to-watch-on-oklahomas-election-day\/"},{"ID":800110081,"Actor1":"PRESBYTERIAN","Actor1_Country":null,"Actor2":"UNITED STATES","Actor2_Country":"USA","Code":42,"Class":1,"Action_Location":"Roger Mills County, Oklahoma, United States","Lat":35.7,"Long":-99.7004,"Timestamp":20181105103000,"Source":"https:\/\/nondoc.com\/2018\/11\/05\/editorial-five-things-to-watch-on-oklahomas-election-day\/"},{"ID":800110082,"Actor1":"COLOMBIA","Actor1_Country":"COL","Actor2":"ORGANIZED CRIME","Actor2_Country":null,"Code":43,"Class":1,"Action_Location":"Colombia","Lat":4.0,"Long":-72.0,"Timestamp":20181105103000,"Source":"https:\/\/www.ejiltalk.org\/reforming-land-restitution-a-concerted-effort-to-derail-colombias-transitional-justice-system\/comment-page-1\/"},{"ID":800110083,"Actor1":"COLOMBIA","Actor1_Country":"COL","Actor2":"POPULATION","Actor2_Country":null,"Code":43,"Class":1,"Action_Location":"Colombia","Lat":4.0,"Long":-72.0,"Timestamp":20181105103000,"Source":"https:\/\/www.ejiltalk.org\/reforming-land-restitution-a-concerted-effort-to-derail-colombias-transitional-justice-system\/comment-page-1\/"},{"ID":800110084,"Actor1":"COLOMBIA","Actor1_Country":"COL","Actor2":"GOVERNMENT","Actor2_Country":null,"Code":190,"Class":4,"Action_Location":"Colombia","Lat":4.0,"Long":-72.0,"Timestamp":20181105103000,"Source":"https:\/\/allafrica.com\/stories\/201811050327.html"},{"ID":800110085,"Actor1":"COLOMBIA","Actor1_Country":"COL","Actor2":"GOVERNMENT","Actor2_Country":null,"Code":190,"Class":4,"Action_Location":"Colombia","Lat":4.0,"Long":-72.0,"Timestamp":20181105103000,"Source":"https:\/\/allafrica.com\/stories\/201811050327.html"},{"ID":800110094,"Actor1":"POLICE OFFICER","Actor1_Country":null,"Actor2":"AFGHANISTAN","Actor2_Country":"AFG","Code":190,"Class":4,"Action_Location":"Kabul, Kabol, Afghanistan","Lat":34.5167,"Long":69.1833,"Timestamp":20181105103000,"Source":"http:\/\/newageislam.com\/current-affairs\/ajit-kumar-singh\/the-taliban-and-the-afghanistan-elections\/d\/116790"},{"ID":800110095,"Actor1":"POLICE OFFICER","Actor1_Country":null,"Actor2":"AFGHAN","Actor2_Country":"AFG","Code":190,"Class":4,"Action_Location":"Kabul, Kabol, Afghanistan","Lat":34.5167,"Long":69.1833,"Timestamp":20181105103000,"Source":"http:\/\/newageislam.com\/current-affairs\/ajit-kumar-singh\/the-taliban-and-the-afghanistan-elections\/d\/116790"},{"ID":800110096,"Actor1":"POLICE OFFICER","Actor1_Country":null,"Actor2":"AFRICA","Actor2_Country":"AFR","Code":43,"Class":1,"Action_Location":"Mafikeng, North-West, South Africa","Lat":-25.8652,"Long":25.6442,"Timestamp":20181105103000,"Source":"http:\/\/www.destinyman.com\/2018\/11\/05\/lerato-sengadi-claims-marital-home\/"},{"ID":800110097,"Actor1":"POLICE","Actor1_Country":null,"Actor2":"AFRICA","Actor2_Country":"AFR","Code":173,"Class":4,"Action_Location":"Soweto, Gauteng, South Africa","Lat":-26.2667,"Long":27.8667,"Timestamp":20181105103000,"Source":"https:\/\/allafrica.com\/stories\/201811050312.html"},{"ID":800110099,"Actor1":"POLICE","Actor1_Country":null,"Actor2":"CRIMINAL","Actor2_Country":null,"Code":112,"Class":3,"Action_Location":"London, London, City of, United Kingdom","Lat":51.5,"Long":-0.116667,"Timestamp":20181105103000,"Source":"https:\/\/www.bbc.co.uk\/news\/av\/uk-england-london-46077567\/the-london-charity-using-drill-music-to-connect-with-young-people"},{"ID":800110100,"Actor1":"POLICE","Actor1_Country":null,"Actor2":"DENMARK","Actor2_Country":"DNK","Code":174,"Class":4,"Action_Location":"Denmark","Lat":56.0,"Long":10.0,"Timestamp":20181105103000,"Source":"https:\/\/www.rferl.org\/a\/iran-blames-israel-for-alleged-denmark-murder-plot\/29583234.html"},{"ID":800110101,"Actor1":"DEPUTY","Actor1_Country":null,"Actor2":"UNITED KINGDOM","Actor2_Country":"GBR","Code":51,"Class":1,"Action_Location":"Kesteven, Lincolnshire, United Kingdom","Lat":52.95,"Long":-0.5,"Timestamp":20181105103000,"Source":"https:\/\/www.granthamjournal.co.uk\/news\/grantham-based-district-council-takes-lead-on-technology-9048226\/"},{"ID":800110102,"Actor1":"PRISON","Actor1_Country":null,"Actor2":"UNITED KINGDOM","Actor2_Country":"GBR","Code":84,"Class":2,"Action_Location":"West Yorkshire, United Kingdom (general), United Kingdom","Lat":53.7,"Long":-1.58333,"Timestamp":20181105103000,"Source":"https:\/\/metro.co.uk\/2018\/11\/05\/leader-of-britains-worst-child-grooming-gang-scarred-for-life-in-prison-attack-8105394\/"},{"ID":800110104,"Actor1":"POLICE OFFICER","Actor1_Country":null,"Actor2":"MINIST","Actor2_Country":null,"Code":40,"Class":1,"Action_Location":"United Kingdom","Lat":54.0,"Long":-4.0,"Timestamp":20181105103000,"Source":"https:\/\/timesofindia.indiatimes.com\/city\/bengaluru\/bjp-set-to-rev-up-opposition-to-tipu-jayanti\/articleshow\/66506760.cms"},{"ID":800110105,"Actor1":"POLICE OFFICER","Actor1_Country":null,"Actor2":"MINIST","Actor2_Country":null,"Code":46,"Class":1,"Action_Location":"United Kingdom","Lat":54.0,"Long":-4.0,"Timestamp":20181105103000,"Source":"https:\/\/timesofindia.indiatimes.com\/city\/bengaluru\/bjp-set-to-rev-up-opposition-to-tipu-jayanti\/articleshow\/66506760.cms"},{"ID":800110106,"Actor1":"POLICE","Actor1_Country":null,"Actor2":"GOVERNOR","Actor2_Country":null,"Code":190,"Class":4,"Action_Location":"San Diego, California, United States","Lat":32.7153,"Long":-117.157,"Timestamp":20181105103000,"Source":"https:\/\/www.10news.com\/news\/search-for-suspect-following-pursuit-in-university-city"},{"ID":800110107,"Actor1":"POLICE","Actor1_Country":null,"Actor2":"TOKYO","Actor2_Country":"JPN","Code":173,"Class":4,"Action_Location":"Yokohama, Kanagawa, Japan","Lat":35.45,"Long":139.65,"Timestamp":20181105103000,"Source":"https:\/\/www.tokyoreporter.com\/crime\/flashback-bust-of-prostitution-ring-run-out-of-manga-cafe\/"},{"ID":800110110,"Actor1":"POLICE","Actor1_Country":null,"Actor2":"NORWEGIAN","Actor2_Country":"NOR","Code":173,"Class":4,"Action_Location":"Israel","Lat":31.5,"Long":34.75,"Timestamp":20181105103000,"Source":"https:\/\/www.rferl.org\/a\/iran-blames-israel-for-alleged-denmark-murder-plot\/29583234.html"},{"ID":800110111,"Actor1":"POLICE OFFICER","Actor1_Country":null,"Actor2":"PAKISTAN","Actor2_Country":"PAK","Code":1712,"Class":4,"Action_Location":"Pakistan","Lat":30.0,"Long":70.0,"Timestamp":20181105103000,"Source":"https:\/\/www.rferl.org\/a\/twitter-suspends-account-rizvi-radical-cleric-for-threats-in-blasphemy-case\/29583204.html"},{"ID":800110112,"Actor1":"POLICE","Actor1_Country":null,"Actor2":"SOMALIA","Actor2_Country":"SOM","Code":193,"Class":4,"Action_Location":"Ohio State University, Ohio, United States","Lat":40.5792,"Long":-83.0902,"Timestamp":20181105103000,"Source":"http:\/\/www.hillaac.net\/somali-lawyer-urges-voters-to-show-we-are-a-nation-of-immigrants\/"},{"ID":800110113,"Actor1":"POLICE","Actor1_Country":null,"Actor2":"SOMALIA","Actor2_Country":"SOM","Code":193,"Class":4,"Action_Location":"Ohio State University, Ohio, United States","Lat":40.5792,"Long":-83.0902,"Timestamp":20181105103000,"Source":"http:\/\/www.hillaac.net\/somali-lawyer-urges-voters-to-show-we-are-a-nation-of-immigrants\/"},{"ID":800110114,"Actor1":"POLICE","Actor1_Country":null,"Actor2":"SOMALI","Actor2_Country":"SOM","Code":193,"Class":4,"Action_Location":"Ohio State University, Ohio, United States","Lat":40.5792,"Long":-83.0902,"Timestamp":20181105103000,"Source":"http:\/\/www.hillaac.net\/somali-lawyer-urges-voters-to-show-we-are-a-nation-of-immigrants\/"},{"ID":800110115,"Actor1":"POLICE","Actor1_Country":null,"Actor2":"UGANDA","Actor2_Country":"UGA","Code":90,"Class":2,"Action_Location":"Kampala, Kampala, Uganda","Lat":0.315556,"Long":32.5656,"Timestamp":20181105103000,"Source":"http:\/\/www.monitor.co.ug\/News\/National\/Five-run-after-dropping-piglets-Bank-of-Uganda\/688334-4837670-sgk36b\/"},{"ID":800110116,"Actor1":"POLICE","Actor1_Country":null,"Actor2":"UNITED STATES","Actor2_Country":"USA","Code":10,"Class":1,"Action_Location":"Washington, United States","Lat":47.3917,"Long":-121.571,"Timestamp":20181105103000,"Source":"https:\/\/mugshots.com\/Current-Events\/RYAN-BURGE.172354787.html"},{"ID":800110117,"Actor1":"POLICE","Actor1_Country":null,"Actor2":"UNITED STATES","Actor2_Country":"USA","Code":182,"Class":4,"Action_Location":"Washington, District of Columbia, United States","Lat":38.8951,"Long":-77.0364,"Timestamp":20181105103000,"Source":"https:\/\/www.washingtonpost.com\/nation\/2018\/11\/05\/i-wanted-him-feel-compassion-jewish-nurse-who-treated-synagogue-shooting-suspect-tells-his-story\/"},{"ID":800110120,"Actor1":"DEPUTY","Actor1_Country":null,"Actor2":"AFRICA","Actor2_Country":"AFR","Code":51,"Class":1,"Action_Location":"Brazil","Lat":-10.0,"Long":-55.0,"Timestamp":20181105103000,"Source":"https:\/\/allafrica.com\/stories\/201811050404.html"},{"ID":800110121,"Actor1":"DEPUTY","Actor1_Country":null,"Actor2":"BRAZIL","Actor2_Country":"BRA","Code":13,"Class":1,"Action_Location":"Brazil","Lat":-10.0,"Long":-55.0,"Timestamp":20181105103000,"Source":"https:\/\/allafrica.com\/stories\/201811050404.html"},{"ID":800110122,"Actor1":"DEPUTY","Actor1_Country":null,"Actor2":"BRAZIL","Actor2_Country":"BRA","Code":13,"Class":1,"Action_Location":"Brazil","Lat":-10.0,"Long":-55.0,"Timestamp":20181105103000,"Source":"https:\/\/allafrica.com\/stories\/201811050404.html"},{"ID":800110123,"Actor1":"DEPUTY","Actor1_Country":null,"Actor2":"DEPUTY","Actor2_Country":null,"Code":51,"Class":1,"Action_Location":"Kwazulu, Eastern Cape, South Africa","Lat":-31.2895,"Long":29.4551,"Timestamp":20181105103000,"Source":"https:\/\/www.iol.co.za\/travel\/south-africa\/kwazulu-natal\/how-sustainable-tourism-is-growing-in-kwazulu-natal-through-wowzulu-17776117"},{"ID":800110124,"Actor1":"DEPUTY","Actor1_Country":null,"Actor2":"BUREAUCRAT","Actor2_Country":null,"Code":173,"Class":4,"Action_Location":"Prairie Provinces, Saskatchewan, Canada","Lat":55.0,"Long":-105.0,"Timestamp":20181105103000,"Source":"https:\/\/www.crisismagazine.com\/2018\/gender-ideologues-threaten-albertas-christian-schools"},{"ID":800110129,"Actor1":"ORGANIZED CRIME","Actor1_Country":null,"Actor2":"COLOMBIA","Actor2_Country":"COL","Code":42,"Class":1,"Action_Location":"Colombia","Lat":4.0,"Long":-72.0,"Timestamp":20181105103000,"Source":"https:\/\/www.ejiltalk.org\/reforming-land-restitution-a-concerted-effort-to-derail-colombias-transitional-justice-system\/comment-page-1\/"},{"ID":800110130,"Actor1":"ORGANIZED CRIME","Actor1_Country":null,"Actor2":"COLOMBIA","Actor2_Country":"COL","Code":186,"Class":4,"Action_Location":"Colombia","Lat":4.0,"Long":-72.0,"Timestamp":20181105103000,"Source":"https:\/\/www.ejiltalk.org\/reforming-land-restitution-a-concerted-effort-to-derail-colombias-transitional-justice-system\/comment-page-1\/"},{"ID":800110131,"Actor1":"GANG","Actor1_Country":null,"Actor2":"UNITED KINGDOM","Actor2_Country":"GBR","Code":173,"Class":4,"Action_Location":"West Yorkshire, United Kingdom (general), United Kingdom","Lat":53.7,"Long":-1.58333,"Timestamp":20181105103000,"Source":"https:\/\/metro.co.uk\/2018\/11\/05\/leader-of-britains-worst-child-grooming-gang-scarred-for-life-in-prison-attack-8105394\/"},{"ID":800110132,"Actor1":"FELON","Actor1_Country":null,"Actor2":"DEVELOPMENT COUNCIL","Actor2_Country":null,"Code":1123,"Class":3,"Action_Location":"Hong Kong","Lat":22.25,"Long":114.166667,"Timestamp":20181105103000,"Source":"https:\/\/coconuts.co\/hongkong\/news\/my-secretary-does-it-billionaire-son-and-youth-policy-adviser-admits-he-doesnt-know-minimum-top-up-amount-for-octopus-cards\/"},{"ID":800110135,"Actor1":"ASSAILANT","Actor1_Country":null,"Actor2":"SYRIA","Actor2_Country":"SYR","Code":186,"Class":4,"Action_Location":"Raqqa, Ar Raqqah, Syria","Lat":35.95,"Long":39.0167,"Timestamp":20181105103000,"Source":"http:\/\/www.islamicinvitationturkey.com\/2018\/11\/05\/tribes-of-raqqa-deir-ezzor-call-on-fellow-arabs-to-fight-us-backed-forces\/"},{"ID":800110136,"Actor1":"CRIMINAL","Actor1_Country":null,"Actor2":"THE US","Actor2_Country":"USA","Code":12,"Class":1,"Action_Location":"Moscow, Moskva, Russia","Lat":55.7522,"Long":37.6156,"Timestamp":20181105103000,"Source":"https:\/\/www.opendemocracy.net\/od-russia\/marcin-wyrwal-malgorzata-zmudka\/tumso-abdurakhmanov"},{"ID":800110138,"Actor1":"CUBA","Actor1_Country":"CUB","Actor2":"MIGRANT","Actor2_Country":null,"Code":12,"Class":1,"Action_Location":"White House, District of Columbia, United States","Lat":38.8951,"Long":-77.0364,"Timestamp":20181105103000,"Source":"https:\/\/www.necn.com\/news\/national-international\/Trump-Asylum-Shutdown-499592291.html"},{"ID":800110139,"Actor1":"CUBA","Actor1_Country":"CUB","Actor2":"EUROPE","Actor2_Country":"EUR","Code":173,"Class":4,"Action_Location":"Havana, Ciudad de La Habana, Cuba","Lat":23.1319,"Long":-82.3642,"Timestamp":20181105103000,"Source":"https:\/\/www.aceshowbiz.com\/news\/view\/00128328.html"},{"ID":800110140,"Actor1":"CUBA","Actor1_Country":"CUB","Actor2":"EUROPE","Actor2_Country":"EUR","Code":173,"Class":4,"Action_Location":"Spain","Lat":40.0,"Long":-4.0,"Timestamp":20181105103000,"Source":"https:\/\/www.aceshowbiz.com\/news\/view\/00128328.html"},{"ID":800110161,"Actor1":"SETTLEMENT","Actor1_Country":null,"Actor2":"COMPANY","Actor2_Country":null,"Code":40,"Class":1,"Action_Location":"Australia","Lat":-25.0,"Long":135.0,"Timestamp":20181105103000,"Source":"https:\/\/www.afr.com\/street-talk\/pexa-ipo-unsuccessful-link-poised-to-sign-deal-20181105-h17ieh"},{"ID":800110162,"Actor1":"COMMUNITY","Actor1_Country":null,"Actor2":"CEOS","Actor2_Country":null,"Code":42,"Class":1,"Action_Location":"White Hall, West Virginia, United States","Lat":39.4212,"Long":-80.1826,"Timestamp":20181105103000,"Source":"https:\/\/www.timeswv.com\/community\/white-hall-column-improved-attendance-educational-events-highlight-november\/article_3af3df92-e0b2-11e8-be05-8b50ba635606.html"},{"ID":800110163,"Actor1":"COMMUNITY","Actor1_Country":null,"Actor2":"CEOS","Actor2_Country":null,"Code":42,"Class":1,"Action_Location":"West Virginia, United States","Lat":38.468,"Long":-80.9696,"Timestamp":20181105103000,"Source":"https:\/\/www.timeswv.com\/community\/white-hall-column-improved-attendance-educational-events-highlight-november\/article_3af3df92-e0b2-11e8-be05-8b50ba635606.html"},{"ID":800110164,"Actor1":"RESIDENTS","Actor1_Country":null,"Actor2":"BUSINESS","Actor2_Country":null,"Code":51,"Class":1,"Action_Location":"Rhode Island, United States","Lat":41.6772,"Long":-71.5101,"Timestamp":20181105103000,"Source":"https:\/\/pbn.com\/leonard-hair-transplant-associates-opens-warwick-location\/"},{"ID":800110165,"Actor1":"POPULATION","Actor1_Country":null,"Actor2":"COLOMBIA","Actor2_Country":"COL","Code":42,"Class":1,"Action_Location":"Colombia","Lat":4.0,"Long":-72.0,"Timestamp":20181105103000,"Source":"https:\/\/www.ejiltalk.org\/reforming-land-restitution-a-concerted-effort-to-derail-colombias-transitional-justice-system\/comment-page-1\/"},{"ID":800110166,"Actor1":"RESIDENTS","Actor1_Country":null,"Actor2":"SCHOOL","Actor2_Country":null,"Code":14,"Class":1,"Action_Location":"Burlington, Washington, United States","Lat":48.4757,"Long":-122.325,"Timestamp":20181105103000,"Source":"https:\/\/www.courierpostonline.com\/story\/news\/local\/south-jersey\/2018\/11\/05\/ballot-questions-camden-mount-ephraim-stratford-palmyra-south-harrison\/1889185002\/"},{"ID":800110167,"Actor1":"RESIDENTS","Actor1_Country":null,"Actor2":"SCHOOL","Actor2_Country":null,"Code":14,"Class":1,"Action_Location":"Jersey","Lat":49.216667,"Long":-2.116667,"Timestamp":20181105103000,"Source":"https:\/\/www.courierpostonline.com\/story\/news\/local\/south-jersey\/2018\/11\/05\/ballot-questions-camden-mount-ephraim-stratford-palmyra-south-harrison\/1889185002\/"},{"ID":800110168,"Actor1":"RESIDENTS","Actor1_Country":null,"Actor2":"SCHOOL","Actor2_Country":null,"Code":20,"Class":1,"Action_Location":"Roma, Lazio, Italy","Lat":41.9,"Long":12.4833,"Timestamp":20181105103000,"Source":"https:\/\/www.thedailybeast.com\/italys-fascist-nationalism-is-sheer-madness-but-dont-think-americas-immune"},{"ID":800110169,"Actor1":"RESIDENTS","Actor1_Country":null,"Actor2":"SCHOOL","Actor2_Country":null,"Code":231,"Class":1,"Action_Location":"Roma, Lazio, Italy","Lat":41.9,"Long":12.4833,"Timestamp":20181105103000,"Source":"https:\/\/www.thedailybeast.com\/italys-fascist-nationalism-is-sheer-madness-but-dont-think-americas-immune"},{"ID":800110170,"Actor1":"COMMUNITY","Actor1_Country":null,"Actor2":"SCHOOL","Actor2_Country":null,"Code":36,"Class":1,"Action_Location":"White Hall, West Virginia, United States","Lat":39.4212,"Long":-80.1826,"Timestamp":20181105103000,"Source":"https:\/\/www.timeswv.com\/community\/white-hall-column-improved-attendance-educational-events-highlight-november\/article_3af3df92-e0b2-11e8-be05-8b50ba635606.html"},{"ID":800110171,"Actor1":"COMMUNITY","Actor1_Country":null,"Actor2":"SCHOOL","Actor2_Country":null,"Code":42,"Class":1,"Action_Location":"White Hall, West Virginia, United States","Lat":39.4212,"Long":-80.1826,"Timestamp":20181105103000,"Source":"https:\/\/www.timeswv.com\/community\/white-hall-column-improved-attendance-educational-events-highlight-november\/article_3af3df92-e0b2-11e8-be05-8b50ba635606.html"},{"ID":800110172,"Actor1":"COMMUNITY","Actor1_Country":null,"Actor2":"SCHOOL","Actor2_Country":null,"Code":42,"Class":1,"Action_Location":"West Virginia, United States","Lat":38.468,"Long":-80.9696,"Timestamp":20181105103000,"Source":"https:\/\/www.timeswv.com\/community\/white-hall-column-improved-attendance-educational-events-highlight-november\/article_3af3df92-e0b2-11e8-be05-8b50ba635606.html"},{"ID":800110174,"Actor1":"MIGRANT","Actor1_Country":null,"Actor2":"PRESIDENT","Actor2_Country":null,"Code":86,"Class":2,"Action_Location":"Virginia, United States","Lat":37.768,"Long":-78.2057,"Timestamp":20181105103000,"Source":"https:\/\/www.thedailybeast.com\/dave-brat-should-be-winning-big-but-this-cia-vet-is-giving-him-the-run-of-his-life"},{"ID":800110175,"Actor1":"POPULATION","Actor1_Country":null,"Actor2":"SULAWESI","Actor2_Country":"IDN","Code":110,"Class":3,"Action_Location":"Dublin, Dublin, Ireland","Lat":53.3331,"Long":-6.24889,"Timestamp":20181105103000,"Source":"https:\/\/www.bou.org.uk\/blog-oconnell-todiramphus-kingfisher-evolution\/"},{"ID":800110176,"Actor1":"MINORITIES","Actor1_Country":null,"Actor2":"THE UN","Actor2_Country":null,"Code":42,"Class":1,"Action_Location":"Delhi, Delhi, India","Lat":28.6667,"Long":77.2167,"Timestamp":20181105103000,"Source":"https:\/\/www.thecitizen.in\/index.php\/en\/NewsDetail\/index\/2\/15454\/Call-for-UN-Probe-into-1984-Riots-as-Mainstream-Parties-Play-Politics"},{"ID":800110177,"Actor1":"MINORITIES","Actor1_Country":null,"Actor2":"THE UN","Actor2_Country":null,"Code":42,"Class":1,"Action_Location":"Delhi, Delhi, India","Lat":28.6667,"Long":77.2167,"Timestamp":20181105103000,"Source":"https:\/\/www.thecitizen.in\/index.php\/en\/NewsDetail\/index\/2\/15454\/Call-for-UN-Probe-into-1984-Riots-as-Mainstream-Parties-Play-Politics"},{"ID":800110178,"Actor1":"MIGRANT","Actor1_Country":null,"Actor2":"ITALY","Actor2_Country":"ITA","Code":42,"Class":1,"Action_Location":"Bizerte, Banzart, Tunisia","Lat":37.2744,"Long":9.87391,"Timestamp":20181105103000,"Source":"https:\/\/www.newstimes.com\/news\/world\/article\/AP-finds-almost-4-900-migrants-headed-to-Europe-13353508.php"},{"ID":800110179,"Actor1":"COMMUNITY","Actor1_Country":null,"Actor2":"ADVOCATE","Actor2_Country":null,"Code":190,"Class":4,"Action_Location":"Sydney, New South Wales, Australia","Lat":-33.8833,"Long":151.217,"Timestamp":20181105103000,"Source":"http:\/\/www.starobserver.com.au\/news\/national-news\/media-rhetoric-on-religious-freedom-creates-enduring-pain-for-lgbtiq-australians\/172976"},{"ID":800110181,"Actor1":"MIGRANT","Actor1_Country":null,"Actor2":"VERACRUZ","Actor2_Country":"MEX","Code":70,"Class":2,"Action_Location":"United States","Lat":39.828175,"Long":-98.5795,"Timestamp":20181105103000,"Source":"https:\/\/www.pressandjournal.co.uk\/news\/world\/1602126\/migrants-hobbled-by-blisters-as-caravan-continues-towards-us-border\/"},{"ID":800110182,"Actor1":"CITIZEN","Actor1_Country":null,"Actor2":"POLITICIAN","Actor2_Country":null,"Code":40,"Class":1,"Action_Location":"United States","Lat":39.828175,"Long":-98.5795,"Timestamp":20181105103000,"Source":"https:\/\/blog.oup.com\/2018\/11\/personalisation-of-politics-benefits-for-democracy\/"},{"ID":800110184,"Actor1":"VOTER","Actor1_Country":null,"Actor2":"UNITED STATES","Actor2_Country":"USA","Code":10,"Class":1,"Action_Location":"Houston, Texas, United States","Lat":29.7633,"Long":-95.3633,"Timestamp":20181105103000,"Source":"http:\/\/en.rfi.fr\/americas\/20181105-texas-democrats-struggle-mobilise-voters-key-orourke-cruz-battle"},{"ID":800110185,"Actor1":"RESIDENTS","Actor1_Country":null,"Actor2":"UNITED STATES","Actor2_Country":"USA","Code":10,"Class":1,"Action_Location":"Wisconsin, United States","Lat":44.2563,"Long":-89.6385,"Timestamp":20181105103000,"Source":"https:\/\/www.thedailybeast.com\/paul-ryans-hometown-hasnt-felt-scott-walkers-economic-recovery"},{"ID":800110186,"Actor1":"RESIDENTS","Actor1_Country":null,"Actor2":"UNITED STATES","Actor2_Country":"USA","Code":10,"Class":1,"Action_Location":"Wisconsin, United States","Lat":44.2563,"Long":-89.6385,"Timestamp":20181105103000,"Source":"https:\/\/www.thedailybeast.com\/paul-ryans-hometown-hasnt-felt-scott-walkers-economic-recovery"},{"ID":800110187,"Actor1":"COMMUNITY","Actor1_Country":null,"Actor2":"UNITED STATES","Actor2_Country":"USA","Code":36,"Class":1,"Action_Location":"White Hall, West Virginia, United States","Lat":39.4212,"Long":-80.1826,"Timestamp":20181105103000,"Source":"https:\/\/www.timeswv.com\/community\/white-hall-column-improved-attendance-educational-events-highlight-november\/article_3af3df92-e0b2-11e8-be05-8b50ba635606.html"},{"ID":800110188,"Actor1":"COMMUNITY","Actor1_Country":null,"Actor2":"UNITED STATES","Actor2_Country":"USA","Code":42,"Class":1,"Action_Location":"White Hall, West Virginia, United States","Lat":39.4212,"Long":-80.1826,"Timestamp":20181105103000,"Source":"https:\/\/www.timeswv.com\/community\/white-hall-column-improved-attendance-educational-events-highlight-november\/article_3af3df92-e0b2-11e8-be05-8b50ba635606.html"},{"ID":800110189,"Actor1":"COMMUNITY","Actor1_Country":null,"Actor2":"UNITED STATES","Actor2_Country":"USA","Code":43,"Class":1,"Action_Location":"Florida, United States","Lat":27.8333,"Long":-81.717,"Timestamp":20181105103000,"Source":"https:\/\/www.rollcall.com\/news\/politics\/florida-democratic-women"},{"ID":800110190,"Actor1":"NEIGHBORHOOD","Actor1_Country":null,"Actor2":"UNITED STATES","Actor2_Country":"USA","Code":51,"Class":1,"Action_Location":"New Jersey, United States","Lat":40.314,"Long":-74.5089,"Timestamp":20181105103000,"Source":"https:\/\/www.nytimes.com\/2018\/11\/05\/us\/politics\/house-senate-elections-georgia-trump.html"},{"ID":800110191,"Actor1":"RESIDENTS","Actor1_Country":null,"Actor2":"UNITED STATES","Actor2_Country":"USA","Code":51,"Class":1,"Action_Location":"Rhode Island, United States","Lat":41.6772,"Long":-71.5101,"Timestamp":20181105103000,"Source":"https:\/\/pbn.com\/leonard-hair-transplant-associates-opens-warwick-location\/"},{"ID":800110192,"Actor1":"VOTER","Actor1_Country":null,"Actor2":"MISSOURI","Actor2_Country":"USA","Code":60,"Class":2,"Action_Location":"Missouri, United States","Lat":38.4623,"Long":-92.302,"Timestamp":20181105103000,"Source":"https:\/\/www.kansascity.com\/news\/politics-government\/influencers\/article221032475.html"},{"ID":800110193,"Actor1":"COMMUNITY","Actor1_Country":null,"Actor2":"UNITED STATES","Actor2_Country":"USA","Code":90,"Class":2,"Action_Location":"United States","Lat":39.828175,"Long":-98.5795,"Timestamp":20181105103000,"Source":"https:\/\/santamariatimes.com\/news\/local\/film-to-be-screened-free-in-buellton-looks-at-treatment\/article_d67aa658-863b-537e-a0e8-7934016579c9.html"},{"ID":800110194,"Actor1":"POPULATION","Actor1_Country":null,"Actor2":"MISSOURI","Actor2_Country":"USA","Code":120,"Class":3,"Action_Location":"Truman State University, Missouri, United States","Lat":40.1895,"Long":-92.5819,"Timestamp":20181105103000,"Source":"http:\/\/www.kirksvilledailyexpress.com\/news\/20181104\/missouri-house-of-representatives-qa-danny-busick"},{"ID":800110195,"Actor1":"POPULATION","Actor1_Country":null,"Actor2":"MISSOURI","Actor2_Country":"USA","Code":120,"Class":3,"Action_Location":"Missouri, United States","Lat":38.4623,"Long":-92.302,"Timestamp":20181105103000,"Source":"http:\/\/www.kirksvilledailyexpress.com\/news\/20181104\/missouri-house-of-representatives-qa-danny-busick"},{"ID":800110196,"Actor1":"VOTER","Actor1_Country":null,"Actor2":"COLUMBUS","Actor2_Country":"USA","Code":160,"Class":4,"Action_Location":"North Dakota, United States","Lat":47.5362,"Long":-99.793,"Timestamp":20181105103000,"Source":"https:\/\/www.npr.org\/2018\/11\/05\/664172876\/voter-purges-are-up-but-most-americans-wont-see-problems-at-the-polls"},{"ID":800110197,"Actor1":"VOTER","Actor1_Country":null,"Actor2":"UNITED STATES","Actor2_Country":"USA","Code":160,"Class":4,"Action_Location":"Ohio, United States","Lat":40.3736,"Long":-82.7755,"Timestamp":20181105103000,"Source":"https:\/\/www.npr.org\/2018\/11\/05\/664172876\/voter-purges-are-up-but-most-americans-wont-see-problems-at-the-polls"},{"ID":800110198,"Actor1":"IMMIGRANT","Actor1_Country":null,"Actor2":"UNITED STATES","Actor2_Country":"USA","Code":174,"Class":4,"Action_Location":"Ohio, United States","Lat":40.3736,"Long":-82.7755,"Timestamp":20181105103000,"Source":"http:\/\/www.hillaac.net\/somali-lawyer-urges-voters-to-show-we-are-a-nation-of-immigrants\/"},{"ID":800110199,"Actor1":"VOTER","Actor1_Country":null,"Actor2":"TEXAS","Actor2_Country":"USA","Code":190,"Class":4,"Action_Location":"Houston, Texas, United States","Lat":29.7633,"Long":-95.3633,"Timestamp":20181105103000,"Source":"http:\/\/en.rfi.fr\/americas\/20181105-texas-democrats-struggle-mobilise-voters-key-orourke-cruz-battle"},{"ID":800110200,"Actor1":"COMMUNITY","Actor1_Country":null,"Actor2":"UNITED STATES","Actor2_Country":"USA","Code":190,"Class":4,"Action_Location":"Santa Barbara County, California, United States","Lat":34.7333,"Long":-120.034,"Timestamp":20181105103000,"Source":"https:\/\/santamariatimes.com\/ads\/other\/ad_vault\/our-county-our-kids-editorial\/pdfdisplayad_f0750fc0-2771-5560-965b-3f4097b761d0.html"},{"ID":800110201,"Actor1":"VOTER","Actor1_Country":null,"Actor2":"TEXAS","Actor2_Country":"USA","Code":190,"Class":4,"Action_Location":"Texas, United States","Lat":31.106,"Long":-97.6475,"Timestamp":20181105103000,"Source":"http:\/\/en.rfi.fr\/americas\/20181105-texas-democrats-struggle-mobilise-voters-key-orourke-cruz-battle"},{"ID":800110202,"Actor1":"VILLAGE","Actor1_Country":null,"Actor2":"AMERICAN","Actor2_Country":"USA","Code":190,"Class":4,"Action_Location":"United States","Lat":39.828175,"Long":-98.5795,"Timestamp":20181105103000,"Source":"https:\/\/www.crisismagazine.com\/2018\/finding-true-meaning-in-the-modern-world-willa-cathers-death-comes-for-the-archbishop"},{"ID":800110203,"Actor1":"POPULATION","Actor1_Country":null,"Actor2":"UNITED STATES","Actor2_Country":"USA","Code":193,"Class":4,"Action_Location":"Tulsa, Oklahoma, United States","Lat":36.154,"Long":-95.9928,"Timestamp":20181105103000,"Source":"https:\/\/nondoc.com\/2018\/11\/05\/editorial-five-things-to-watch-on-oklahomas-election-day\/"},{"ID":800110204,"Actor1":"POPULATION","Actor1_Country":null,"Actor2":"OKLAHOMA","Actor2_Country":"USA","Code":193,"Class":4,"Action_Location":"Oklahoma, United States","Lat":35.5376,"Long":-96.9247,"Timestamp":20181105103000,"Source":"https:\/\/nondoc.com\/2018\/11\/05\/editorial-five-things-to-watch-on-oklahomas-election-day\/"},{"ID":800110207,"Actor1":"GERMAN","Actor1_Country":"DEU","Actor2":"BRUSSELS","Actor2_Country":"BEL","Code":13,"Class":1,"Action_Location":"Brussels, Bruxelles-Capitale, Belgium","Lat":50.8333,"Long":4.33333,"Timestamp":20181105103000,"Source":"https:\/\/www.dw.com\/en\/smaller-german-firms-to-continue-trade-with-iran\/av-46154607"},{"ID":800110208,"Actor1":"GERMANY","Actor1_Country":"DEU","Actor2":"BELGIUM","Actor2_Country":"BEL","Code":13,"Class":1,"Action_Location":"Tehran, Tehran, Iran","Lat":35.75,"Long":51.5148,"Timestamp":20181105103000,"Source":"https:\/\/www.dw.com\/en\/smaller-german-firms-to-continue-trade-with-iran\/av-46154607"},