[{"ID":800075617,"Actor1":"PRESIDENT","Actor1_Country":null,"Actor2":"AMERICAN","Actor2_Country":"USA","Code":51,"Class":1,"Action_Location":"Ohio, United States","Lat":40.3736,"Long":-82.7755,"Timestamp":20181105071500,"Source":"https:\/\/www.athensnews.com\/news\/election\/sen-elizabeth-warren-drops-into-athens-for-democrat-rally\/article_f62b74aa-e067-11e8-bd31-87a00c9285b7.html"},{"ID":800075622,"Actor1":"CONGRESS","Actor1_Country":null,"Actor2":"UNITED STATES","Actor2_Country":"USA","Code":42,"Class":1,"Action_Location":"New York, United States","Lat":42.1497,"Long":-74.9384,"Timestamp":20181105071500,"Source":"http:\/\/www.enterstageright.com\/archive\/articles\/1118\/trumpmidterm.html"},{"ID":800075623,"Actor1":"CONGRESS","Actor1_Country":null,"Actor2":"UNITED STATES","Actor2_Country":"USA","Code":195,"Class":4,"Action_Location":"New York, United States","Lat":42.1497,"Long":-74.9384,"Timestamp":20181105071500,"Source":"http:\/\/www.enterstageright.com\/archive\/articles\/1118\/trumpmidterm.html"},{"ID":800075625,"Actor1":"TELEVISION","Actor1_Country":null,"Actor2":"MELBOURNE","Actor2_Country":"AUS","Code":841,"Class":2,"Action_Location":"Melbourne, Victoria, Australia","Lat":-37.8167,"Long":144.967,"Timestamp":20181105071500,"Source":"https:\/\/www.dailymail.co.uk\/news\/article-6353067\/What-time-Melbourne-Cup-place-bet-key-information-need-know.html"},{"ID":800075626,"Actor1":"COAST GUARD","Actor1_Country":null,"Actor2":"ALASKA","Actor2_Country":"USA","Code":42,"Class":1,"Action_Location":"Alaska, United States","Lat":61.385,"Long":-152.268,"Timestamp":20181105071500,"Source":"http:\/\/www.somdnews.com\/enterprise\/bonus\/veterans_day\/three-generations-strong\/article_056f2fde-268c-5f47-b4ea-0f8a197d9ecc.html"},{"ID":800075627,"Actor1":"COAST GUARD","Actor1_Country":null,"Actor2":"ALASKA","Actor2_Country":"USA","Code":42,"Class":1,"Action_Location":"Alaska, United States","Lat":61.385,"Long":-152.268,"Timestamp":20181105071500,"Source":"http:\/\/www.somdnews.com\/enterprise\/bonus\/veterans_day\/three-generations-strong\/article_056f2fde-268c-5f47-b4ea-0f8a197d9ecc.html"},{"ID":800075628,"Actor1":"PORTUGUESE","Actor1_Country":"PRT","Actor2":"PORTUGAL","Actor2_Country":"PRT","Code":30,"Class":1,"Action_Location":"Portugal","Lat":39.5,"Long":-8.0,"Timestamp":20181105071500,"Source":"https:\/\/www.irishtimes.com\/business\/financial-services\/questions-raised-over-aib-1-1bn-problem-loans-sale-to-cerberus-1.3686653"},{"ID":800075630,"Actor1":"SYRIAN","Actor1_Country":"SYR","Actor2":"MILITANT","Actor2_Country":null,"Code":166,"Class":4,"Action_Location":"Raqqa, Ar Raqqah, Syria","Lat":35.95,"Long":39.0167,"Timestamp":20181105071500,"Source":"http:\/\/english.alarabiya.net\/en\/News\/middle-east\/2018\/11\/05\/ISIS-says-hits-Syria-s-Raqqa-with-car-bomb.html"},{"ID":800075631,"Actor1":"SYRIAN","Actor1_Country":"SYR","Actor2":"THE US","Actor2_Country":"USA","Code":130,"Class":3,"Action_Location":"Raqqa, Ar Raqqah, Syria","Lat":35.95,"Long":39.0167,"Timestamp":20181105071500,"Source":"http:\/\/english.alarabiya.net\/en\/News\/middle-east\/2018\/11\/05\/ISIS-says-hits-Syria-s-Raqqa-with-car-bomb.html"},{"ID":800075632,"Actor1":"ALASKA","Actor1_Country":"USA","Actor2":"COAST GUARD","Actor2_Country":null,"Code":43,"Class":1,"Action_Location":"Alaska, United States","Lat":61.385,"Long":-152.268,"Timestamp":20181105071500,"Source":"http:\/\/www.somdnews.com\/enterprise\/bonus\/veterans_day\/three-generations-strong\/article_056f2fde-268c-5f47-b4ea-0f8a197d9ecc.html"},{"ID":800075633,"Actor1":"ALASKA","Actor1_Country":"USA","Actor2":"COAST GUARD","Actor2_Country":null,"Code":43,"Class":1,"Action_Location":"Alaska, United States","Lat":61.385,"Long":-152.268,"Timestamp":20181105071500,"Source":"http:\/\/www.somdnews.com\/enterprise\/bonus\/veterans_day\/three-generations-strong\/article_056f2fde-268c-5f47-b4ea-0f8a197d9ecc.html"},{"ID":800075634,"Actor1":"AMERICAN","Actor1_Country":"USA","Actor2":"CHARLES MURRAY","Actor2_Country":"USA","Code":43,"Class":1,"Action_Location":"Vermont, United States","Lat":44.0407,"Long":-72.7093,"Timestamp":20181105071500,"Source":"https:\/\/www.dukechronicle.com\/article\/2018\/11\/the-banality-of-white-supremacy"},{"ID":800075635,"Actor1":"AMERICAN ENTERPRISE INSTITUTE","Actor1_Country":"USA","Actor2":"CHARLES MURRAY","Actor2_Country":"USA","Code":43,"Class":1,"Action_Location":"Vermont, United States","Lat":44.0407,"Long":-72.7093,"Timestamp":20181105071500,"Source":"https:\/\/www.dukechronicle.com\/article\/2018\/11\/the-banality-of-white-supremacy"},{"ID":800075636,"Actor1":"CHARLES MURRAY","Actor1_Country":"USA","Actor2":"AMERICAN","Actor2_Country":"USA","Code":42,"Class":1,"Action_Location":"Vermont, United States","Lat":44.0407,"Long":-72.7093,"Timestamp":20181105071500,"Source":"https:\/\/www.dukechronicle.com\/article\/2018\/11\/the-banality-of-white-supremacy"},{"ID":800075637,"Actor1":"CHARLES MURRAY","Actor1_Country":"USA","Actor2":"AMERICAN ENTERPRISE INSTITUTE","Actor2_Country":"USA","Code":42,"Class":1,"Action_Location":"Vermont, United States","Lat":44.0407,"Long":-72.7093,"Timestamp":20181105071500,"Source":"https:\/\/www.dukechronicle.com\/article\/2018\/11\/the-banality-of-white-supremacy"},{"ID":800075638,"Actor1":"VICTORIA","Actor1_Country":"AUS","Actor2":"CHINA","Actor2_Country":"CHN","Code":57,"Class":1,"Action_Location":"Canberra, Australian Capital Territory, Australia","Lat":-35.2833,"Long":149.217,"Timestamp":20181105071500,"Source":"http:\/\/www.xinhuanet.com\/english\/2018-11\/05\/c_137583360.htm"},{"ID":800075639,"Actor1":"VICTORIA","Actor1_Country":"AUS","Actor2":"CHINA","Actor2_Country":"CHN","Code":57,"Class":1,"Action_Location":"Canberra, Australian Capital Territory, Australia","Lat":-35.2833,"Long":149.217,"Timestamp":20181105071500,"Source":"http:\/\/www.xinhuanet.com\/english\/2018-11\/05\/c_137583360.htm"},{"ID":800075640,"Actor1":"CHINA","Actor1_Country":"CHN","Actor2":"VICTORIA","Actor2_Country":"AUS","Code":57,"Class":1,"Action_Location":"Canberra, Australian Capital Territory, Australia","Lat":-35.2833,"Long":149.217,"Timestamp":20181105071500,"Source":"http:\/\/www.xinhuanet.com\/english\/2018-11\/05\/c_137583360.htm"},{"ID":800075641,"Actor1":"CHINA","Actor1_Country":"CHN","Actor2":"VICTORIA","Actor2_Country":"AUS","Code":57,"Class":1,"Action_Location":"Canberra, Australian Capital Territory, Australia","Lat":-35.2833,"Long":149.217,"Timestamp":20181105071500,"Source":"http:\/\/www.xinhuanet.com\/english\/2018-11\/05\/c_137583360.htm"},{"ID":800075642,"Actor1":"VOTER","Actor1_Country":null,"Actor2":"UNITED STATES","Actor2_Country":"USA","Code":51,"Class":1,"Action_Location":"Houston, Texas, United States","Lat":29.7633,"Long":-95.3633,"Timestamp":20181105071500,"Source":"https:\/\/www.texastribune.org\/2018\/11\/04\/texas-ken-paxton-campaign-justin-nelson-texas-attorney-general-tight\/"},{"ID":800075644,"Actor1":"PRIME MINISTER","Actor1_Country":null,"Actor2":"ISRAEL","Actor2_Country":"ISR","Code":14,"Class":1,"Action_Location":"Israel","Lat":31.5,"Long":34.75,"Timestamp":20181105071500,"Source":"https:\/\/www.charlotteobserver.com\/news\/business\/national-business\/article221132835.html"},{"ID":800075645,"Actor1":"PRESIDENT","Actor1_Country":null,"Actor2":"SUPREME COURT","Actor2_Country":null,"Code":112,"Class":3,"Action_Location":"New York, United States","Lat":42.1497,"Long":-74.9384,"Timestamp":20181105071500,"Source":"https:\/\/www.dailymail.co.uk\/news\/article-6353053\/Bill-Hillary-Chelsea-Clinton-play-Constitution-Means-Me.html"},{"ID":800075646,"Actor1":"ISRAEL","Actor1_Country":"ISR","Actor2":"CABINET","Actor2_Country":null,"Code":14,"Class":1,"Action_Location":"Israel","Lat":31.5,"Long":34.75,"Timestamp":20181105071500,"Source":"https:\/\/www.charlotteobserver.com\/news\/business\/national-business\/article221132835.html"},{"ID":800075648,"Actor1":"UNITED STATES","Actor1_Country":"USA","Actor2":"VOTER","Actor2_Country":null,"Code":51,"Class":1,"Action_Location":"Houston, Texas, United States","Lat":29.7633,"Long":-95.3633,"Timestamp":20181105071500,"Source":"https:\/\/www.texastribune.org\/2018\/11\/04\/texas-ken-paxton-campaign-justin-nelson-texas-attorney-general-tight\/"},{"ID":800075651,"Actor1":"AUSTRIA","Actor1_Country":"AUT","Actor2":"AMBASSADOR","Actor2_Country":null,"Code":17,"Class":1,"Action_Location":"Islamabad, Islamabad, Pakistan","Lat":33.7,"Long":73.1667,"Timestamp":20181105071500,"Source":"https:\/\/www.dawn.com\/news\/1443562"},{"ID":800075652,"Actor1":"AUSTRIA","Actor1_Country":"AUT","Actor2":"REPRESENTATIVES","Actor2_Country":null,"Code":43,"Class":1,"Action_Location":"Islamabad, Islamabad, Pakistan","Lat":33.7,"Long":73.1667,"Timestamp":20181105071500,"Source":"https:\/\/www.dawn.com\/news\/1443562"},{"ID":800075653,"Actor1":"DIOCESE","Actor1_Country":null,"Actor2":"PRIEST","Actor2_Country":null,"Code":43,"Class":1,"Action_Location":"Athens, Attik\u00edR, Greece","Lat":37.9833,"Long":23.7333,"Timestamp":20181105071500,"Source":"https:\/\/www.athensnews.com\/news\/local\/local-priest-charged-with-sexual-misconduct-had-been-suspended-last\/article_02bf16ce-e066-11e8-8333-fbcdf30f9b06.html"},{"ID":800075655,"Actor1":"GOVERNMENT","Actor1_Country":null,"Actor2":"UNITED STATES","Actor2_Country":"USA","Code":84,"Class":2,"Action_Location":"Ohio, United States","Lat":40.3736,"Long":-82.7755,"Timestamp":20181105071500,"Source":"http:\/\/www.thedailyreporteronline.com\/news\/2018\/11\/05\/proposed-cyber-reserve-would-be-part-of-states-organized-militia\/"},{"ID":800075656,"Actor1":"ATHENS","Actor1_Country":"GRC","Actor2":"MUNICIPAL COURT","Actor2_Country":null,"Code":173,"Class":4,"Action_Location":"Athens, Attik\u00edR, Greece","Lat":37.9833,"Long":23.7333,"Timestamp":20181105071500,"Source":"https:\/\/www.athensnews.com\/news\/local\/local-priest-charged-with-sexual-misconduct-had-been-suspended-last\/article_02bf16ce-e066-11e8-8333-fbcdf30f9b06.html"},{"ID":800075658,"Actor1":"INDONESIAN","Actor1_Country":"IDN","Actor2":"INDONESIA","Actor2_Country":"IDN","Code":13,"Class":1,"Action_Location":"Indonesia","Lat":-5.0,"Long":120.0,"Timestamp":20181105071500,"Source":"https:\/\/www.charlotteobserver.com\/news\/business\/national-business\/article221132835.html"},{"ID":800075659,"Actor1":"INDONESIAN","Actor1_Country":"IDN","Actor2":"INDONESIA","Actor2_Country":"IDN","Code":13,"Class":1,"Action_Location":"Israel","Lat":31.5,"Long":34.75,"Timestamp":20181105071500,"Source":"https:\/\/www.nytimes.com\/aponline\/2018\/11\/05\/world\/asia\/ap-as-australia-indonesia.html"},{"ID":800075661,"Actor1":"REPRESENTATIVES","Actor1_Country":null,"Actor2":"AUSTRIA","Actor2_Country":"AUT","Code":42,"Class":1,"Action_Location":"Islamabad, Islamabad, Pakistan","Lat":33.7,"Long":73.1667,"Timestamp":20181105071500,"Source":"https:\/\/www.dawn.com\/news\/1443562"},{"ID":800075662,"Actor1":"PRIEST","Actor1_Country":null,"Actor2":"DIOCESE","Actor2_Country":null,"Code":42,"Class":1,"Action_Location":"Athens, Attik\u00edR, Greece","Lat":37.9833,"Long":23.7333,"Timestamp":20181105071500,"Source":"https:\/\/www.athensnews.com\/news\/local\/local-priest-charged-with-sexual-misconduct-had-been-suspended-last\/article_02bf16ce-e066-11e8-8333-fbcdf30f9b06.html"},{"ID":800075663,"Actor1":"PRIEST","Actor1_Country":null,"Actor2":"DIOCESE","Actor2_Country":null,"Code":173,"Class":4,"Action_Location":"Athens, Attik\u00edR, Greece","Lat":37.9833,"Long":23.7333,"Timestamp":20181105071500,"Source":"https:\/\/www.athensnews.com\/news\/local\/local-priest-charged-with-sexual-misconduct-had-been-suspended-last\/article_02bf16ce-e066-11e8-8333-fbcdf30f9b06.html"},{"ID":800075664,"Actor1":"UGANDA","Actor1_Country":"UGA","Actor2":"WORKER","Actor2_Country":null,"Code":10,"Class":1,"Action_Location":"Makerere, Kampala, Uganda","Lat":0.333333,"Long":32.5667,"Timestamp":20181105071500,"Source":"http:\/\/www.monitor.co.ug\/News\/National\/Hepatitis-B-prevalence-rate-drops\/688334-4836884-f0au5\/"},{"ID":800075667,"Actor1":"UNITED STATES","Actor1_Country":"USA","Actor2":"PRESIDENT","Actor2_Country":null,"Code":193,"Class":4,"Action_Location":"Squirrel Hill, Pennsylvania, United States","Lat":40.4381,"Long":-79.9192,"Timestamp":20181105071500,"Source":"https:\/\/pittnews.com\/article\/137462\/news\/city\/five-pa-house-races-watch\/"},{"ID":800075668,"Actor1":"CAPE TOWN","Actor1_Country":"ZAF","Actor2":"AFRICA","Actor2_Country":"AFR","Code":20,"Class":1,"Action_Location":"South Africa","Lat":-30.0,"Long":26.0,"Timestamp":20181105071500,"Source":"https:\/\/www.iol.co.za\/business-report\/opinion\/saa-the-eye-of-mbowenisperfect-storm-17774210"},{"ID":800075669,"Actor1":"CAPE TOWN","Actor1_Country":"ZAF","Actor2":"SOUTH AFRICAN","Actor2_Country":"ZAF","Code":20,"Class":1,"Action_Location":"South Africa","Lat":-30.0,"Long":26.0,"Timestamp":20181105071500,"Source":"https:\/\/www.iol.co.za\/business-report\/opinion\/saa-the-eye-of-mbowenisperfect-storm-17774210"},{"ID":800075670,"Actor1":"DEPUTY","Actor1_Country":null,"Actor2":"ABDULLAH","Actor2_Country":"SAU","Code":40,"Class":1,"Action_Location":"Russia","Lat":60.0,"Long":100.0,"Timestamp":20181105071500,"Source":"https:\/\/thepeninsulaqatar.com\/article\/05\/11\/2018\/Qatar,-Russia-discuss-parliamentary-relations"},{"ID":800075671,"Actor1":"FRANCE","Actor1_Country":"FRA","Actor2":"JACKSONVILLE","Actor2_Country":"USA","Code":42,"Class":1,"Action_Location":"Ohio, United States","Lat":40.3736,"Long":-82.7755,"Timestamp":20181105071500,"Source":"http:\/\/www.winchesterstar.com\/winchester_star\/out-of-the-past-from-the-archives-of-the-winchester\/article_a39e6073-7872-570b-bd9a-9e01cfed05d7.html"},{"ID":800075672,"Actor1":"FRANCE","Actor1_Country":"FRA","Actor2":"JACKSONVILLE","Actor2_Country":"USA","Code":42,"Class":1,"Action_Location":"Silver Leaf, Virginia, United States","Lat":37.2379,"Long":-80.4075,"Timestamp":20181105071500,"Source":"http:\/\/www.winchesterstar.com\/winchester_star\/out-of-the-past-from-the-archives-of-the-winchester\/article_a39e6073-7872-570b-bd9a-9e01cfed05d7.html"},{"ID":800075673,"Actor1":"PRESIDENT","Actor1_Country":null,"Actor2":"SAINT","Actor2_Country":null,"Code":42,"Class":1,"Action_Location":"Kampala, Kampala, Uganda","Lat":0.315556,"Long":32.5656,"Timestamp":20181105071500,"Source":"http:\/\/www.monitor.co.ug\/News\/National\/Museveni-gives-All-Saints-Shs500-million\/688334-4836856-5odaksz\/"},{"ID":800075674,"Actor1":"ARMY","Actor1_Country":null,"Actor2":"JACKSONVILLE","Actor2_Country":"USA","Code":42,"Class":1,"Action_Location":"Silver Leaf, Virginia, United States","Lat":37.2379,"Long":-80.4075,"Timestamp":20181105071500,"Source":"http:\/\/www.winchesterstar.com\/winchester_star\/out-of-the-past-from-the-archives-of-the-winchester\/article_a39e6073-7872-570b-bd9a-9e01cfed05d7.html"},{"ID":800075675,"Actor1":"SAINT","Actor1_Country":null,"Actor2":"PRESIDENT","Actor2_Country":null,"Code":43,"Class":1,"Action_Location":"Kampala, Kampala, Uganda","Lat":0.315556,"Long":32.5656,"Timestamp":20181105071500,"Source":"http:\/\/www.monitor.co.ug\/News\/National\/Museveni-gives-All-Saints-Shs500-million\/688334-4836856-5odaksz\/"},{"ID":800075676,"Actor1":"ABDULLAH","Actor1_Country":"SAU","Actor2":"DEPUTY","Actor2_Country":null,"Code":40,"Class":1,"Action_Location":"Russia","Lat":60.0,"Long":100.0,"Timestamp":20181105071500,"Source":"https:\/\/thepeninsulaqatar.com\/article\/05\/11\/2018\/Qatar,-Russia-discuss-parliamentary-relations"},{"ID":800075677,"Actor1":"JACKSONVILLE","Actor1_Country":"USA","Actor2":"FRANCE","Actor2_Country":"FRA","Code":43,"Class":1,"Action_Location":"France","Lat":46.0,"Long":2.0,"Timestamp":20181105071500,"Source":"http:\/\/www.winchesterstar.com\/winchester_star\/out-of-the-past-from-the-archives-of-the-winchester\/article_a39e6073-7872-570b-bd9a-9e01cfed05d7.html"},{"ID":800075678,"Actor1":"JACKSONVILLE","Actor1_Country":"USA","Actor2":"ARMY","Actor2_Country":null,"Code":43,"Class":1,"Action_Location":"France","Lat":46.0,"Long":2.0,"Timestamp":20181105071500,"Source":"http:\/\/www.winchesterstar.com\/winchester_star\/out-of-the-past-from-the-archives-of-the-winchester\/article_a39e6073-7872-570b-bd9a-9e01cfed05d7.html"},{"ID":800075846,"Actor1":"AFGHANISTAN","Actor1_Country":"AFG","Actor2":"TALIBAN","Actor2_Country":"AFG","Code":190,"Class":4,"Action_Location":"Atal, Helmand, Afghanistan","Lat":32.4106,"Long":65.0243,"Timestamp":20181105071500,"Source":"http:\/\/www.xinhuanet.com\/english\/2018-11\/05\/c_137583361.htm"},{"ID":800075847,"Actor1":"AFGHANISTAN","Actor1_Country":"AFG","Actor2":"TALIBAN","Actor2_Country":"AFG","Code":190,"Class":4,"Action_Location":"Zabul, Zabol, Afghanistan","Lat":32.25,"Long":67.25,"Timestamp":20181105071500,"Source":"http:\/\/www.xinhuanet.com\/english\/2018-11\/05\/c_137583361.htm"},{"ID":800075848,"Actor1":"AFGHANISTAN","Actor1_Country":"AFG","Actor2":"HUMAN RIGHTS COMMISSION","Actor2_Country":null,"Code":110,"Class":3,"Action_Location":"Jalalabad, Nangarhar, Afghanistan","Lat":34.4265,"Long":70.4515,"Timestamp":20181105071500,"Source":"https:\/\/reliefweb.int\/report\/afghanistan\/education-key-ending-violence-and-advancing-women-s-rights-say-participants"},{"ID":800075849,"Actor1":"AFGHANISTAN","Actor1_Country":"AFG","Actor2":"HUMAN RIGHTS COMMISSION","Actor2_Country":null,"Code":110,"Class":3,"Action_Location":"Jalalabad, Nangarhar, Afghanistan","Lat":34.4265,"Long":70.4515,"Timestamp":20181105071500,"Source":"https:\/\/reliefweb.int\/report\/afghanistan\/education-key-ending-violence-and-advancing-women-s-rights-say-participants"},{"ID":800075850,"Actor1":"AFGHANISTAN","Actor1_Country":"AFG","Actor2":"PAKISTAN","Actor2_Country":"PAK","Code":120,"Class":3,"Action_Location":"Peshawar, North-West Frontier, Pakistan","Lat":34.0078,"Long":71.5733,"Timestamp":20181105071500,"Source":"http:\/\/defencenews.in\/article\/Pakistan-The-Rumble-In-India%e2%80%99s-Neighbouring-Jungle-581415"},{"ID":800075851,"Actor1":"AFGHANISTAN","Actor1_Country":"AFG","Actor2":"PAKISTAN","Actor2_Country":"PAK","Code":120,"Class":3,"Action_Location":"Afghanistan","Lat":33.0,"Long":66.0,"Timestamp":20181105071500,"Source":"http:\/\/defencenews.in\/article\/Pakistan-The-Rumble-In-India%e2%80%99s-Neighbouring-Jungle-581415"},{"ID":800075852,"Actor1":"AFGHANISTAN","Actor1_Country":"AFG","Actor2":"TURKMENISTAN","Actor2_Country":"TKM","Code":46,"Class":1,"Action_Location":"Afghanistan","Lat":33.0,"Long":66.0,"Timestamp":20181105071500,"Source":"https:\/\/www.azernews.az\/region\/140358.html"},{"ID":800075853,"Actor1":"AFGHANISTAN","Actor1_Country":"AFG","Actor2":"TURKMENISTAN","Actor2_Country":"TKM","Code":46,"Class":1,"Action_Location":"Ashgabat, Ahal, Turkmenistan","Lat":37.95,"Long":58.3833,"Timestamp":20181105071500,"Source":"https:\/\/www.azernews.az\/region\/140358.html"},{"ID":800075854,"Actor1":"AFGHANISTAN","Actor1_Country":"AFG","Actor2":"TURKMENISTAN","Actor2_Country":"TKM","Code":46,"Class":1,"Action_Location":"Afghanistan","Lat":33.0,"Long":66.0,"Timestamp":20181105071500,"Source":"https:\/\/www.azernews.az\/region\/140358.html"},{"ID":800075855,"Actor1":"AFGHAN","Actor1_Country":"AFG","Actor2":"MILITANT","Actor2_Country":null,"Code":190,"Class":4,"Action_Location":"Atal, Helmand, Afghanistan","Lat":32.4106,"Long":65.0243,"Timestamp":20181105071500,"Source":"http:\/\/www.xinhuanet.com\/english\/2018-11\/05\/c_137583361.htm"},{"ID":800075856,"Actor1":"AFGHANISTAN","Actor1_Country":"AFG","Actor2":"TURKMENISTAN","Actor2_Country":"TKM","Code":46,"Class":1,"Action_Location":"Ashgabat, Ahal, Turkmenistan","Lat":37.95,"Long":58.3833,"Timestamp":20181105071500,"Source":"https:\/\/www.azernews.az\/region\/140358.html"},{"ID":800075857,"Actor1":"TALIBAN","Actor1_Country":"AFG","Actor2":"TOURIST","Actor2_Country":null,"Code":192,"Class":4,"Action_Location":"Islamabad, Islamabad, Pakistan","Lat":33.7,"Long":73.1667,"Timestamp":20181105071500,"Source":"https:\/\/tribune.com.pk\/story\/1840681\/6-will-ever-learn\/"},{"ID":800075858,"Actor1":"TALIBAN","Actor1_Country":"AFG","Actor2":"PAKISTAN","Actor2_Country":"PAK","Code":192,"Class":4,"Action_Location":"Islamabad, Islamabad, Pakistan","Lat":33.7,"Long":73.1667,"Timestamp":20181105071500,"Source":"https:\/\/tribune.com.pk\/story\/1840681\/6-will-ever-learn\/"},{"ID":800075859,"Actor1":"TALIBAN","Actor1_Country":"AFG","Actor2":"AFGHANISTAN","Actor2_Country":"AFG","Code":182,"Class":4,"Action_Location":"Atal, Helmand, Afghanistan","Lat":32.4106,"Long":65.0243,"Timestamp":20181105071500,"Source":"http:\/\/www.xinhuanet.com\/english\/2018-11\/05\/c_137583361.htm"},{"ID":800075860,"Actor1":"TALIBAN","Actor1_Country":"AFG","Actor2":"AFGHANISTAN","Actor2_Country":"AFG","Code":182,"Class":4,"Action_Location":"Atal, Helmand, Afghanistan","Lat":32.4106,"Long":65.0243,"Timestamp":20181105071500,"Source":"http:\/\/www.xinhuanet.com\/english\/2018-11\/05\/c_137583361.htm"},{"ID":800075861,"Actor1":"TALIBAN","Actor1_Country":"AFG","Actor2":"MILITARY","Actor2_Country":null,"Code":182,"Class":4,"Action_Location":"Atal, Helmand, Afghanistan","Lat":32.4106,"Long":65.0243,"Timestamp":20181105071500,"Source":"http:\/\/www.xinhuanet.com\/english\/2018-11\/05\/c_137583361.htm"},{"ID":800075862,"Actor1":"TALIBAN","Actor1_Country":"AFG","Actor2":"MILITARY","Actor2_Country":null,"Code":182,"Class":4,"Action_Location":"Atal, Helmand, Afghanistan","Lat":32.4106,"Long":65.0243,"Timestamp":20181105071500,"Source":"http:\/\/www.xinhuanet.com\/english\/2018-11\/05\/c_137583361.htm"},{"ID":800075866,"Actor1":"AFRICA","Actor1_Country":"AFR","Actor2":"AFRICA","Actor2_Country":"AFR","Code":80,"Class":2,"Action_Location":"Johannesburg, Gauteng, South Africa","Lat":-26.2,"Long":28.0833,"Timestamp":20181105071500,"Source":"https:\/\/www.msn.com\/en-za\/news\/national\/probe-underway-after-pedestrian-hit-by-ambulance-dies\/ar-BBPlW8Z"},{"ID":800075867,"Actor1":"AFRICA","Actor1_Country":"AFR","Actor2":"AFRICA","Actor2_Country":"AFR","Code":90,"Class":2,"Action_Location":"Johannesburg, Gauteng, South Africa","Lat":-26.2,"Long":28.0833,"Timestamp":20181105071500,"Source":"https:\/\/www.msn.com\/en-za\/news\/national\/probe-underway-after-pedestrian-hit-by-ambulance-dies\/ar-BBPlW8Z"},{"ID":800075868,"Actor1":"AFRICA","Actor1_Country":"AFR","Actor2":"MINIST","Actor2_Country":null,"Code":40,"Class":1,"Action_Location":"Johannesburg, Gauteng, South Africa","Lat":-26.2,"Long":28.0833,"Timestamp":20181105071500,"Source":"https:\/\/ewn.co.za\/2018\/11\/05\/times-get-harder-for-gigaba-as-report-links-him-to-state-capture-at-eskom"},{"ID":800075869,"Actor1":"AFRICA","Actor1_Country":"AFR","Actor2":"MINIST OF FINANCE","Actor2_Country":null,"Code":114,"Class":3,"Action_Location":"South Africa","Lat":-30.0,"Long":26.0,"Timestamp":20181105071500,"Source":"https:\/\/www.iol.co.za\/business-report\/opinion\/saa-the-eye-of-mbowenisperfect-storm-17774210"},{"ID":800075870,"Actor1":"AFRICA","Actor1_Country":"AFR","Actor2":"ADVOCATE","Actor2_Country":null,"Code":40,"Class":1,"Action_Location":"Gauteng, Gauteng, South Africa","Lat":-26.0833,"Long":28.25,"Timestamp":20181105071500,"Source":"https:\/\/www.enca.com\/news\/rtmc-wants-harsh-punishment-drunk-drivers"},{"ID":800075871,"Actor1":"AFRICA","Actor1_Country":"AFR","Actor2":"OBAMA","Actor2_Country":"USA","Code":18,"Class":1,"Action_Location":"South Africa","Lat":-30.0,"Long":26.0,"Timestamp":20181105071500,"Source":"https:\/\/www.theaustralian.com.au\/news\/latest-news\/un-votes-to-condemn-us-embargo-of-cuba\/news-story\/674fbfdaed7934243f45b78f6e82f2f4?nk=f886589f6a387496325ccbf4bf2fd79a-1541401433"},{"ID":800075872,"Actor1":"FARMER","Actor1_Country":null,"Actor2":"COMMUNITY","Actor2_Country":null,"Code":40,"Class":1,"Action_Location":"Arno Bay, South Australia, Australia","Lat":-33.9,"Long":136.567,"Timestamp":20181105071500,"Source":"https:\/\/www.transcontinental.com.au\/story\/5740223\/addressing-the-drought\/?cs=1538"},{"ID":800075873,"Actor1":"FARMER","Actor1_Country":null,"Actor2":"COMMUNITY","Actor2_Country":null,"Code":40,"Class":1,"Action_Location":"Port Augusta, South Australia, Australia","Lat":-32.496,"Long":137.773,"Timestamp":20181105071500,"Source":"https:\/\/www.transcontinental.com.au\/story\/5740223\/addressing-the-drought\/?cs=1538"},{"ID":800075875,"Actor1":"DUBAI","Actor1_Country":"ARE","Actor2":"UNITED ARAB EMIRATES","Actor2_Country":"ARE","Code":20,"Class":1,"Action_Location":"Dubai, Dubayy, United Arab Emirates","Lat":25.2522,"Long":55.28,"Timestamp":20181105071500,"Source":"http:\/\/www.itp.net\/618311-dubai-customs-hosts-blockchain-workshop"},{"ID":800075876,"Actor1":"UNITED ARAB EMIRATES","Actor1_Country":"ARE","Actor2":"UNITED ARAB EMIRATES","Actor2_Country":"ARE","Code":51,"Class":1,"Action_Location":"Abu Dhabi, Abu Z\u00b8aby, United Arab Emirates","Lat":24.4667,"Long":54.3667,"Timestamp":20181105071500,"Source":"https:\/\/www.albawaba.com\/business\/pr\/digitalisation-fundamental-transformational-and-number-one-priority-senior-oil-and-gas-i"},{"ID":800075877,"Actor1":"DUBAI","Actor1_Country":"ARE","Actor2":"BUSINESS","Actor2_Country":null,"Code":40,"Class":1,"Action_Location":"Dubai, Dubayy, United Arab Emirates","Lat":25.2522,"Long":55.28,"Timestamp":20181105071500,"Source":"http:\/\/www.itp.net\/618311-dubai-customs-hosts-blockchain-workshop"},{"ID":800075878,"Actor1":"DUBAI","Actor1_Country":"ARE","Actor2":"EMPLOYEE","Actor2_Country":null,"Code":40,"Class":1,"Action_Location":"Dubai, Dubayy, United Arab Emirates","Lat":25.2522,"Long":55.28,"Timestamp":20181105071500,"Source":"http:\/\/www.itp.net\/618311-dubai-customs-hosts-blockchain-workshop"},{"ID":800075880,"Actor1":"ARGENTINA","Actor1_Country":"ARG","Actor2":"CHINA","Actor2_Country":"CHN","Code":36,"Class":1,"Action_Location":"Beijing, Beijing, China","Lat":39.9289,"Long":116.388,"Timestamp":20181105071500,"Source":"https:\/\/www.cnn.com\/2018\/11\/05\/asia\/xi-jinping-shanghai-trade-us-intl\/"},{"ID":800075881,"Actor1":"ARGENTINA","Actor1_Country":"ARG","Actor2":"CHINA","Actor2_Country":"CHN","Code":40,"Class":1,"Action_Location":"Beijing, Beijing, China","Lat":39.9289,"Long":116.388,"Timestamp":20181105071500,"Source":"https:\/\/www.cnn.com\/2018\/11\/05\/asia\/xi-jinping-shanghai-trade-us-intl\/"},{"ID":800075900,"Actor1":"AUSTRALIA","Actor1_Country":"AUS","Actor2":"AUSTRALIA","Actor2_Country":"AUS","Code":10,"Class":1,"Action_Location":"Monash, South Australia, Australia","Lat":-34.2333,"Long":140.567,"Timestamp":20181105071500,"Source":"https:\/\/www.sciencealert.com\/tiny-ancient-metal-poor-star-in-the-milky-way-could-be-one-of-the-oldest-in-the-universe"},{"ID":800075901,"Actor1":"AUSTRALIA","Actor1_Country":"AUS","Actor2":"AUSTRALIA","Actor2_Country":"AUS","Code":42,"Class":1,"Action_Location":"Monash, South Australia, Australia","Lat":-34.2333,"Long":140.567,"Timestamp":20181105071500,"Source":"https:\/\/www.sciencealert.com\/tiny-ancient-metal-poor-star-in-the-milky-way-could-be-one-of-the-oldest-in-the-universe"},{"ID":800075902,"Actor1":"AUSTRALIA","Actor1_Country":"AUS","Actor2":"AUSTRALIA","Actor2_Country":"AUS","Code":11,"Class":1,"Action_Location":"Flinders Ranges, South Australia, Australia","Lat":-31.4167,"Long":138.75,"Timestamp":20181105071500,"Source":"https:\/\/www.sbs.com.au\/nitv\/article\/2018\/11\/05\/any-election-delay-nuclear-waste-dump-vote-more-time-lobby"},{"ID":800075903,"Actor1":"AUSTRALIAN","Actor1_Country":"AUS","Actor2":"AUSTRALIA","Actor2_Country":"AUS","Code":190,"Class":4,"Action_Location":"Sydney, New South Wales, Australia","Lat":-33.8833,"Long":151.217,"Timestamp":20181105071500,"Source":"https:\/\/www.lowyinstitute.org\/the-interpreter\/australian-army-drone-air-force"},{"ID":800075904,"Actor1":"AUSTRALIA","Actor1_Country":"AUS","Actor2":"BANK","Actor2_Country":null,"Code":114,"Class":3,"Action_Location":"Australia","Lat":-25.0,"Long":135.0,"Timestamp":20181105071500,"Source":"https:\/\/thenewdaily.com.au\/money\/finance-news\/2018\/11\/05\/bank-profits-fall-royal-commission\/"},{"ID":800075905,"Actor1":"AUSTRALIA","Actor1_Country":"AUS","Actor2":"CHINESE","Actor2_Country":"CHN","Code":51,"Class":1,"Action_Location":"Canberra, Australian Capital Territory, Australia","Lat":-35.2833,"Long":149.217,"Timestamp":20181105071500,"Source":"http:\/\/www.xinhuanet.com\/english\/2018-11\/05\/c_137583360.htm"},{"ID":800075906,"Actor1":"AUSTRALIAN","Actor1_Country":"AUS","Actor2":"CHINA","Actor2_Country":"CHN","Code":111,"Class":3,"Action_Location":"Canberra, Australian Capital Territory, Australia","Lat":-35.2833,"Long":149.217,"Timestamp":20181105071500,"Source":"http:\/\/www.xinhuanet.com\/english\/2018-11\/05\/c_137583360.htm"},{"ID":800075907,"Actor1":"AUSTRALIAN","Actor1_Country":"AUS","Actor2":"CHINA","Actor2_Country":"CHN","Code":111,"Class":3,"Action_Location":"Canberra, Australian Capital Territory, Australia","Lat":-35.2833,"Long":149.217,"Timestamp":20181105071500,"Source":"http:\/\/www.xinhuanet.com\/english\/2018-11\/05\/c_137583360.htm"},{"ID":800075908,"Actor1":"AUSTRALIA","Actor1_Country":"AUS","Actor2":"COMMUNITY","Actor2_Country":null,"Code":12,"Class":1,"Action_Location":"Sydney, New South Wales, Australia","Lat":-33.8833,"Long":151.217,"Timestamp":20181105071500,"Source":"https:\/\/www.brisbanetimes.com.au\/politics\/federal\/sharma-in-doubt-for-election-amid-questions-over-turnbull-s-help-20181105-p50e59.html"},{"ID":800075909,"Actor1":"AUSTRALIA","Actor1_Country":"AUS","Actor2":"COMMUNITY","Actor2_Country":null,"Code":36,"Class":1,"Action_Location":"Brisbane, Queensland, Australia","Lat":-27.5,"Long":153.017,"Timestamp":20181105071500,"Source":"http:\/\/australianaviation.com.au\/2018\/11\/virgin-australia-mindful-of-reactions-to-veterans-recognition-initiative\/"},{"ID":800075910,"Actor1":"MELBOURNE","Actor1_Country":"AUS","Actor2":"VILLAGE","Actor2_Country":null,"Code":173,"Class":4,"Action_Location":"Perth, Western Australia, Australia","Lat":-31.9333,"Long":115.833,"Timestamp":20181105071500,"Source":"https:\/\/www.dailymail.co.uk\/news\/article-6353135\/Parents-afraid-rising-prices-splash-hundreds-thousands-dollars-buy-tiny-tots-home.html"},{"ID":800075911,"Actor1":"MURRAY","Actor1_Country":"AUS","Actor2":"GERMANY","Actor2_Country":"DEU","Code":10,"Class":1,"Action_Location":"Germany","Lat":51.5,"Long":10.5,"Timestamp":20181105071500,"Source":"https:\/\/www.timesofmalta.com\/articles\/view\/20181105\/life-features\/wilfred-owen-100-years-on-poet-gave-voice-to-a-generation-of-doomed.693503"},{"ID":800075912,"Actor1":"MURRAY","Actor1_Country":"AUS","Actor2":"GERMANY","Actor2_Country":"DEU","Code":51,"Class":1,"Action_Location":"Germany","Lat":51.5,"Long":10.5,"Timestamp":20181105071500,"Source":"https:\/\/www.timesofmalta.com\/articles\/view\/20181105\/life-features\/wilfred-owen-100-years-on-poet-gave-voice-to-a-generation-of-doomed.693503"},{"ID":800075913,"Actor1":"AUSTRALIA","Actor1_Country":"AUS","Actor2":"FRANCE","Actor2_Country":"FRA","Code":42,"Class":1,"Action_Location":"Melbourne, Victoria, Australia","Lat":-37.8167,"Long":144.967,"Timestamp":20181105071500,"Source":"https:\/\/www.dailymail.co.uk\/news\/article-6353067\/What-time-Melbourne-Cup-place-bet-key-information-need-know.html"},{"ID":800075914,"Actor1":"MURRUMBIDGEE","Actor1_Country":"AUS","Actor2":"UNITED KINGDOM","Actor2_Country":"GBR","Code":162,"Class":4,"Action_Location":"Melbourne, Victoria, Australia","Lat":-37.8167,"Long":144.967,"Timestamp":20181105071500,"Source":"https:\/\/www.dailyadvertiser.com.au\/story\/5740762\/wagga-experts-favour-foreign-raiders-in-melbourne-cup\/?cs=9402"},{"ID":800075915,"Actor1":"AUSTRALIA","Actor1_Country":"AUS","Actor2":"MINIST","Actor2_Country":null,"Code":40,"Class":1,"Action_Location":"Flinders Ranges, South Australia, Australia","Lat":-31.4167,"Long":138.75,"Timestamp":20181105071500,"Source":"https:\/\/www.transcontinental.com.au\/story\/5740223\/addressing-the-drought\/?cs=1538"},{"ID":800075916,"Actor1":"AUSTRALIA","Actor1_Country":"AUS","Actor2":"MINIST","Actor2_Country":null,"Code":40,"Class":1,"Action_Location":"Port Augusta, South Australia, Australia","Lat":-32.496,"Long":137.773,"Timestamp":20181105071500,"Source":"https:\/\/www.transcontinental.com.au\/story\/5740223\/addressing-the-drought\/?cs=1538"},{"ID":800075917,"Actor1":"AUSTRALIA","Actor1_Country":"AUS","Actor2":"GOVERNMENT","Actor2_Country":null,"Code":51,"Class":1,"Action_Location":"Canberra, Australian Capital Territory, Australia","Lat":-35.2833,"Long":149.217,"Timestamp":20181105071500,"Source":"http:\/\/www.xinhuanet.com\/english\/2018-11\/05\/c_137583360.htm"},{"ID":800075918,"Actor1":"AUSTRALIA","Actor1_Country":"AUS","Actor2":"GREECE","Actor2_Country":"GRC","Code":13,"Class":1,"Action_Location":"Athens, Attik\u00edR, Greece","Lat":37.9833,"Long":23.7333,"Timestamp":20181105071500,"Source":"https:\/\/www.dailymail.co.uk\/news\/article-6353407\/Teen-son-slain-gangster-John-Macris-scared-travel-Greece-fathers-funeral.html"},{"ID":800075919,"Actor1":"AUSTRALIA","Actor1_Country":"AUS","Actor2":"GREECE","Actor2_Country":"GRC","Code":18,"Class":1,"Action_Location":"Sydney, New South Wales, Australia","Lat":-33.8833,"Long":151.217,"Timestamp":20181105071500,"Source":"https:\/\/www.dailymail.co.uk\/news\/article-6353407\/Teen-son-slain-gangster-John-Macris-scared-travel-Greece-fathers-funeral.html"},{"ID":800075920,"Actor1":"AUSTRALIA","Actor1_Country":"AUS","Actor2":"GREECE","Actor2_Country":"GRC","Code":18,"Class":1,"Action_Location":"Athens, Attik\u00edR, Greece","Lat":37.9833,"Long":23.7333,"Timestamp":20181105071500,"Source":"https:\/\/www.dailymail.co.uk\/news\/article-6353407\/Teen-son-slain-gangster-John-Macris-scared-travel-Greece-fathers-funeral.html"},{"ID":800075921,"Actor1":"AUSTRALIA","Actor1_Country":"AUS","Actor2":"GREECE","Actor2_Country":"GRC","Code":130,"Class":3,"Action_Location":"Athens, Attik\u00edR, Greece","Lat":37.9833,"Long":23.7333,"Timestamp":20181105071500,"Source":"https:\/\/www.dailymail.co.uk\/news\/article-6353407\/Teen-son-slain-gangster-John-Macris-scared-travel-Greece-fathers-funeral.html"},{"ID":800075922,"Actor1":"AUSTRALIA","Actor1_Country":"AUS","Actor2":"INDONESIA","Actor2_Country":"IDN","Code":57,"Class":1,"Action_Location":"Australia","Lat":-25.0,"Long":135.0,"Timestamp":20181105071500,"Source":"https:\/\/www.charlotteobserver.com\/news\/business\/national-business\/article221132835.html"},{"ID":800075923,"Actor1":"AUSTRALIA","Actor1_Country":"AUS","Actor2":"INDONESIA","Actor2_Country":"IDN","Code":57,"Class":1,"Action_Location":"Australia","Lat":-25.0,"Long":135.0,"Timestamp":20181105071500,"Source":"https:\/\/www.charlotteobserver.com\/news\/business\/national-business\/article221132835.html"},{"ID":800075924,"Actor1":"AUSTRALIA","Actor1_Country":"AUS","Actor2":"ARNO","Actor2_Country":"ITA","Code":43,"Class":1,"Action_Location":"Port Augusta, South Australia, Australia","Lat":-32.496,"Long":137.773,"Timestamp":20181105071500,"Source":"https:\/\/www.transcontinental.com.au\/story\/5740223\/addressing-the-drought\/?cs=1538"},{"ID":800075925,"Actor1":"AUSTRALIA","Actor1_Country":"AUS","Actor2":"ARNO","Actor2_Country":"ITA","Code":43,"Class":1,"Action_Location":"Port Augusta, South Australia, Australia","Lat":-32.496,"Long":137.773,"Timestamp":20181105071500,"Source":"https:\/\/www.transcontinental.com.au\/story\/5740223\/addressing-the-drought\/?cs=1538"},{"ID":800075926,"Actor1":"AUSTRALIA","Actor1_Country":"AUS","Actor2":"ARNO","Actor2_Country":"ITA","Code":43,"Class":1,"Action_Location":"Port Augusta, South Australia, Australia","Lat":-32.496,"Long":137.773,"Timestamp":20181105071500,"Source":"https:\/\/www.transcontinental.com.au\/story\/5740223\/addressing-the-drought\/?cs=1538"},{"ID":800075927,"Actor1":"AUSTRALIA","Actor1_Country":"AUS","Actor2":"JUDGE","Actor2_Country":null,"Code":20,"Class":1,"Action_Location":"Melbourne, Victoria, Australia","Lat":-37.8167,"Long":144.967,"Timestamp":20181105071500,"Source":"https:\/\/www.rrr.org.au\/explore\/news\/05-11-18-smartarts"},{"ID":800075928,"Actor1":"AUSTRALIA","Actor1_Country":"AUS","Actor2":"SENATOR","Actor2_Country":null,"Code":11,"Class":1,"Action_Location":"Flinders Ranges, South Australia, Australia","Lat":-31.4167,"Long":138.75,"Timestamp":20181105071500,"Source":"https:\/\/www.sbs.com.au\/nitv\/article\/2018\/11\/05\/any-election-delay-nuclear-waste-dump-vote-more-time-lobby"},{"ID":800075929,"Actor1":"AUSTRALIA","Actor1_Country":"AUS","Actor2":"REBEL","Actor2_Country":null,"Code":12,"Class":1,"Action_Location":"Australia","Lat":-25.0,"Long":135.0,"Timestamp":20181105071500,"Source":"https:\/\/thenewdaily.com.au\/entertainment\/celebrity\/2018\/11\/05\/rebel-wilson-plus-size-gaffe\/"},{"ID":800075930,"Actor1":"MELBOURNE","Actor1_Country":"AUS","Actor2":"RAIDER","Actor2_Country":null,"Code":20,"Class":1,"Action_Location":"Ireland","Lat":53.0,"Long":-8.0,"Timestamp":20181105071500,"Source":"https:\/\/www.dailyadvertiser.com.au\/story\/5740762\/wagga-experts-favour-foreign-raiders-in-melbourne-cup\/?cs=9402"},{"ID":800075931,"Actor1":"AUSTRALIA","Actor1_Country":"AUS","Actor2":"REBEL","Actor2_Country":null,"Code":80,"Class":2,"Action_Location":"Australia","Lat":-25.0,"Long":135.0,"Timestamp":20181105071500,"Source":"https:\/\/thenewdaily.com.au\/entertainment\/celebrity\/2018\/11\/05\/rebel-wilson-plus-size-gaffe\/"},{"ID":800075932,"Actor1":"AUSTRALIA","Actor1_Country":"AUS","Actor2":"THE INTERNATIONAL COMMUNITY","Actor2_Country":null,"Code":100,"Class":3,"Action_Location":"Australia","Lat":-25.0,"Long":135.0,"Timestamp":20181105071500,"Source":"https:\/\/www.radionz.co.nz\/international\/pacific-news\/370266\/two-liberation-army-members-killed-in-latest-papua-fighting"},{"ID":800075933,"Actor1":"AUSSIE","Actor1_Country":"AUS","Actor2":"THE US","Actor2_Country":"USA","Code":43,"Class":1,"Action_Location":"Australia","Lat":-25.0,"Long":135.0,"Timestamp":20181105071500,"Source":"http:\/\/www.travelweekly.com.au\/article\/heres-how-the-us-trade-war-with-china-is-affecting-the-aussie-dollar\/"},{"ID":800075934,"Actor1":"MELBOURNE","Actor1_Country":"AUS","Actor2":"UNITED STATES","Actor2_Country":"USA","Code":51,"Class":1,"Action_Location":"Georgia, United States","Lat":32.9866,"Long":-83.6487,"Timestamp":20181105071500,"Source":"https:\/\/www.theadvocate.com.au\/story\/5741345\/meet-georgia-aussie-youtube-star-with-388000-subscribers\/"},{"ID":800075935,"Actor1":"AUSTRALIA","Actor1_Country":"AUS","Actor2":"INDIGENOUS","Actor2_Country":null,"Code":20,"Class":1,"Action_Location":"University Of South Australia, South Australia, Australia","Lat":-34.8088,"Long":138.62,"Timestamp":20181105071500,"Source":"https:\/\/www.sbs.com.au\/nitv\/nitv-news\/article\/2018\/11\/05\/experts-say-indigenous-knowledge-will-enrich-science-education"},{"ID":800075939,"Actor1":"AUSTRALIA","Actor1_Country":"AUS","Actor2":"NATIONALS","Actor2_Country":null,"Code":52,"Class":1,"Action_Location":"Gippsland, Victoria, Australia","Lat":-38.0,"Long":147.5,"Timestamp":20181105071500,"Source":"http:\/\/www.gippslandtimes.com.au\/story\/5740028\/lib-nats-commit-money-for-part-of-the-princes-highway\/?cs=1450"},{"ID":800075940,"Actor1":"AUSTRALIA","Actor1_Country":"AUS","Actor2":"SCHOOL","Actor2_Country":null,"Code":100,"Class":3,"Action_Location":"Sydney, New South Wales, Australia","Lat":-33.8833,"Long":151.217,"Timestamp":20181105071500,"Source":"https:\/\/www.dailymail.co.uk\/news\/article-6353135\/Parents-afraid-rising-prices-splash-hundreds-thousands-dollars-buy-tiny-tots-home.html"},{"ID":800075941,"Actor1":"AUSTRALIA","Actor1_Country":"AUS","Actor2":"SCHOOL","Actor2_Country":null,"Code":100,"Class":3,"Action_Location":"Sydney, New South Wales, Australia","Lat":-33.8833,"Long":151.217,"Timestamp":20181105071500,"Source":"https:\/\/www.dailymail.co.uk\/news\/article-6353135\/Parents-afraid-rising-prices-splash-hundreds-thousands-dollars-buy-tiny-tots-home.html"},{"ID":800075942,"Actor1":"AUSTRALIA","Actor1_Country":"AUS","Actor2":"HOSPITAL","Actor2_Country":null,"Code":100,"Class":3,"Action_Location":"Sydney, New South Wales, Australia","Lat":-33.8833,"Long":151.217,"Timestamp":20181105071500,"Source":"https:\/\/www.dailymail.co.uk\/news\/article-6353135\/Parents-afraid-rising-prices-splash-hundreds-thousands-dollars-buy-tiny-tots-home.html"},{"ID":800075943,"Actor1":"AUSTRALIA","Actor1_Country":"AUS","Actor2":"HOSPITAL","Actor2_Country":null,"Code":100,"Class":3,"Action_Location":"Sydney, New South Wales, Australia","Lat":-33.8833,"Long":151.217,"Timestamp":20181105071500,"Source":"https:\/\/www.dailymail.co.uk\/news\/article-6353135\/Parents-afraid-rising-prices-splash-hundreds-thousands-dollars-buy-tiny-tots-home.html"},{"ID":800075945,"Actor1":"AUSTRALIA","Actor1_Country":"AUS","Actor2":"AUSTRALIA","Actor2_Country":"AUS","Code":43,"Class":1,"Action_Location":"Monash, South Australia, Australia","Lat":-34.2333,"Long":140.567,"Timestamp":20181105071500,"Source":"https:\/\/www.sciencealert.com\/tiny-ancient-metal-poor-star-in-the-milky-way-could-be-one-of-the-oldest-in-the-universe"},{"ID":800075948,"Actor1":"AUSTRALIA","Actor1_Country":"AUS","Actor2":"CANBERRA","Actor2_Country":"AUS","Code":20,"Class":1,"Action_Location":"Canberra, Australian Capital Territory, Australia","Lat":-35.2833,"Long":149.217,"Timestamp":20181105071500,"Source":"http:\/\/www.theshovel.com.au\/2018\/11\/05\/virgin-australia-passengers-to-be-asked-to-sing-national-anthem-before-take-off\/"},{"ID":800075949,"Actor1":"AUSTRALIA","Actor1_Country":"AUS","Actor2":"VICTORIA","Actor2_Country":"AUS","Code":51,"Class":1,"Action_Location":"Canberra, Australian Capital Territory, Australia","Lat":-35.2833,"Long":149.217,"Timestamp":20181105071500,"Source":"http:\/\/www.xinhuanet.com\/english\/2018-11\/05\/c_137583360.htm"},{"ID":800075950,"Actor1":"AUSTRALIA","Actor1_Country":"AUS","Actor2":"CHINA","Actor2_Country":"CHN","Code":20,"Class":1,"Action_Location":"China","Lat":35.0,"Long":105.0,"Timestamp":20181105071500,"Source":"http:\/\/www.xinhuanet.com\/english\/2018-11\/05\/c_137583360.htm"},{"ID":800075951,"Actor1":"AUSTRALIA","Actor1_Country":"AUS","Actor2":"CHINA","Actor2_Country":"CHN","Code":51,"Class":1,"Action_Location":"Canberra, Australian Capital Territory, Australia","Lat":-35.2833,"Long":149.217,"Timestamp":20181105071500,"Source":"http:\/\/www.xinhuanet.com\/english\/2018-11\/05\/c_137583360.htm"},{"ID":800075952,"Actor1":"AUSTRALIA","Actor1_Country":"AUS","Actor2":"CHINA","Actor2_Country":"CHN","Code":51,"Class":1,"Action_Location":"Canberra, Australian Capital Territory, Australia","Lat":-35.2833,"Long":149.217,"Timestamp":20181105071500,"Source":"http:\/\/www.xinhuanet.com\/english\/2018-11\/05\/c_137583360.htm"},{"ID":800075954,"Actor1":"AZERBAIJAN","Actor1_Country":"AZE","Actor2":"THE US","Actor2_Country":"USA","Code":125,"Class":3,"Action_Location":"Jerusalem, Israel (general), Israel","Lat":31.7667,"Long":35.2333,"Timestamp":20181105071500,"Source":"https:\/\/www.wsws.org\/en\/articles\/2018\/11\/05\/isra-n05.html"},{"ID":800075955,"Actor1":"AZERBAIJAN","Actor1_Country":"AZE","Actor2":"THE US","Actor2_Country":"USA","Code":125,"Class":3,"Action_Location":"Hungary","Lat":47.0,"Long":20.0,"Timestamp":20181105071500,"Source":"https:\/\/www.wsws.org\/en\/articles\/2018\/11\/05\/isra-n05.html"},{"ID":800075959,"Actor1":"BRAZIL","Actor1_Country":"BRA","Actor2":"MEDIA","Actor2_Country":null,"Code":71,"Class":2,"Action_Location":"Tehran, Tehran, Iran","Lat":35.75,"Long":51.5148,"Timestamp":20181105071500,"Source":"https:\/\/www.businessinsider.com.au\/the-10-most-important-things-in-the-world-right-now-november-5-2018-11"},{"ID":800075960,"Actor1":"BRAZIL","Actor1_Country":"BRA","Actor2":"MEDIA","Actor2_Country":null,"Code":71,"Class":2,"Action_Location":"Brazil","Lat":-10.0,"Long":-55.0,"Timestamp":20181105071500,"Source":"https:\/\/www.businessinsider.com.au\/the-10-most-important-things-in-the-world-right-now-november-5-2018-11"},{"ID":800075961,"Actor1":"BARBADOS","Actor1_Country":"BRB","Actor2":"BUSINESS","Actor2_Country":null,"Code":40,"Class":1,"Action_Location":"Barbados","Lat":13.166667,"Long":-59.533333,"Timestamp":20181105071500,"Source":"https:\/\/www.barbadosadvocate.com\/business\/business-monday-ready-move-barbados-forward"},{"ID":800075962,"Actor1":"BARBADOS","Actor1_Country":"BRB","Actor2":"GOVERNMENT","Actor2_Country":null,"Code":10,"Class":1,"Action_Location":"Boarded Hall, Christ Church, Barbados","Lat":13.1,"Long":-59.5333,"Timestamp":20181105071500,"Source":"https:\/\/www.barbadosadvocate.com\/columns\/editorial-step-plate"},{"ID":800075963,"Actor1":"BARBADOS","Actor1_Country":"BRB","Actor2":"GOVERNMENT","Actor2_Country":null,"Code":20,"Class":1,"Action_Location":"Boarded Hall, Christ Church, Barbados","Lat":13.1,"Long":-59.5333,"Timestamp":20181105071500,"Source":"https:\/\/www.barbadosadvocate.com\/columns\/editorial-step-plate"},{"ID":800075991,"Actor1":"AIRLINE","Actor1_Country":null,"Actor2":"AFRICA","Actor2_Country":"AFR","Code":73,"Class":2,"Action_Location":"South Africa","Lat":-30.0,"Long":26.0,"Timestamp":20181105071500,"Source":"https:\/\/www.iol.co.za\/business-report\/opinion\/saa-the-eye-of-mbowenisperfect-storm-17774210"},{"ID":800075992,"Actor1":"BUSINESS","Actor1_Country":null,"Actor2":"DUBAI","Actor2_Country":"ARE","Code":40,"Class":1,"Action_Location":"Dubai, Dubayy, United Arab Emirates","Lat":25.2522,"Long":55.28,"Timestamp":20181105071500,"Source":"http:\/\/www.itp.net\/618311-dubai-customs-hosts-blockchain-workshop"},{"ID":800075993,"Actor1":"BUSINESS","Actor1_Country":null,"Actor2":"VICTORIA","Actor2_Country":"AUS","Code":12,"Class":1,"Action_Location":"Swindon, Swindon, United Kingdom","Lat":51.5167,"Long":-1.78333,"Timestamp":20181105071500,"Source":"https:\/\/www.stokesentinel.co.uk\/whats-on\/whats-on-news\/chinese-supermarket-unveils-plans-drive-2177485"},{"ID":800075994,"Actor1":"INVESTOR","Actor1_Country":null,"Actor2":"BARBADOS","Actor2_Country":"BRB","Code":20,"Class":1,"Action_Location":"Boarded Hall, Christ Church, Barbados","Lat":13.1,"Long":-59.5333,"Timestamp":20181105071500,"Source":"https:\/\/www.barbadosadvocate.com\/columns\/editorial-step-plate"},{"ID":800075995,"Actor1":"BUSINESS","Actor1_Country":null,"Actor2":"BARBADOS","Actor2_Country":"BRB","Code":40,"Class":1,"Action_Location":"Barbados","Lat":13.166667,"Long":-59.533333,"Timestamp":20181105071500,"Source":"https:\/\/www.barbadosadvocate.com\/business\/business-monday-ready-move-barbados-forward"},{"ID":800075996,"Actor1":"COMPANY","Actor1_Country":null,"Actor2":"SWITZERLAND","Actor2_Country":"CHE","Code":36,"Class":1,"Action_Location":"Washington, District of Columbia, United States","Lat":38.8951,"Long":-77.0364,"Timestamp":20181105071500,"Source":"https:\/\/www.thestar.com.my\/tech\/tech-news\/2018\/11\/05\/amazon-exec-rips-leaking-to-bezos-post-on-headquarters\/"},{"ID":800075997,"Actor1":"COMPANY","Actor1_Country":null,"Actor2":"CHILE","Actor2_Country":"CHL","Code":40,"Class":1,"Action_Location":"Chile","Lat":-30.0,"Long":-71.0,"Timestamp":20181105071500,"Source":"http:\/\/stockguru.com\/2018\/11\/04\/sprott-resource-holdings-inc-announces-positive-results-from-technical-studies-on-the-minera-tres-valles-copper-project\/"},{"ID":800075998,"Actor1":"ENTREPRENEUR","Actor1_Country":null,"Actor2":"SHANGHAI","Actor2_Country":"CHN","Code":43,"Class":1,"Action_Location":"Shanghai, Shanghai, China","Lat":31.2222,"Long":121.458,"Timestamp":20181105071500,"Source":"http:\/\/www.xinhuanet.com\/english\/2018-11\/05\/c_137583402.htm"},{"ID":800075999,"Actor1":"INDUSTRY","Actor1_Country":null,"Actor2":"GANG","Actor2_Country":null,"Code":60,"Class":2,"Action_Location":"Sweden","Lat":62.0,"Long":15.0,"Timestamp":20181105071500,"Source":"https:\/\/www.bbc.com\/news\/uk-northern-ireland-46092085"},{"ID":800076000,"Actor1":"AIRLINE","Actor1_Country":null,"Actor2":"RETIRED","Actor2_Country":null,"Code":51,"Class":1,"Action_Location":"Dallas, Texas, United States","Lat":32.7831,"Long":-96.8067,"Timestamp":20181105071500,"Source":"https:\/\/www.dailyadvertiser.com.au\/story\/5739575\/waggas-veterans-need-more-than-priority-boarding\/?cs=9402"},{"ID":800076001,"Actor1":"AIRLINE","Actor1_Country":null,"Actor2":"RETIRED","Actor2_Country":null,"Code":100,"Class":3,"Action_Location":"Dallas, Texas, United States","Lat":32.7831,"Long":-96.8067,"Timestamp":20181105071500,"Source":"https:\/\/www.dailyadvertiser.com.au\/story\/5739575\/waggas-veterans-need-more-than-priority-boarding\/?cs=9402"},{"ID":800076004,"Actor1":"INVESTOR","Actor1_Country":null,"Actor2":"GOVERNMENT","Actor2_Country":null,"Code":13,"Class":1,"Action_Location":"Beijing, Beijing, China","Lat":39.9289,"Long":116.388,"Timestamp":20181105071500,"Source":"https:\/\/www.cnn.com\/2018\/11\/05\/asia\/xi-jinping-shanghai-trade-us-intl\/"},{"ID":800076005,"Actor1":"COMPANIES","Actor1_Country":null,"Actor2":"MINIST","Actor2_Country":null,"Code":57,"Class":1,"Action_Location":"Sakhir, Al Janubiyah, Bahrain","Lat":26.0625,"Long":50.5272,"Timestamp":20181105071500,"Source":"http:\/\/www.tradearabia.com\/news\/TTN_347181.html"},{"ID":800076006,"Actor1":"INDUSTRY","Actor1_Country":null,"Actor2":"IRELAND","Actor2_Country":"IRL","Code":20,"Class":1,"Action_Location":"Jersey","Lat":49.216667,"Long":-2.116667,"Timestamp":20181105071500,"Source":"https:\/\/www.irishtimes.com\/business\/health-pharma\/brindley-healthcare-buys-laois-nursing-home-1.3686081"},{"ID":800076007,"Actor1":"INDUSTRY","Actor1_Country":null,"Actor2":"IRELAND","Actor2_Country":"IRL","Code":114,"Class":3,"Action_Location":"Jersey","Lat":49.216667,"Long":-2.116667,"Timestamp":20181105071500,"Source":"https:\/\/www.irishtimes.com\/business\/health-pharma\/brindley-healthcare-buys-laois-nursing-home-1.3686081"},{"ID":800076008,"Actor1":"COMPANY","Actor1_Country":null,"Actor2":"IRELAND","Actor2_Country":"IRL","Code":182,"Class":4,"Action_Location":"Annacotty, Limerick, Ireland","Lat":52.6681,"Long":-8.54722,"Timestamp":20181105071500,"Source":"https:\/\/www.breakingnews.ie\/business\/med-device-firm-is-a-class-apart-883154.html"},{"ID":800076009,"Actor1":"COMPANY","Actor1_Country":null,"Actor2":"IRELAND","Actor2_Country":"IRL","Code":182,"Class":4,"Action_Location":"United Kingdom","Lat":54.0,"Long":-4.0,"Timestamp":20181105071500,"Source":"https:\/\/www.breakingnews.ie\/business\/med-device-firm-is-a-class-apart-883154.html"},{"ID":800076012,"Actor1":"COMPANY","Actor1_Country":null,"Actor2":"WEBSITE","Actor2_Country":null,"Code":10,"Class":1,"Action_Location":"Australia","Lat":-25.0,"Long":135.0,"Timestamp":20181105071500,"Source":"https:\/\/www.wkrb13.com\/2018\/11\/05\/thestreet-downgrades-nisource-ni-to-c.html"},{"ID":800076014,"Actor1":"AIRLINE","Actor1_Country":null,"Actor2":"BOEING","Actor2_Country":"USA","Code":10,"Class":1,"Action_Location":"Garuda, Jawa Barat, Indonesia","Lat":-7.0065,"Long":108.134,"Timestamp":20181105071500,"Source":"https:\/\/www.myplainview.com\/news\/world\/article\/Previous-flight-of-crashed-Lion-Air-jet-terrified-13350097.php"},{"ID":800076015,"Actor1":"INDUSTRY","Actor1_Country":null,"Actor2":"SOUTHEAST ASIA","Actor2_Country":"SEA","Code":120,"Class":3,"Action_Location":"Cheung Sha Wan, Hong Kong (general), Hong Kong","Lat":22.2333,"Long":114.0,"Timestamp":20181105071500,"Source":"https:\/\/hr.cpjobs.com\/blog\/eight-jobs-bygone-era"},{"ID":800076016,"Actor1":"COMPANY","Actor1_Country":null,"Actor2":"UNITED STATES","Actor2_Country":"USA","Code":40,"Class":1,"Action_Location":"Crystal City, Texas, United States","Lat":28.6775,"Long":-99.8281,"Timestamp":20181105071500,"Source":"https:\/\/www.thestar.com.my\/tech\/tech-news\/2018\/11\/05\/amazon-exec-rips-leaking-to-bezos-post-on-headquarters\/"},{"ID":800076017,"Actor1":"COMPANY","Actor1_Country":null,"Actor2":"UNITED STATES","Actor2_Country":"USA","Code":40,"Class":1,"Action_Location":"Canada","Lat":60.0,"Long":-96.0,"Timestamp":20181105071500,"Source":"https:\/\/www.thestar.com.my\/tech\/tech-news\/2018\/11\/05\/amazon-exec-rips-leaking-to-bezos-post-on-headquarters\/"},{"ID":800076018,"Actor1":"COMPANY","Actor1_Country":null,"Actor2":"UNITED STATES","Actor2_Country":"USA","Code":40,"Class":1,"Action_Location":"Canada","Lat":60.0,"Long":-96.0,"Timestamp":20181105071500,"Source":"https:\/\/www.thestar.com.my\/tech\/tech-news\/2018\/11\/05\/amazon-exec-rips-leaking-to-bezos-post-on-headquarters\/"},{"ID":800076019,"Actor1":"WAITRESS","Actor1_Country":null,"Actor2":"NEW YORK","Actor2_Country":"USA","Code":172,"Class":4,"Action_Location":"Brooklyn, New York, United States","Lat":42.3442,"Long":-75.1704,"Timestamp":20181105071500,"Source":"https:\/\/www.dailymail.co.uk\/news\/article-6353235\/Dad-shot-outside-Brooklyn-club-defending-waitress-harassment-gave-helping-hand.html"},{"ID":800076020,"Actor1":"WAITRESS","Actor1_Country":null,"Actor2":"NEW YORK","Actor2_Country":"USA","Code":193,"Class":4,"Action_Location":"New York, United States","Lat":42.1497,"Long":-74.9384,"Timestamp":20181105071500,"Source":"https:\/\/www.dailymail.co.uk\/news\/article-6353235\/Dad-shot-outside-Brooklyn-club-defending-waitress-harassment-gave-helping-hand.html"},{"ID":800076024,"Actor1":"CORPORATION","Actor1_Country":null,"Actor2":"AUSTRALIA","Actor2_Country":"AUS","Code":10,"Class":1,"Action_Location":"Yirrkala, Northern Territory, Australia","Lat":-12.251,"Long":136.894,"Timestamp":20181105071500,"Source":"https:\/\/www.sbs.com.au\/nitv\/nitv-news\/article\/2018\/11\/02\/yirrkala-bark-petitions-aboriginal-owned-mining"},{"ID":800076029,"Actor1":"CANADIAN","Actor1_Country":"CAN","Actor2":"POLICE","Actor2_Country":null,"Code":173,"Class":4,"Action_Location":"United States","Lat":39.828175,"Long":-98.5795,"Timestamp":20181105071500,"Source":"https:\/\/ahvalnews.com\/deportation\/christian-evangelist-arrested-after-brunsons-release-told-leave-turkey"},{"ID":800076030,"Actor1":"CANADIAN","Actor1_Country":"CAN","Actor2":"POLICE","Actor2_Country":null,"Code":173,"Class":4,"Action_Location":"United States","Lat":39.828175,"Long":-98.5795,"Timestamp":20181105071500,"Source":"https:\/\/ahvalnews.com\/deportation\/christian-evangelist-arrested-after-brunsons-release-told-leave-turkey"},{"ID":800076031,"Actor1":"NOVA SCOTIA","Actor1_Country":"CAN","Actor2":"COAST GUARD","Actor2_Country":null,"Code":43,"Class":1,"Action_Location":"Puerto Rico","Lat":18.2359,"Long":-66.4838,"Timestamp":20181105071500,"Source":"http:\/\/www.somdnews.com\/enterprise\/bonus\/veterans_day\/three-generations-strong\/article_056f2fde-268c-5f47-b4ea-0f8a197d9ecc.html"},{"ID":800076032,"Actor1":"CANADIAN","Actor1_Country":"CAN","Actor2":"TURKEY","Actor2_Country":"TUR","Code":63,"Class":2,"Action_Location":"Canada","Lat":60.0,"Long":-96.0,"Timestamp":20181105071500,"Source":"https:\/\/ahvalnews.com\/deportation\/christian-evangelist-arrested-after-brunsons-release-told-leave-turkey"},{"ID":800076033,"Actor1":"OTTAWA","Actor1_Country":"CAN","Actor2":"UNITED STATES","Actor2_Country":"USA","Code":90,"Class":2,"Action_Location":"Ottawa County, Michigan, United States","Lat":42.95,"Long":-86.0006,"Timestamp":20181105071500,"Source":"https:\/\/www.thestar.com.my\/news\/world\/2018\/11\/05\/father-accidentally-runs-over-3yearold-son-twice-while-trickortreating\/"},{"ID":800076034,"Actor1":"SWISS","Actor1_Country":"CHE","Actor2":"COMPANIES","Actor2_Country":null,"Code":120,"Class":3,"Action_Location":"Switzerland","Lat":47.0,"Long":8.0,"Timestamp":20181105071500,"Source":"https:\/\/www.tourism-review.com\/swiss-tourism-reports-low-revenues-news10815"},{"ID":800076035,"Actor1":"ZURICH","Actor1_Country":"CHE","Actor2":"PARIS","Actor2_Country":"FRA","Code":160,"Class":4,"Action_Location":"London, London, City of, United Kingdom","Lat":51.5,"Long":-0.116667,"Timestamp":20181105071500,"Source":"https:\/\/themalaysianreserve.com\/2018\/11\/05\/condor-flies-to-msia-opening-the-kl-frankfurt-sector\/"},{"ID":800076036,"Actor1":"CHILE","Actor1_Country":"CHL","Actor2":"COMPANY","Actor2_Country":null,"Code":40,"Class":1,"Action_Location":"Chile","Lat":-30.0,"Long":-71.0,"Timestamp":20181105071500,"Source":"http:\/\/stockguru.com\/2018\/11\/04\/sprott-resource-holdings-inc-announces-positive-results-from-technical-studies-on-the-minera-tres-valles-copper-project\/"},{"ID":800076037,"Actor1":"CHILE","Actor1_Country":"CHL","Actor2":"COMPANY","Actor2_Country":null,"Code":70,"Class":2,"Action_Location":"United States","Lat":39.828175,"Long":-98.5795,"Timestamp":20181105071500,"Source":"http:\/\/stockguru.com\/2018\/11\/04\/sprott-resource-holdings-inc-announces-positive-results-from-technical-studies-on-the-minera-tres-valles-copper-project\/"},{"ID":800076038,"Actor1":"CHILE","Actor1_Country":"CHL","Actor2":"CHILE","Actor2_Country":"CHL","Code":10,"Class":1,"Action_Location":"Rome, Lazio, Italy","Lat":41.9,"Long":12.4833,"Timestamp":20181105071500,"Source":"https:\/\/cruxnow.com\/church-in-the-americas\/2018\/11\/05\/chile-abuse-survivors-lay-out-their-vision-of-church-reform\/"},{"ID":800076039,"Actor1":"CHILE","Actor1_Country":"CHL","Actor2":"CHILE","Actor2_Country":"CHL","Code":10,"Class":1,"Action_Location":"Boston, Massachusetts, United States","Lat":42.3584,"Long":-71.0598,"Timestamp":20181105071500,"Source":"https:\/\/cruxnow.com\/church-in-the-americas\/2018\/11\/05\/chile-abuse-survivors-lay-out-their-vision-of-church-reform\/"},{"ID":800076040,"Actor1":"CHILE","Actor1_Country":"CHL","Actor2":"CHILE","Actor2_Country":"CHL","Code":10,"Class":1,"Action_Location":"Chile","Lat":-30.0,"Long":-71.0,"Timestamp":20181105071500,"Source":"https:\/\/cruxnow.com\/church-in-the-americas\/2018\/11\/05\/chile-abuse-survivors-lay-out-their-vision-of-church-reform\/"},{"ID":800076041,"Actor1":"CHILE","Actor1_Country":"CHL","Actor2":"SPAIN","Actor2_Country":"ESP","Code":43,"Class":1,"Action_Location":"Chile","Lat":-30.0,"Long":-71.0,"Timestamp":20181105071500,"Source":"https:\/\/cruxnow.com\/church-in-the-americas\/2018\/11\/05\/chile-abuse-survivors-lay-out-their-vision-of-church-reform\/"},{"ID":800076042,"Actor1":"CHILE","Actor1_Country":"CHL","Actor2":"MALTESE","Actor2_Country":"MLT","Code":43,"Class":1,"Action_Location":"Chile","Lat":-30.0,"Long":-71.0,"Timestamp":20181105071500,"Source":"https:\/\/cruxnow.com\/church-in-the-americas\/2018\/11\/05\/chile-abuse-survivors-lay-out-their-vision-of-church-reform\/"},{"ID":800076043,"Actor1":"CHILE","Actor1_Country":"CHL","Actor2":"BISHOP","Actor2_Country":null,"Code":42,"Class":1,"Action_Location":"Chile","Lat":-30.0,"Long":-71.0,"Timestamp":20181105071500,"Source":"https:\/\/cruxnow.com\/church-in-the-americas\/2018\/11\/05\/chile-abuse-survivors-lay-out-their-vision-of-church-reform\/"},{"ID":800076044,"Actor1":"CHILE","Actor1_Country":"CHL","Actor2":"VATICAN","Actor2_Country":"VAT","Code":42,"Class":1,"Action_Location":"Boston, Massachusetts, United States","Lat":42.3584,"Long":-71.0598,"Timestamp":20181105071500,"Source":"https:\/\/cruxnow.com\/church-in-the-americas\/2018\/11\/05\/chile-abuse-survivors-lay-out-their-vision-of-church-reform\/"},{"ID":800076045,"Actor1":"CHILE","Actor1_Country":"CHL","Actor2":"CHILE","Actor2_Country":"CHL","Code":112,"Class":3,"Action_Location":"Chile","Lat":-30.0,"Long":-71.0,"Timestamp":20181105071500,"Source":"https:\/\/cruxnow.com\/church-in-the-americas\/2018\/11\/05\/chile-abuse-survivors-lay-out-their-vision-of-church-reform\/"},{"ID":800076058,"Actor1":"CHINA","Actor1_Country":"CHN","Actor2":"ARGENTINA","Actor2_Country":"ARG","Code":10,"Class":1,"Action_Location":"Argentina","Lat":-34.0,"Long":-64.0,"Timestamp":20181105071500,"Source":"https:\/\/www.cnn.com\/2018\/11\/05\/asia\/xi-jinping-shanghai-trade-us-intl\/"},{"ID":800076059,"Actor1":"CHINA","Actor1_Country":"CHN","Actor2":"ARGENTINA","Actor2_Country":"ARG","Code":36,"Class":1,"Action_Location":"Beijing, Beijing, China","Lat":39.9289,"Long":116.388,"Timestamp":20181105071500,"Source":"https:\/\/www.cnn.com\/2018\/11\/05\/asia\/xi-jinping-shanghai-trade-us-intl\/"},{"ID":800076060,"Actor1":"CHINA","Actor1_Country":"CHN","Actor2":"ARGENTINA","Actor2_Country":"ARG","Code":40,"Class":1,"Action_Location":"Beijing, Beijing, China","Lat":39.9289,"Long":116.388,"Timestamp":20181105071500,"Source":"https:\/\/www.cnn.com\/2018\/11\/05\/asia\/xi-jinping-shanghai-trade-us-intl\/"},{"ID":800076061,"Actor1":"CHINA","Actor1_Country":"CHN","Actor2":"MIGRANT","Actor2_Country":null,"Code":10,"Class":1,"Action_Location":"Montreal, Quebec, Canada","Lat":45.5,"Long":-73.5833,"Timestamp":20181105071500,"Source":"https:\/\/www.businessinsider.com.au\/the-10-most-important-things-in-the-world-right-now-november-5-2018-11"},{"ID":800076062,"Actor1":"CHINA","Actor1_Country":"CHN","Actor2":"MIGRANT","Actor2_Country":null,"Code":10,"Class":1,"Action_Location":"China","Lat":35.0,"Long":105.0,"Timestamp":20181105071500,"Source":"https:\/\/www.businessinsider.com.au\/the-10-most-important-things-in-the-world-right-now-november-5-2018-11"},{"ID":800076063,"Actor1":"CHINA","Actor1_Country":"CHN","Actor2":"MIGRANT","Actor2_Country":null,"Code":42,"Class":1,"Action_Location":"China","Lat":35.0,"Long":105.0,"Timestamp":20181105071500,"Source":"https:\/\/www.businessinsider.com.au\/the-10-most-important-things-in-the-world-right-now-november-5-2018-11"},{"ID":800076064,"Actor1":"CHINA","Actor1_Country":"CHN","Actor2":"GERMANY","Actor2_Country":"DEU","Code":10,"Class":1,"Action_Location":"Germany","Lat":51.5,"Long":10.5,"Timestamp":20181105071500,"Source":"https:\/\/theiranproject.com\/blog\/2018\/11\/05\/trump-wrong-to-resume-sanctions-against-iran-analyst\/"},{"ID":800076065,"Actor1":"CHINA","Actor1_Country":"CHN","Actor2":"GERMANY","Actor2_Country":"DEU","Code":10,"Class":1,"Action_Location":"Germany","Lat":51.5,"Long":10.5,"Timestamp":20181105071500,"Source":"https:\/\/theiranproject.com\/blog\/2018\/11\/05\/trump-wrong-to-resume-sanctions-against-iran-analyst\/"},{"ID":800076066,"Actor1":"CHINA","Actor1_Country":"CHN","Actor2":"IRAN","Actor2_Country":"IRN","Code":10,"Class":1,"Action_Location":"China","Lat":35.0,"Long":105.0,"Timestamp":20181105071500,"Source":"https:\/\/theiranproject.com\/blog\/2018\/11\/05\/trump-wrong-to-resume-sanctions-against-iran-analyst\/"},{"ID":800076067,"Actor1":"CHINA","Actor1_Country":"CHN","Actor2":"IRAN","Actor2_Country":"IRN","Code":10,"Class":1,"Action_Location":"Tehran, Tehran, Iran","Lat":35.75,"Long":51.5148,"Timestamp":20181105071500,"Source":"https:\/\/theiranproject.com\/blog\/2018\/11\/05\/trump-wrong-to-resume-sanctions-against-iran-analyst\/"},{"ID":800076068,"Actor1":"CHINESE","Actor1_Country":"CHN","Actor2":"DELEGATE","Actor2_Country":null,"Code":10,"Class":1,"Action_Location":"Beijing, Beijing, China","Lat":39.9289,"Long":116.388,"Timestamp":20181105071500,"Source":"https:\/\/kxlh.com\/cnn-asia-pacific\/2018\/11\/04\/chinas-xi-jinping-slams-winner-takes-all-approach-to-trade\/"},{"ID":800076069,"Actor1":"CHINESE","Actor1_Country":"CHN","Actor2":"DELEGATE","Actor2_Country":null,"Code":10,"Class":1,"Action_Location":"Shanghai, Shanghai, China","Lat":31.2222,"Long":121.458,"Timestamp":20181105071500,"Source":"https:\/\/www.cnn.com\/2018\/11\/05\/asia\/xi-jinping-shanghai-trade-us-intl\/"},{"ID":800076070,"Actor1":"CHINA","Actor1_Country":"CHN","Actor2":"DELEGATE","Actor2_Country":null,"Code":13,"Class":1,"Action_Location":"Beijing, Beijing, China","Lat":39.9289,"Long":116.388,"Timestamp":20181105071500,"Source":"https:\/\/kxlh.com\/cnn-asia-pacific\/2018\/11\/04\/chinas-xi-jinping-slams-winner-takes-all-approach-to-trade\/"},{"ID":800076071,"Actor1":"CHINA","Actor1_Country":"CHN","Actor2":"DELEGATE","Actor2_Country":null,"Code":13,"Class":1,"Action_Location":"Shanghai, Shanghai, China","Lat":31.2222,"Long":121.458,"Timestamp":20181105071500,"Source":"https:\/\/www.cnn.com\/2018\/11\/05\/asia\/xi-jinping-shanghai-trade-us-intl\/"},{"ID":800076072,"Actor1":"SHANGHAI","Actor1_Country":"CHN","Actor2":"REPRESENTATIVES","Actor2_Country":null,"Code":40,"Class":1,"Action_Location":"Shanghai, Shanghai, China","Lat":31.2222,"Long":121.458,"Timestamp":20181105071500,"Source":"http:\/\/www.xinhuanet.com\/english\/2018-11\/05\/c_137583402.htm"},{"ID":800076073,"Actor1":"BEIJING","Actor1_Country":"CHN","Actor2":"THE ASIA SOCIETY","Actor2_Country":"ASA","Code":10,"Class":1,"Action_Location":"Beijing, Beijing, China","Lat":39.9289,"Long":116.388,"Timestamp":20181105071500,"Source":"https:\/\/www.cnn.com\/2018\/11\/05\/asia\/xi-jinping-shanghai-trade-us-intl\/"},{"ID":800076074,"Actor1":"CHINESE","Actor1_Country":"CHN","Actor2":"RUSSIAN","Actor2_Country":"RUS","Code":10,"Class":1,"Action_Location":"Russia","Lat":60.0,"Long":100.0,"Timestamp":20181105071500,"Source":"https:\/\/www.aljazeera.com\/news\/2018\/11\/china-xi-pledges-tariffs-open-market-access-181105014135952.html"},{"ID":800076075,"Actor1":"CHINA","Actor1_Country":"CHN","Actor2":"RUSSIAN","Actor2_Country":"RUS","Code":13,"Class":1,"Action_Location":"Russia","Lat":60.0,"Long":100.0,"Timestamp":20181105071500,"Source":"https:\/\/www.aljazeera.com\/news\/2018\/11\/china-xi-pledges-tariffs-open-market-access-181105014135952.html"},{"ID":800076076,"Actor1":"CHINESE","Actor1_Country":"CHN","Actor2":"RUSSIAN","Actor2_Country":"RUS","Code":10,"Class":1,"Action_Location":"Shanghai, Shanghai, China","Lat":31.2222,"Long":121.458,"Timestamp":20181105071500,"Source":"https:\/\/www.aljazeera.com\/news\/2018\/11\/china-xi-pledges-tariffs-open-market-access-181105014135952.html"},{"ID":800076077,"Actor1":"CHINESE","Actor1_Country":"CHN","Actor2":"THE US","Actor2_Country":"USA","Code":61,"Class":2,"Action_Location":"China","Lat":35.0,"Long":105.0,"Timestamp":20181105071500,"Source":"http:\/\/www.travelweekly.com.au\/article\/heres-how-the-us-trade-war-with-china-is-affecting-the-aussie-dollar\/"},{"ID":800076078,"Actor1":"CHINA","Actor1_Country":"CHN","Actor2":"UNITED STATES","Actor2_Country":"USA","Code":141,"Class":3,"Action_Location":"United States","Lat":39.828175,"Long":-98.5795,"Timestamp":20181105071500,"Source":"https:\/\/www.today.ng\/business\/chinas-jinping-promises-lower-tariffs-market-access-shanghai-expo-168201"},{"ID":800076079,"Actor1":"CHINA","Actor1_Country":"CHN","Actor2":"UNITED STATES","Actor2_Country":"USA","Code":141,"Class":3,"Action_Location":"Iraq","Lat":33.0,"Long":44.0,"Timestamp":20181105071500,"Source":"https:\/\/www.today.ng\/business\/chinas-jinping-promises-lower-tariffs-market-access-shanghai-expo-168201"},{"ID":800076080,"Actor1":"CHINA","Actor1_Country":"CHN","Actor2":"US GOVERNMENT","Actor2_Country":"USA","Code":42,"Class":1,"Action_Location":"Beijing, Beijing, China","Lat":39.9289,"Long":116.388,"Timestamp":20181105071500,"Source":"https:\/\/www.cnn.com\/2018\/11\/05\/asia\/xi-jinping-shanghai-trade-us-intl\/"},{"ID":800076081,"Actor1":"XI JINPING","Actor1_Country":"CHN","Actor2":"CHINESE","Actor2_Country":"CHN","Code":60,"Class":2,"Action_Location":"Beijing, Beijing, China","Lat":39.9289,"Long":116.388,"Timestamp":20181105071500,"Source":"https:\/\/www.cnn.com\/2018\/11\/05\/asia\/xi-jinping-shanghai-trade-us-intl\/"},{"ID":800076082,"Actor1":"CHINA","Actor1_Country":"CHN","Actor2":"CHINESE","Actor2_Country":"CHN","Code":173,"Class":4,"Action_Location":"China","Lat":35.0,"Long":105.0,"Timestamp":20181105071500,"Source":"http:\/\/aspire.sharesinv.com\/58773\/after-a-halloween-scare-has-the-stock-market-bottomed\/"},{"ID":800076083,"Actor1":"CHINESE","Actor1_Country":"CHN","Actor2":"CHINESE","Actor2_Country":"CHN","Code":173,"Class":4,"Action_Location":"China","Lat":35.0,"Long":105.0,"Timestamp":20181105071500,"Source":"http:\/\/aspire.sharesinv.com\/58773\/after-a-halloween-scare-has-the-stock-market-bottomed\/"},{"ID":800076088,"Actor1":"CHRISTIAN","Actor1_Country":null,"Actor2":"TURKEY","Actor2_Country":"TUR","Code":84,"Class":2,"Action_Location":"Ankara, Ankara, Turkey","Lat":39.9272,"Long":32.8644,"Timestamp":20181105071500,"Source":"https:\/\/ahvalnews.com\/deportation\/christian-evangelist-arrested-after-brunsons-release-told-leave-turkey"},{"ID":800076089,"Actor1":"CHRISTIAN","Actor1_Country":null,"Actor2":"TURKEY","Actor2_Country":"TUR","Code":84,"Class":2,"Action_Location":"Canada","Lat":60.0,"Long":-96.0,"Timestamp":20181105071500,"Source":"https:\/\/ahvalnews.com\/deportation\/christian-evangelist-arrested-after-brunsons-release-told-leave-turkey"},{"ID":800076092,"Actor1":"PRESBYTERIAN","Actor1_Country":null,"Actor2":"UNITED STATES","Actor2_Country":"USA","Code":51,"Class":1,"Action_Location":"Illinois, United States","Lat":40.3363,"Long":-89.0022,"Timestamp":20181105071500,"Source":"https:\/\/www.thetelegraph.com\/news\/article\/8216-A-very-grand-gesture-8217-Elijah-P-13362611.php"},{"ID":800076108,"Actor1":"POLICE","Actor1_Country":null,"Actor2":"TALIBAN","Actor2_Country":"AFG","Code":10,"Class":1,"Action_Location":"Swat, North-West Frontier, Pakistan","Lat":35.3803,"Long":72.1751,"Timestamp":20181105071500,"Source":"https:\/\/tribune.com.pk\/story\/1840681\/6-will-ever-learn\/"},{"ID":800076110,"Actor1":"POLICE","Actor1_Country":null,"Actor2":"AUSTRALIA","Actor2_Country":"AUS","Code":190,"Class":4,"Action_Location":"Sydney, New South Wales, Australia","Lat":-33.8833,"Long":151.217,"Timestamp":20181105071500,"Source":"https:\/\/www.dailymail.co.uk\/news\/article-6353361\/Second-member-baby-ring-formula-gang-charged-stealing-product-grocery-store-shelves.html"},{"ID":800076111,"Actor1":"POLICE","Actor1_Country":null,"Actor2":"BANGLADESH","Actor2_Country":"BGD","Code":173,"Class":4,"Action_Location":"Bangladesh","Lat":24.0,"Long":90.0,"Timestamp":20181105071500,"Source":"https:\/\/thenortheasttoday.com\/assam-former-ulfa-leader-jiten-dutta-sent-to-14-days-of-judicial-custody\/"},{"ID":800076112,"Actor1":"POLICE","Actor1_Country":null,"Actor2":"CANADA","Actor2_Country":"CAN","Code":193,"Class":4,"Action_Location":"Vancouver, British Columbia, Canada","Lat":49.25,"Long":-123.133,"Timestamp":20181105071500,"Source":"http:\/\/www.castanet.net\/edition\/news-story-241079-3-.htm"},{"ID":800076113,"Actor1":"POLICE","Actor1_Country":null,"Actor2":"THIEF","Actor2_Country":null,"Code":20,"Class":1,"Action_Location":"Ohio, United States","Lat":40.3736,"Long":-82.7755,"Timestamp":20181105071500,"Source":"https:\/\/www.dispatch.com\/news\/20181104\/crime-stoppers-man-pretends-to-pay-for-items-at-dublin-kroger-leaves"},{"ID":800076114,"Actor1":"DEPUTY","Actor1_Country":null,"Actor2":"UNITED KINGDOM","Actor2_Country":"GBR","Code":14,"Class":1,"Action_Location":"Belfast, Belfast, United Kingdom","Lat":54.5833,"Long":-5.93333,"Timestamp":20181105071500,"Source":"https:\/\/www.belfasttelegraph.co.uk\/news\/northern-ireland\/tribunal-rules-psni-owes-30m-in-outstanding-holiday-pay-37491571.html"},{"ID":800076116,"Actor1":"DEPUTY","Actor1_Country":null,"Actor2":"UNITED KINGDOM","Actor2_Country":"GBR","Code":14,"Class":1,"Action_Location":"Belfast, Belfast, United Kingdom","Lat":54.5833,"Long":-5.93333,"Timestamp":20181105071500,"Source":"https:\/\/www.belfasttelegraph.co.uk\/news\/northern-ireland\/tribunal-rules-psni-owes-30m-in-outstanding-holiday-pay-37491571.html"},{"ID":800076118,"Actor1":"POLICE","Actor1_Country":null,"Actor2":"BATTALION","Actor2_Country":null,"Code":173,"Class":4,"Action_Location":"Bangladesh","Lat":24.0,"Long":90.0,"Timestamp":20181105071500,"Source":"https:\/\/thenortheasttoday.com\/assam-former-ulfa-leader-jiten-dutta-sent-to-14-days-of-judicial-custody\/"},{"ID":800076119,"Actor1":"DEPUTY","Actor1_Country":null,"Actor2":"NIGERIA","Actor2_Country":"NGA","Code":40,"Class":1,"Action_Location":"Kwankwaso, Kano, Nigeria","Lat":11.8509,"Long":8.396,"Timestamp":20181105071500,"Source":"https:\/\/news2.onlinenigeria.com\/news\/general\/774249-cbn-tasks-market-participants-on-integrity-transparency.html"},{"ID":800076120,"Actor1":"DEPUTY","Actor1_Country":null,"Actor2":"DEMOCRATIC PARTY","Actor2_Country":null,"Code":173,"Class":4,"Action_Location":"Minnesota, United States","Lat":45.7326,"Long":-93.9196,"Timestamp":20181105071500,"Source":"http:\/\/www.winchesterstar.com\/winchester_star\/comparing-comstock-and-wexton-s-records\/article_60f1188f-387b-5061-a70d-d81647304af4.html"},{"ID":800076121,"Actor1":"SECURITY FORCE","Actor1_Country":null,"Actor2":"REBEL","Actor2_Country":null,"Code":10,"Class":1,"Action_Location":"India","Lat":20.0,"Long":77.0,"Timestamp":20181105071500,"Source":"https:\/\/www.indiatoday.in\/india\/story\/5-maoists-killed-in-odisha-s-malkangiri-combing-operation-on-1382663-2018-11-05"},{"ID":800076122,"Actor1":"SECURITY FORCE","Actor1_Country":null,"Actor2":"REBEL","Actor2_Country":null,"Code":20,"Class":1,"Action_Location":"India","Lat":20.0,"Long":77.0,"Timestamp":20181105071500,"Source":"https:\/\/www.indiatoday.in\/india\/story\/5-maoists-killed-in-odisha-s-malkangiri-combing-operation-on-1382663-2018-11-05"},{"ID":800076123,"Actor1":"POLICE","Actor1_Country":null,"Actor2":"SAINT","Actor2_Country":null,"Code":10,"Class":1,"Action_Location":"Manila, Manila, Philippines","Lat":14.6042,"Long":120.982,"Timestamp":20181105071500,"Source":"https:\/\/www.radyonatin.com\/story.php?storyid=30242"},{"ID":800076124,"Actor1":"POLICE","Actor1_Country":null,"Actor2":"UNITED STATES","Actor2_Country":"USA","Code":10,"Class":1,"Action_Location":"Kaaawa, Hawaii, United States","Lat":21.5572,"Long":-157.854,"Timestamp":20181105071500,"Source":"https:\/\/www.khon2.com\/news\/local-news\/-i-still-have-nightmares-of-having-a-gun-pulled-to-my-face-north-shore-residents-on-recent-crime\/1573428819"},{"ID":800076125,"Actor1":"POLICE","Actor1_Country":null,"Actor2":"UNITED STATES","Actor2_Country":"USA","Code":10,"Class":1,"Action_Location":"Wahiawa, Hawaii, United States","Lat":21.9131,"Long":-159.529,"Timestamp":20181105071500,"Source":"https:\/\/www.khon2.com\/news\/local-news\/-i-still-have-nightmares-of-having-a-gun-pulled-to-my-face-north-shore-residents-on-recent-crime\/1573428819"},{"ID":800076126,"Actor1":"POLICE","Actor1_Country":null,"Actor2":"UNITED STATES","Actor2_Country":"USA","Code":12,"Class":1,"Action_Location":"Clarksburg, West Virginia, United States","Lat":39.2806,"Long":-80.3445,"Timestamp":20181105071500,"Source":"http:\/\/www.winchesterstar.com\/winchester_star\/threats-against-politicians\/article_a6423715-9914-5d2b-b885-d0ae93e7c346.html"},{"ID":800076127,"Actor1":"POLICE","Actor1_Country":null,"Actor2":"UNITED STATES","Actor2_Country":"USA","Code":12,"Class":1,"Action_Location":"West Virginia, United States","Lat":38.468,"Long":-80.9696,"Timestamp":20181105071500,"Source":"http:\/\/www.winchesterstar.com\/winchester_star\/threats-against-politicians\/article_a6423715-9914-5d2b-b885-d0ae93e7c346.html"},{"ID":800076128,"Actor1":"POLICE","Actor1_Country":null,"Actor2":"UNITED STATES","Actor2_Country":"USA","Code":40,"Class":1,"Action_Location":"Clarksburg, West Virginia, United States","Lat":39.2806,"Long":-80.3445,"Timestamp":20181105071500,"Source":"http:\/\/www.winchesterstar.com\/winchester_star\/threats-against-politicians\/article_a6423715-9914-5d2b-b885-d0ae93e7c346.html"},{"ID":800076129,"Actor1":"POLICE","Actor1_Country":null,"Actor2":"UNITED STATES","Actor2_Country":"USA","Code":60,"Class":2,"Action_Location":"Barron County, Wisconsin, United States","Lat":45.4166,"Long":-91.8502,"Timestamp":20181105071500,"Source":"https:\/\/www.dailymail.co.uk\/news\/article-6353437\/Police-scale-search-missing-Wisconsin-teenager.html"},{"ID":800076130,"Actor1":"POLICE","Actor1_Country":null,"Actor2":"UNITED STATES","Actor2_Country":"USA","Code":60,"Class":2,"Action_Location":"Barron County, Wisconsin, United States","Lat":45.4166,"Long":-91.8502,"Timestamp":20181105071500,"Source":"https:\/\/www.dailymail.co.uk\/news\/article-6353437\/Police-scale-search-missing-Wisconsin-teenager.html"},{"ID":800076131,"Actor1":"POLICE","Actor1_Country":null,"Actor2":"WISCONSIN","Actor2_Country":"USA","Code":84,"Class":2,"Action_Location":"Barron County, Wisconsin, United States","Lat":45.4166,"Long":-91.8502,"Timestamp":20181105071500,"Source":"https:\/\/www.dailymail.co.uk\/news\/article-6353437\/Police-scale-search-missing-Wisconsin-teenager.html"},{"ID":800076132,"Actor1":"POLICE","Actor1_Country":null,"Actor2":"UNITED STATES","Actor2_Country":"USA","Code":84,"Class":2,"Action_Location":"Barron County, Wisconsin, United States","Lat":45.4166,"Long":-91.8502,"Timestamp":20181105071500,"Source":"https:\/\/www.dailymail.co.uk\/news\/article-6353437\/Police-scale-search-missing-Wisconsin-teenager.html"},{"ID":800076133,"Actor1":"POLICE","Actor1_Country":null,"Actor2":"WISCONSIN","Actor2_Country":"USA","Code":84,"Class":2,"Action_Location":"Wisconsin, United States","Lat":44.2563,"Long":-89.6385,"Timestamp":20181105071500,"Source":"https:\/\/www.dailymail.co.uk\/news\/article-6353437\/Police-scale-search-missing-Wisconsin-teenager.html"},{"ID":800076134,"Actor1":"POLICE","Actor1_Country":null,"Actor2":"WISCONSIN","Actor2_Country":"USA","Code":84,"Class":2,"Action_Location":"Wisconsin, United States","Lat":44.2563,"Long":-89.6385,"Timestamp":20181105071500,"Source":"https:\/\/www.dailymail.co.uk\/news\/article-6353437\/Police-scale-search-missing-Wisconsin-teenager.html"},{"ID":800076135,"Actor1":"POLICE","Actor1_Country":null,"Actor2":"WISCONSIN","Actor2_Country":"USA","Code":90,"Class":2,"Action_Location":"Barron County, Wisconsin, United States","Lat":45.4166,"Long":-91.8502,"Timestamp":20181105071500,"Source":"https:\/\/www.dailymail.co.uk\/news\/article-6353437\/Police-scale-search-missing-Wisconsin-teenager.html"},{"ID":800076136,"Actor1":"POLICE","Actor1_Country":null,"Actor2":"WISCONSIN","Actor2_Country":"USA","Code":90,"Class":2,"Action_Location":"Wisconsin, United States","Lat":44.2563,"Long":-89.6385,"Timestamp":20181105071500,"Source":"https:\/\/www.dailymail.co.uk\/news\/article-6353437\/Police-scale-search-missing-Wisconsin-teenager.html"},{"ID":800076137,"Actor1":"POLICE","Actor1_Country":null,"Actor2":"WISCONSIN","Actor2_Country":"USA","Code":112,"Class":3,"Action_Location":"Wisconsin, United States","Lat":44.2563,"Long":-89.6385,"Timestamp":20181105071500,"Source":"https:\/\/www.dailymail.co.uk\/news\/article-6353437\/Police-scale-search-missing-Wisconsin-teenager.html"},{"ID":800076138,"Actor1":"POLICE","Actor1_Country":null,"Actor2":"WEST VIRGINIA","Actor2_Country":"USA","Code":130,"Class":3,"Action_Location":"Clarksburg, West Virginia, United States","Lat":39.2806,"Long":-80.3445,"Timestamp":20181105071500,"Source":"http:\/\/www.winchesterstar.com\/winchester_star\/threats-against-politicians\/article_a6423715-9914-5d2b-b885-d0ae93e7c346.html"},{"ID":800076139,"Actor1":"POLICE","Actor1_Country":null,"Actor2":"WEST VIRGINIA","Actor2_Country":"USA","Code":130,"Class":3,"Action_Location":"West Virginia, United States","Lat":38.468,"Long":-80.9696,"Timestamp":20181105071500,"Source":"http:\/\/www.winchesterstar.com\/winchester_star\/threats-against-politicians\/article_a6423715-9914-5d2b-b885-d0ae93e7c346.html"},{"ID":800076140,"Actor1":"POLICE","Actor1_Country":null,"Actor2":"WISCONSIN","Actor2_Country":"USA","Code":171,"Class":4,"Action_Location":"Wisconsin, United States","Lat":44.2563,"Long":-89.6385,"Timestamp":20181105071500,"Source":"https:\/\/www.dailymail.co.uk\/news\/article-6353437\/Police-scale-search-missing-Wisconsin-teenager.html"},{"ID":800076141,"Actor1":"POLICE","Actor1_Country":null,"Actor2":"WISCONSIN","Actor2_Country":"USA","Code":190,"Class":4,"Action_Location":"Barron County, Wisconsin, United States","Lat":45.4166,"Long":-91.8502,"Timestamp":20181105071500,"Source":"https:\/\/www.dailymail.co.uk\/news\/article-6353437\/Police-scale-search-missing-Wisconsin-teenager.html"},{"ID":800076142,"Actor1":"POLICE","Actor1_Country":null,"Actor2":"WISCONSIN","Actor2_Country":"USA","Code":190,"Class":4,"Action_Location":"Wisconsin, United States","Lat":44.2563,"Long":-89.6385,"Timestamp":20181105071500,"Source":"https:\/\/www.dailymail.co.uk\/news\/article-6353437\/Police-scale-search-missing-Wisconsin-teenager.html"},{"ID":800076143,"Actor1":"POLICE","Actor1_Country":null,"Actor2":"WISCONSIN","Actor2_Country":"USA","Code":190,"Class":4,"Action_Location":"Wisconsin, United States","Lat":44.2563,"Long":-89.6385,"Timestamp":20181105071500,"Source":"https:\/\/www.dailymail.co.uk\/news\/article-6353437\/Police-scale-search-missing-Wisconsin-teenager.html"},{"ID":800076144,"Actor1":"POLICE","Actor1_Country":null,"Actor2":"WEST VIRGINIA","Actor2_Country":"USA","Code":12,"Class":1,"Action_Location":"West Virginia, United States","Lat":38.468,"Long":-80.9696,"Timestamp":20181105071500,"Source":"http:\/\/www.winchesterstar.com\/winchester_star\/threats-against-politicians\/article_a6423715-9914-5d2b-b885-d0ae93e7c346.html"},{"ID":800076145,"Actor1":"POLICE","Actor1_Country":null,"Actor2":"WEST VIRGINIA","Actor2_Country":"USA","Code":130,"Class":3,"Action_Location":"West Virginia, United States","Lat":38.468,"Long":-80.9696,"Timestamp":20181105071500,"Source":"http:\/\/www.winchesterstar.com\/winchester_star\/threats-against-politicians\/article_a6423715-9914-5d2b-b885-d0ae93e7c346.html"},{"ID":800076146,"Actor1":"DEPUTY","Actor1_Country":null,"Actor2":"MALAYSIA","Actor2_Country":"MYS","Code":51,"Class":1,"Action_Location":"Kuala Lumpur, Kuala Lumpur, Malaysia","Lat":3.16667,"Long":101.7,"Timestamp":20181105071500,"Source":"https:\/\/themalaysianreserve.com\/2018\/11\/05\/condor-flies-to-msia-opening-the-kl-frankfurt-sector\/"},{"ID":800076154,"Actor1":"CRIMINAL","Actor1_Country":null,"Actor2":"IMMIGRANT","Actor2_Country":null,"Code":130,"Class":3,"Action_Location":"White House, District of Columbia, United States","Lat":38.8951,"Long":-77.0364,"Timestamp":20181105071500,"Source":"https:\/\/kxlh.com\/cnn-us-politics\/2018\/11\/04\/america-votes-tuesday-heres-whats-at-stake\/"},{"ID":800076155,"Actor1":"CRIMINAL","Actor1_Country":null,"Actor2":"IMMIGRANT","Actor2_Country":null,"Code":130,"Class":3,"Action_Location":"Russia","Lat":60.0,"Long":100.0,"Timestamp":20181105071500,"Source":"https:\/\/kxlh.com\/cnn-us-politics\/2018\/11\/04\/america-votes-tuesday-heres-whats-at-stake\/"},{"ID":800076156,"Actor1":"CRIMINAL","Actor1_Country":null,"Actor2":"IMMIGRANT","Actor2_Country":null,"Code":180,"Class":4,"Action_Location":"Georgia, United States","Lat":32.9866,"Long":-83.6487,"Timestamp":20181105071500,"Source":"https:\/\/kxlh.com\/cnn-us-politics\/2018\/11\/04\/america-votes-tuesday-heres-whats-at-stake\/"},{"ID":800076157,"Actor1":"TRAFFICKER","Actor1_Country":null,"Actor2":"GAMBIA","Actor2_Country":"GMB","Code":193,"Class":4,"Action_Location":"Casamance, Senegal (general), Senegal","Lat":12.5561,"Long":-16.7592,"Timestamp":20181105071500,"Source":"https:\/\/www.freedomnewspaper.com\/2018\/11\/05\/gambia-breaking-news-foreign-troops-shot-suspected-timber-trafficker-in-sibanor-ecomig-spokesman-says-the-senegalese-troops-deployed-in-sibanor-and-bwiam-are-not-part-of-the-ecomig-contingent\/"},{"ID":800076158,"Actor1":"GANGSTER","Actor1_Country":null,"Actor2":"GREECE","Actor2_Country":"GRC","Code":42,"Class":1,"Action_Location":"Albania","Lat":41.0,"Long":20.0,"Timestamp":20181105071500,"Source":"https:\/\/www.dailymail.co.uk\/news\/article-6353407\/Teen-son-slain-gangster-John-Macris-scared-travel-Greece-fathers-funeral.html"},{"ID":800076160,"Actor1":"CRIMINAL","Actor1_Country":null,"Actor2":"UNITED STATES","Actor2_Country":"USA","Code":112,"Class":3,"Action_Location":"Texas, United States","Lat":31.106,"Long":-97.6475,"Timestamp":20181105071500,"Source":"https:\/\/www.texastribune.org\/2018\/11\/04\/texas-ken-paxton-campaign-justin-nelson-texas-attorney-general-tight\/"},{"ID":800076161,"Actor1":"CUBAN","Actor1_Country":"CUB","Actor2":"PYONGYANG","Actor2_Country":"PRK","Code":40,"Class":1,"Action_Location":"Cuba","Lat":22.0,"Long":-79.5,"Timestamp":20181105071500,"Source":"https:\/\/www.onenewspage.com\/n\/Front+Page\/1zjaqpdawe\/Cuban-president-meets-Kim-Jong-un-in-Pyongyang.htm"},{"ID":800076162,"Actor1":"CUBA","Actor1_Country":"CUB","Actor2":"NORTH KOREA","Actor2_Country":"PRK","Code":40,"Class":1,"Action_Location":"Cuba","Lat":22.0,"Long":-79.5,"Timestamp":20181105071500,"Source":"https:\/\/www.onenewspage.com\/n\/Front+Page\/1zjaqpdawe\/Cuban-president-meets-Kim-Jong-un-in-Pyongyang.htm"},{"ID":800076163,"Actor1":"CUBAN","Actor1_Country":"CUB","Actor2":"PYONGYANG","Actor2_Country":"PRK","Code":40,"Class":1,"Action_Location":"Pyongyang, P'yongyang-si, North Korea","Lat":39.0194,"Long":125.755,"Timestamp":20181105071500,"Source":"https:\/\/www.onenewspage.com\/n\/Front+Page\/1zjaqpdawe\/Cuban-president-meets-Kim-Jong-un-in-Pyongyang.htm"},{"ID":800076182,"Actor1":"NATIVES","Actor1_Country":null,"Actor2":"TALIBAN","Actor2_Country":"AFG","Code":80,"Class":2,"Action_Location":"Islamabad, Islamabad, Pakistan","Lat":33.7,"Long":73.1667,"Timestamp":20181105071500,"Source":"https:\/\/tribune.com.pk\/story\/1840681\/6-will-ever-learn\/"},{"ID":800076183,"Actor1":"NATIVES","Actor1_Country":null,"Actor2":"TALIBAN","Actor2_Country":"AFG","Code":80,"Class":2,"Action_Location":"Swat, North-West Frontier, Pakistan","Lat":35.3803,"Long":72.1751,"Timestamp":20181105071500,"Source":"https:\/\/tribune.com.pk\/story\/1840681\/6-will-ever-learn\/"},{"ID":800076184,"Actor1":"COMMUNITY","Actor1_Country":null,"Actor2":"FARMER","Actor2_Country":null,"Code":40,"Class":1,"Action_Location":"Arno Bay, South Australia, Australia","Lat":-33.9,"Long":136.567,"Timestamp":20181105071500,"Source":"https:\/\/www.transcontinental.com.au\/story\/5740223\/addressing-the-drought\/?cs=1538"},{"ID":800076185,"Actor1":"COMMUNITY","Actor1_Country":null,"Actor2":"FARMER","Actor2_Country":null,"Code":40,"Class":1,"Action_Location":"Port Augusta, South Australia, Australia","Lat":-32.496,"Long":137.773,"Timestamp":20181105071500,"Source":"https:\/\/www.transcontinental.com.au\/story\/5740223\/addressing-the-drought\/?cs=1538"},{"ID":800076186,"Actor1":"COMMUNITY","Actor1_Country":null,"Actor2":"AUSTRALIA","Actor2_Country":"AUS","Code":10,"Class":1,"Action_Location":"Nhulunbuy, Northern Territory, Australia","Lat":-12.1865,"Long":136.782,"Timestamp":20181105071500,"Source":"https:\/\/www.sbs.com.au\/nitv\/nitv-news\/article\/2018\/11\/02\/yirrkala-bark-petitions-aboriginal-owned-mining"},{"ID":800076187,"Actor1":"COMMUNITY","Actor1_Country":null,"Actor2":"AUSTRALIA","Actor2_Country":"AUS","Code":10,"Class":1,"Action_Location":"Yirrkala, Northern Territory, Australia","Lat":-12.251,"Long":136.894,"Timestamp":20181105071500,"Source":"https:\/\/www.sbs.com.au\/nitv\/nitv-news\/article\/2018\/11\/02\/yirrkala-bark-petitions-aboriginal-owned-mining"},{"ID":800076188,"Actor1":"NATIONALS","Actor1_Country":null,"Actor2":"AUSTRALIA","Actor2_Country":"AUS","Code":311,"Class":1,"Action_Location":"Melbourne, Victoria, Australia","Lat":-37.8167,"Long":144.967,"Timestamp":20181105071500,"Source":"http:\/\/www.gippslandtimes.com.au\/story\/5740028\/lib-nats-commit-money-for-part-of-the-princes-highway\/?cs=1450"},{"ID":800076189,"Actor1":"NATIONALS","Actor1_Country":null,"Actor2":"AUSTRALIA","Actor2_Country":"AUS","Code":311,"Class":1,"Action_Location":"Traralgon, Victoria, Australia","Lat":-38.1953,"Long":146.542,"Timestamp":20181105071500,"Source":"http:\/\/www.gippslandtimes.com.au\/story\/5740028\/lib-nats-commit-money-for-part-of-the-princes-highway\/?cs=1450"},{"ID":800076190,"Actor1":"SCIENTIST","Actor1_Country":null,"Actor2":"AUSTRALIA","Actor2_Country":"AUS","Code":51,"Class":1,"Action_Location":"Sydney, New South Wales, Australia","Lat":-33.8833,"Long":151.217,"Timestamp":20181105071500,"Source":"https:\/\/www.sbs.com.au\/nitv\/nitv-news\/article\/2018\/11\/05\/experts-say-indigenous-knowledge-will-enrich-science-education"},{"ID":800076191,"Actor1":"MIGRANT","Actor1_Country":null,"Actor2":"CHINA","Actor2_Country":"CHN","Code":43,"Class":1,"Action_Location":"China","Lat":35.0,"Long":105.0,"Timestamp":20181105071500,"Source":"https:\/\/www.businessinsider.com.au\/the-10-most-important-things-in-the-world-right-now-november-5-2018-11"},{"ID":800076192,"Actor1":"NATIONALS","Actor1_Country":null,"Actor2":"NATIONALS","Actor2_Country":null,"Code":52,"Class":1,"Action_Location":"Gippsland, Victoria, Australia","Lat":-38.0,"Long":147.5,"Timestamp":20181105071500,"Source":"http:\/\/www.gippslandtimes.com.au\/story\/5740028\/lib-nats-commit-money-for-part-of-the-princes-highway\/?cs=1450"},{"ID":800076193,"Actor1":"NATIONALS","Actor1_Country":null,"Actor2":"NATIONALS","Actor2_Country":null,"Code":52,"Class":1,"Action_Location":"Gippsland, Victoria, Australia","Lat":-38.0,"Long":147.5,"Timestamp":20181105071500,"Source":"http:\/\/www.gippslandtimes.com.au\/story\/5740028\/lib-nats-commit-money-for-part-of-the-princes-highway\/?cs=1450"},{"ID":800076194,"Actor1":"NATIONALS","Actor1_Country":null,"Actor2":"NATIONALS","Actor2_Country":null,"Code":52,"Class":1,"Action_Location":"Traralgon, Victoria, Australia","Lat":-38.1953,"Long":146.542,"Timestamp":20181105071500,"Source":"http:\/\/www.gippslandtimes.com.au\/story\/5740028\/lib-nats-commit-money-for-part-of-the-princes-highway\/?cs=1450"},{"ID":800076195,"Actor1":"TRAVELLER","Actor1_Country":null,"Actor2":"FRANKFURT","Actor2_Country":"DEU","Code":42,"Class":1,"Action_Location":"Kuala Lumpur, Kuala Lumpur, Malaysia","Lat":3.16667,"Long":101.7,"Timestamp":20181105071500,"Source":"https:\/\/themalaysianreserve.com\/2018\/11\/05\/condor-flies-to-msia-opening-the-kl-frankfurt-sector\/"},{"ID":800076196,"Actor1":"TRAVELLER","Actor1_Country":null,"Actor2":"FRANKFURT","Actor2_Country":"DEU","Code":42,"Class":1,"Action_Location":"Kuala Lumpur, Kuala Lumpur, Malaysia","Lat":3.16667,"Long":101.7,"Timestamp":20181105071500,"Source":"https:\/\/themalaysianreserve.com\/2018\/11\/05\/condor-flies-to-msia-opening-the-kl-frankfurt-sector\/"},{"ID":800076197,"Actor1":"TRAVELER","Actor1_Country":null,"Actor2":"ACTOR","Actor2_Country":null,"Code":42,"Class":1,"Action_Location":"Kawagoe, Saitama, Japan","Lat":35.9086,"Long":139.485,"Timestamp":20181105071500,"Source":"https:\/\/www.theguardian.com\/world\/2018\/nov\/05\/understated-halloween-japan-embraces-low-key-cosplay"},{"ID":800076198,"Actor1":"VILLAGE","Actor1_Country":null,"Actor2":"ESTONIAN","Actor2_Country":"EST","Code":36,"Class":1,"Action_Location":"Petrovka, Solt\u00fcQazaqstan, Kazakhstan","Lat":54.3003,"Long":68.2247,"Timestamp":20181105071500,"Source":"https:\/\/news.err.ee\/874563\/ratas-on-official-visit-to-kazakhstan"},{"ID":800076199,"Actor1":"TOURIST","Actor1_Country":null,"Actor2":"EUROPE","Actor2_Country":"EUR","Code":110,"Class":3,"Action_Location":"Stavropol, Stavropol'skiy Kray, Russia","Lat":45.0428,"Long":41.9734,"Timestamp":20181105071500,"Source":"https:\/\/www.tourism-review.com\/european-tourist-tax-in-different-countries-news10814"},{"ID":800076200,"Actor1":"COMMUNITY","Actor1_Country":null,"Actor2":"GOVERNMENT","Actor2_Country":null,"Code":12,"Class":1,"Action_Location":"Sydney, New South Wales, Australia","Lat":-33.8833,"Long":151.217,"Timestamp":20181105071500,"Source":"https:\/\/www.brisbanetimes.com.au\/politics\/federal\/sharma-in-doubt-for-election-amid-questions-over-turnbull-s-help-20181105-p50e59.html"},{"ID":800076201,"Actor1":"SCIENTIST","Actor1_Country":null,"Actor2":"PRIME MINISTER","Actor2_Country":null,"Code":51,"Class":1,"Action_Location":"Sydney, New South Wales, Australia","Lat":-33.8833,"Long":151.217,"Timestamp":20181105071500,"Source":"https:\/\/www.sbs.com.au\/nitv\/nitv-news\/article\/2018\/11\/05\/experts-say-indigenous-knowledge-will-enrich-science-education"},{"ID":800076202,"Actor1":"VILLAGER","Actor1_Country":null,"Actor2":"GOVERNMENT","Actor2_Country":null,"Code":111,"Class":3,"Action_Location":"Betera, Manicaland, Zimbabwe","Lat":-19.3634,"Long":31.9864,"Timestamp":20181105071500,"Source":"https:\/\/www.newzimbabwe.com\/get-your-2-tax-from-diamond-looters-marange-villagers-tell-finance-minister\/"},{"ID":800076205,"Actor1":"COMMUNITY","Actor1_Country":null,"Actor2":"PARLIAMENT","Actor2_Country":null,"Code":10,"Class":1,"Action_Location":"Nhulunbuy, Northern Territory, Australia","Lat":-12.1865,"Long":136.782,"Timestamp":20181105071500,"Source":"https:\/\/www.sbs.com.au\/nitv\/nitv-news\/article\/2018\/11\/02\/yirrkala-bark-petitions-aboriginal-owned-mining"},{"ID":800076206,"Actor1":"MIGRANT","Actor1_Country":null,"Actor2":"MEXICO","Actor2_Country":"MEX","Code":42,"Class":1,"Action_Location":"Texas, United States","Lat":31.106,"Long":-97.6475,"Timestamp":20181105071500,"Source":"https:\/\/www.texastribune.org\/2018\/11\/04\/texas-ken-paxton-campaign-justin-nelson-texas-attorney-general-tight\/"},{"ID":800076207,"Actor1":"VOTER","Actor1_Country":null,"Actor2":"DENVER","Actor2_Country":"USA","Code":40,"Class":1,"Action_Location":"Wood Ridge, Virginia, United States","Lat":37.8971,"Long":-78.4361,"Timestamp":20181105071500,"Source":"http:\/\/www.cavalierdaily.com\/article\/2018\/11\/riggleman-rallies-republican-base-in-nelson-county-ahead-of-tuesdays-election"},{"ID":800076208,"Actor1":"VOTER","Actor1_Country":null,"Actor2":"UNITED STATES","Actor2_Country":"USA","Code":40,"Class":1,"Action_Location":"Nelson County, Virginia, United States","Lat":37.7835,"Long":-78.7831,"Timestamp":20181105071500,"Source":"http:\/\/www.cavalierdaily.com\/article\/2018\/11\/riggleman-rallies-republican-base-in-nelson-county-ahead-of-tuesdays-election"},{"ID":800076209,"Actor1":"VOTER","Actor1_Country":null,"Actor2":"PHOENIX","Actor2_Country":"USA","Code":40,"Class":1,"Action_Location":"Phoenix, Arizona, United States","Lat":33.4484,"Long":-112.074,"Timestamp":20181105071500,"Source":"https:\/\/www.ksdk.com\/article\/news\/az-non-profit-mailing-voting-report-cards\/63-611223791"},{"ID":800076210,"Actor1":"MIGRANT","Actor1_Country":null,"Actor2":"THE US","Actor2_Country":"USA","Code":43,"Class":1,"Action_Location":"Charlottesville, Virginia, United States","Lat":38.0293,"Long":-78.4767,"Timestamp":20181105071500,"Source":"https:\/\/www.wsws.org\/en\/articles\/2018\/11\/05\/isra-n05.html"},{"ID":800076211,"Actor1":"POPULATION","Actor1_Country":null,"Actor2":"OHIO","Actor2_Country":"USA","Code":46,"Class":1,"Action_Location":"Ohio, United States","Lat":40.3736,"Long":-82.7755,"Timestamp":20181105071500,"Source":"https:\/\/www.athensnews.com\/news\/local\/snot-otter-or-hellbender-ou-scientists-want-to-save-them\/article_4e607476-e064-11e8-a4c1-036d580808ea.html"},{"ID":800076212,"Actor1":"ENGINEER","Actor1_Country":null,"Actor2":"UNITED STATES","Actor2_Country":"USA","Code":190,"Class":4,"Action_Location":"Philadelphia, Pennsylvania, United States","Lat":39.9523,"Long":-75.1638,"Timestamp":20181105071500,"Source":"https:\/\/www.thetelegraph.com\/news\/article\/Path-to-power-House-races-to-watch-on-election-13362719.php"},{"ID":800076213,"Actor1":"VOTER","Actor1_Country":null,"Actor2":"UNITED STATES","Actor2_Country":"USA","Code":112,"Class":3,"Action_Location":"Georgia, United States","Lat":32.9866,"Long":-83.6487,"Timestamp":20181105071500,"Source":"https:\/\/www.dailyrepublic.com\/all-dr-news\/wires\/state-nation-world\/without-disclosing-evidence-republican-candidate-for-georgia-governor-accuses-democrats-of-hacking\/"},{"ID":800076214,"Actor1":"CIVILIAN","Actor1_Country":null,"Actor2":"EMPLOYEE","Actor2_Country":null,"Code":193,"Class":4,"Action_Location":"Fort Hood, Texas, United States","Lat":31.2548,"Long":-97.7091,"Timestamp":20181105071500,"Source":"https:\/\/roodepoortnorthsider.co.za\/285328\/today-in-history-an-army-officer-opened-fire-on-other-soldiers-in-army-base-web\/"},{"ID":800076216,"Actor1":"FRANKFURT","Actor1_Country":"DEU","Actor2":"TRAVELLER","Actor2_Country":null,"Code":43,"Class":1,"Action_Location":"Kuala Lumpur, Kuala Lumpur, Malaysia","Lat":3.16667,"Long":101.7,"Timestamp":20181105071500,"Source":"https:\/\/themalaysianreserve.com\/2018\/11\/05\/condor-flies-to-msia-opening-the-kl-frankfurt-sector\/"},{"ID":800076217,"Actor1":"GERMANY","Actor1_Country":"DEU","Actor2":"TRAVELLER","Actor2_Country":null,"Code":43,"Class":1,"Action_Location":"Kuala Lumpur, Kuala Lumpur, Malaysia","Lat":3.16667,"Long":101.7,"Timestamp":20181105071500,"Source":"https:\/\/themalaysianreserve.com\/2018\/11\/05\/condor-flies-to-msia-opening-the-kl-frankfurt-sector\/"},{"ID":800076218,"Actor1":"FRANKFURT","Actor1_Country":"DEU","Actor2":"PARIS","Actor2_Country":"FRA","Code":160,"Class":4,"Action_Location":"London, London, City of, United Kingdom","Lat":51.5,"Long":-0.116667,"Timestamp":20181105071500,"Source":"https:\/\/themalaysianreserve.com\/2018\/11\/05\/condor-flies-to-msia-opening-the-kl-frankfurt-sector\/"},{"ID":800076219,"Actor1":"GERMANY","Actor1_Country":"DEU","Actor2":"IRAN","Actor2_Country":"IRN","Code":10,"Class":1,"Action_Location":"Tehran, Tehran, Iran","Lat":35.75,"Long":51.5148,"Timestamp":20181105071500,"Source":"https:\/\/theiranproject.com\/blog\/2018\/11\/05\/trump-wrong-to-resume-sanctions-against-iran-analyst\/"},{"ID":800076220,"Actor1":"GERMANY","Actor1_Country":"DEU","Actor2":"IRAN","Actor2_Country":"IRN","Code":10,"Class":1,"Action_Location":"China","Lat":35.0,"Long":105.0,"Timestamp":20181105071500,"Source":"https:\/\/theiranproject.com\/blog\/2018\/11\/05\/trump-wrong-to-resume-sanctions-against-iran-analyst\/"},{"ID":800076221,"Actor1":"ECUADOR","Actor1_Country":"ECU","Actor2":"UNITED STATES","Actor2_Country":"USA","Code":17,"Class":1,"Action_Location":"Russia","Lat":60.0,"Long":100.0,"Timestamp":20181105071500,"Source":"http:\/\/www.independentsentinel.com\/ecuador-to-united-states-keep-your-money\/"},{"ID":800076222,"Actor1":"ECUADOR","Actor1_Country":"ECU","Actor2":"UNITED STATES","Actor2_Country":"USA","Code":17,"Class":1,"Action_Location":"United States","Lat":39.828175,"Long":-98.5795,"Timestamp":20181105071500,"Source":"http:\/\/www.independentsentinel.com\/ecuador-to-united-states-keep-your-money\/"},{"ID":800076240,"Actor1":"STUDENT","Actor1_Country":null,"Actor2":"STUDENT","Actor2_Country":null,"Code":51,"Class":1,"Action_Location":"Litchfield Towers, Pennsylvania, United States","Lat":40.4426,"Long":-79.9566,"Timestamp":20181105071500,"Source":"https:\/\/pittnews.com\/article\/137446\/news\/student-organizations-encourage-midterm-voting\/"},{"ID":800076241,"Actor1":"UNIVERSITY","Actor1_Country":null,"Actor2":"EGYPT","Actor2_Country":"EGY","Code":57,"Class":1,"Action_Location":"Cairo, Al Qahirah, Egypt","Lat":30.05,"Long":31.25,"Timestamp":20181105071500,"Source":"https:\/\/www.albawaba.com\/business\/pr\/auc-signs-academic-agreement-harvard-university-1208948"},{"ID":800076242,"Actor1":"UNIVERSITY","Actor1_Country":null,"Actor2":"EGYPT","Actor2_Country":"EGY","Code":57,"Class":1,"Action_Location":"Cairo, Al Qahirah, Egypt","Lat":30.05,"Long":31.25,"Timestamp":20181105071500,"Source":"https:\/\/www.albawaba.com\/business\/pr\/auc-signs-academic-agreement-harvard-university-1208948"},{"ID":800076243,"Actor1":"SCHOOL","Actor1_Country":null,"Actor2":"CHIEF MINISTER","Actor2_Country":null,"Code":30,"Class":1,"Action_Location":"Karachi, Sindh, Pakistan","Lat":24.8667,"Long":67.05,"Timestamp":20181105071500,"Source":"https:\/\/newsmakers.pk\/murad-ali-shah-directs-education-department-to-assess-viability-of-15214-schools-of-low-or-no-enrolment\/"},{"ID":800076244,"Actor1":"SCHOOL","Actor1_Country":null,"Actor2":"CHIEF MINISTER","Actor2_Country":null,"Code":30,"Class":1,"Action_Location":"Umerkot, Punjab, Pakistan","Lat":28.4939,"Long":70.0988,"Timestamp":20181105071500,"Source":"https:\/\/newsmakers.pk\/murad-ali-shah-directs-education-department-to-assess-viability-of-15214-schools-of-low-or-no-enrolment\/"},{"ID":800076245,"Actor1":"UNIVERSITY","Actor1_Country":null,"Actor2":"PRESIDENT","Actor2_Country":null,"Code":40,"Class":1,"Action_Location":"Ondo State, Ondo, Nigeria","Lat":7.16667,"Long":5.08333,"Timestamp":20181105071500,"Source":"https:\/\/www.businessdayonline.com\/news\/article\/asuu-declares-indefinite-nationwide-strike\/"},