[{"ID": 800240134, "Actor1": "BRAZIL", "Actor1_Country": "BRA", "Actor2": "MEDIA", "Actor2_Country": null, "Code": 14, "Class": 1, "Action_Location": "Brazil", "Lat": -10.0, "Long": -55.0, "Timestamp": 20181105204500, "Source": "https://www.nytimes.com/2018/11/05/us/politics/misinformation-election-day.html"}, {"ID": 800240356, "Actor1": "AUSTRALIA", "Actor1_Country": "AUS", "Actor2": "AUSTRALIA", "Actor2_Country": "AUS", "Code": 43, "Class": 1, "Action_Location": "Sunshine Coast, Queensland, Australia", "Lat": -26.5, "Long": 153.0, "Timestamp": 20181105204500, "Source": "https://www.kiamaindependent.com.au/story/5741796/coalition-mps-mull-two-elections-in-2019/"}, {"ID": 800240360, "Actor1": "AUSTRALIA", "Actor1_Country": "AUS", "Actor2": "AUSTRALIA", "Actor2_Country": "AUS", "Code": 42, "Class": 1, "Action_Location": "Sunshine Coast, Queensland, Australia", "Lat": -26.5, "Long": 153.0, "Timestamp": 20181105204500, "Source": "https://www.kiamaindependent.com.au/story/5741796/coalition-mps-mull-two-elections-in-2019/"}, {"ID": 800240443, "Actor1": "COMPANY", "Actor1_Country": null, "Actor2": "NEW YORK CITY", "Actor2_Country": "USA", "Code": 331, "Class": 1, "Action_Location": "New York, United States", "Lat": 42.1497, "Long": -74.9384, "Timestamp": 20181105204500, "Source": "https://www.kcra.com/article/amazons-hq2-may-be-split-between-two-cities-reports-say/24681126"}, {"ID": 800240461, "Actor1": "SASKATCHEWAN", "Actor1_Country": "CAN", "Actor2": "POLICE", "Actor2_Country": null, "Code": 84, "Class": 2, "Action_Location": "Saskatchewan, Manitoba, Canada", "Lat": 52.15, "Long": -97.7167, "Timestamp": 20181105204500, "Source": "https://www.brandonsun.com/national/breaking-news/saskatchewan-to-let-police-release-domestic-violence-records-to-people-at-risk-499695471.html"}, {"ID": 800240470, "Actor1": "NEW BRUNSWICK", "Actor1_Country": "CAN", "Actor2": "LIEUTENANT", "Actor2_Country": null, "Code": 40, "Class": 1, "Action_Location": "Canada", "Lat": 60.0, "Long": -96.0, "Timestamp": 20181105204500, "Source": "https://www.brandonsun.com/national/breaking-news/progressive-conservatives-set-to-take-power-friday-in-new-brunswick-499694161.html"}, {"ID": 800240471, "Actor1": "OTTAWA", "Actor1_Country": "CAN", "Actor2": "FRANCE", "Actor2_Country": "FRA", "Code": 17, "Class": 1, "Action_Location": "Germany", "Lat": 51.5, "Long": 10.5, "Timestamp": 20181105204500, "Source": "http://www.chroniclejournal.com/news/national/trudeau-to-visit-vimy-ridge-paris-for-first-world-war/article_04605825-519a-520a-a72c-02914fee3dff.html"}, {"ID": 800240484, "Actor1": "CHINA", "Actor1_Country": "CHN", "Actor2": "PAKISTAN", "Actor2_Country": "PAK", "Code": 33, "Class": 1, "Action_Location": "Beijing, Beijing, China", "Lat": 39.9289, "Long": 116.388, "Timestamp": 20181105204500, "Source": "http://in.newshub.org/pak-channel-trolled-showing-imran-khan-begging-he-beijing-29233049.html"}, {"ID": 800240517, "Actor1": "COLOMBIA", "Actor1_Country": "COL", "Actor2": "LOCAL MEDIA", "Actor2_Country": null, "Code": 13, "Class": 1, "Action_Location": "Cuba", "Lat": 22.0, "Long": -79.5, "Timestamp": 20181105204500, "Source": "https://www.thesun.co.uk/news/7665890/ten-year-old-girl-who-got-pregnant-after-being-raped-by-her-older-brother-gives-birth-to-a-baby-boy-in-colombia/"}, {"ID": 800240538, "Actor1": "DEPUTIES", "Actor1_Country": null, "Actor2": "MALE", "Actor2_Country": "MDV", "Code": 190, "Class": 4, "Action_Location": "Marin County, California, United States", "Lat": 38.0666, "Long": -122.734, "Timestamp": 20181105204500, "Source": "https://www.mysanantonio.com/crime/article/1-dead-2-injured-in-rehab-center-shooting-in-San-13363386.php"}, {"ID": 800240539, "Actor1": "DEPUTIES", "Actor1_Country": null, "Actor2": "MALE", "Actor2_Country": "MDV", "Code": 190, "Class": 4, "Action_Location": "Sonoma, California, United States", "Lat": 38.2919, "Long": -122.458, "Timestamp": 20181105204500, "Source": "https://www.mysanantonio.com/crime/article/1-dead-2-injured-in-rehab-center-shooting-in-San-13363386.php"}, {"ID": 800240546, "Actor1": "POLICE", "Actor1_Country": null, "Actor2": "CHICAGO", "Actor2_Country": "USA", "Code": 173, "Class": 4, "Action_Location": "Indiana, United States", "Lat": 39.8647, "Long": -86.2604, "Timestamp": 20181105204500, "Source": "https://www.thetelegraph.com/news/crime/article/Man-captured-a-month-after-Chicago-crash-kills-3-13363759.php"}, {"ID": 800240547, "Actor1": "POLICE", "Actor1_Country": null, "Actor2": "WISCONSIN", "Actor2_Country": "USA", "Code": 190, "Class": 4, "Action_Location": "Halmstad Elementary School, Wisconsin, United States", "Lat": 44.9144, "Long": -91.3793, "Timestamp": 20181105204500, "Source": "https://www.bbc.co.uk/news/world-us-canada-46102804"}, {"ID": 800240548, "Actor1": "POLICE", "Actor1_Country": null, "Actor2": "WISCONSIN", "Actor2_Country": "USA", "Code": 190, "Class": 4, "Action_Location": "Lake Hallie, Wisconsin, United States", "Lat": 44.8758, "Long": -91.4407, "Timestamp": 20181105204500, "Source": "https://www.bbc.co.uk/news/world-us-canada-46102804"}, {"ID": 800240559, "Actor1": "CROOK", "Actor1_Country": null, "Actor2": "UNITED STATES", "Actor2_Country": "USA", "Code": 112, "Class": 3, "Action_Location": "Ohio, United States", "Lat": 40.3736, "Long": -82.7755, "Timestamp": 20181105204500, "Source": "https://www.newstimes.com/news/politics/article/Trump-accuser-s-election-bid-is-about-more-than-13354783.php"}, {"ID": 800240561, "Actor1": "CROOK", "Actor1_Country": null, "Actor2": "OHIO", "Actor2_Country": "USA", "Code": 112, "Class": 3, "Action_Location": "Ohio, United States", "Lat": 40.3736, "Long": -82.7755, "Timestamp": 20181105204500, "Source": "https://www.newstimes.com/news/politics/article/Trump-accuser-s-election-bid-is-about-more-than-13354783.php"}, {"ID": 800240603, "Actor1": "COMMUNITY", "Actor1_Country": null, "Actor2": "GOVERNMENT", "Actor2_Country": null, "Code": 13, "Class": 1, "Action_Location": "Japan", "Lat": 36.0, "Long": 138.0, "Timestamp": 20181105204500, "Source": "https://www.dailymercury.com.au/news/bowen-basin-mine-hits-a-major-milestone/3568314/"}, {"ID": 800240605, "Actor1": "VOTER", "Actor1_Country": null, "Actor2": "PRESIDENT", "Actor2_Country": null, "Code": 43, "Class": 1, "Action_Location": "Maricopa County, Arizona, United States", "Lat": 33.5, "Long": -112.501, "Timestamp": 20181105204500, "Source": "http://www.rollcall.com/news/politics/doj-civil-rights-division-monitor-polls-35-counties-election-day"}, {"ID": 800240613, "Actor1": "VOTER", "Actor1_Country": null, "Actor2": "CONGRESS", "Actor2_Country": null, "Code": 52, "Class": 1, "Action_Location": "White House, District of Columbia, United States", "Lat": 38.8951, "Long": -77.0364, "Timestamp": 20181105204500, "Source": "http://www.rollcall.com/news/politics/democrats-have-much-more-at-stake-in-tuesdays-balloting"}, {"ID": 800240623, "Actor1": "VOTER", "Actor1_Country": null, "Actor2": "UNITED STATES", "Actor2_Country": "USA", "Code": 40, "Class": 1, "Action_Location": "White House, District of Columbia, United States", "Lat": 38.8951, "Long": -77.0364, "Timestamp": 20181105204500, "Source": "http://www.rollcall.com/news/politics/democrats-have-much-more-at-stake-in-tuesdays-balloting"}, {"ID": 800240628, "Actor1": "VILLAGE", "Actor1_Country": null, "Actor2": "HAWKEYE STATE", "Actor2_Country": "USA", "Code": 42, "Class": 1, "Action_Location": "Iowa, United States", "Lat": 42.0046, "Long": -93.214, "Timestamp": 20181105204500, "Source": "https://www.desmoinesregister.com/story/entertainment/music/2018/11/05/pop-punk-favorite-wonder-years-talk-sister-cities-des-moines-show-woolys-concerts-shows/1890231002/"}, {"ID": 800240633, "Actor1": "COMMUNITY", "Actor1_Country": null, "Actor2": "UNITED STATES", "Actor2_Country": "USA", "Code": 173, "Class": 4, "Action_Location": "Halmstad Elementary School, Wisconsin, United States", "Lat": 44.9144, "Long": -91.3793, "Timestamp": 20181105204500, "Source": "https://www.bbc.co.uk/news/world-us-canada-46102804"}, {"ID": 800240634, "Actor1": "COMMUNITY", "Actor1_Country": null, "Actor2": "UNITED STATES", "Actor2_Country": "USA", "Code": 173, "Class": 4, "Action_Location": "Chippewa County, Wisconsin, United States", "Lat": 45.0666, "Long": -91.2668, "Timestamp": 20181105204500, "Source": "https://www.bbc.co.uk/news/world-us-canada-46102804"}, {"ID": 800240635, "Actor1": "VOTER", "Actor1_Country": null, "Actor2": "UNITED STATES", "Actor2_Country": "USA", "Code": 43, "Class": 1, "Action_Location": "Maricopa County, Arizona, United States", "Lat": 33.5, "Long": -112.501, "Timestamp": 20181105204500, "Source": "http://www.rollcall.com/news/politics/doj-civil-rights-division-monitor-polls-35-counties-election-day"}, {"ID": 800240665, "Actor1": "UNIVERSITY", "Actor1_Country": null, "Actor2": "AUSTRALIA", "Actor2_Country": "AUS", "Code": 111, "Class": 3, "Action_Location": "Australia", "Lat": -25.0, "Long": 135.0, "Timestamp": 20181105204500, "Source": "https://www.dailymercury.com.au/news/unis-deserve-better-than-this-cheap-shot/3568341/"}, {"ID": 800240666, "Actor1": "UNIVERSITY", "Actor1_Country": null, "Actor2": "AUSTRALIA", "Actor2_Country": "AUS", "Code": 111, "Class": 3, "Action_Location": "Australia", "Lat": -25.0, "Long": 135.0, "Timestamp": 20181105204500, "Source": "https://www.dailymercury.com.au/news/unis-deserve-better-than-this-cheap-shot/3568341/"}, {"ID": 800240676, "Actor1": "UNIVERSITY", "Actor1_Country": null, "Actor2": "CHANCELLOR", "Actor2_Country": null, "Code": 111, "Class": 3, "Action_Location": "Australia", "Lat": -25.0, "Long": 135.0, "Timestamp": 20181105204500, "Source": "https://www.dailymercury.com.au/news/unis-deserve-better-than-this-cheap-shot/3568341/"}, {"ID": 800240685, "Actor1": "STUDENT", "Actor1_Country": null, "Actor2": "UNITED STATES", "Actor2_Country": "USA", "Code": 42, "Class": 1, "Action_Location": "Winterpock, Virginia, United States", "Lat": 37.346, "Long": -77.7194, "Timestamp": 20181105204500, "Source": "https://www.marketwatch.com/press-release/tazikis-mediterranean-cafe-virginia-launches-hope-program-2018-11-05"}, {"ID": 800240686, "Actor1": "COLLEGE", "Actor1_Country": null, "Actor2": "UNITED STATES", "Actor2_Country": "USA", "Code": 43, "Class": 1, "Action_Location": "Greene County, Virginia, United States", "Lat": 38.3001, "Long": -78.4664, "Timestamp": 20181105204500, "Source": "http://www.rollcall.com/news/politics/virginias-5th-district-sign-democrats-expanding-house-battlefield"}, {"ID": 800240687, "Actor1": "COLLEGE", "Actor1_Country": null, "Actor2": "UNITED STATES", "Actor2_Country": "USA", "Code": 43, "Class": 1, "Action_Location": "Stanardsville, Virginia, United States", "Lat": 38.2974, "Long": -78.44, "Timestamp": 20181105204500, "Source": "http://www.rollcall.com/news/politics/virginias-5th-district-sign-democrats-expanding-house-battlefield"}, {"ID": 800240688, "Actor1": "STUDENT", "Actor1_Country": null, "Actor2": "UNITED STATES", "Actor2_Country": "USA", "Code": 60, "Class": 2, "Action_Location": "Midlothian High School, Virginia, United States", "Lat": 37.4963, "Long": -77.6604, "Timestamp": 20181105204500, "Source": "https://www.marketwatch.com/press-release/tazikis-mediterranean-cafe-virginia-launches-hope-program-2018-11-05"}, {"ID": 800240689, "Actor1": "SCHOOL", "Actor1_Country": null, "Actor2": "UNITED STATES", "Actor2_Country": "USA", "Code": 60, "Class": 2, "Action_Location": "Virginia, United States", "Lat": 37.768, "Long": -78.2057, "Timestamp": 20181105204500, "Source": "https://www.marketwatch.com/press-release/tazikis-mediterranean-cafe-virginia-launches-hope-program-2018-11-05"}, {"ID": 800240693, "Actor1": "SCHOOL", "Actor1_Country": null, "Actor2": "NORTH CAROLINA", "Actor2_Country": "USA", "Code": 181, "Class": 4, "Action_Location": "Lumberton, North Carolina, United States", "Lat": 34.6182, "Long": -79.0086, "Timestamp": 20181105204500, "Source": "https://abcnews.go.com/US/13-year-girl-kidnapped-front-home-school-amber/story?id=58981442"}, {"ID": 800240694, "Actor1": "SCHOOL", "Actor1_Country": null, "Actor2": "NORTH CAROLINA", "Actor2_Country": "USA", "Code": 181, "Class": 4, "Action_Location": "Lumberton, North Carolina, United States", "Lat": 34.6182, "Long": -79.0086, "Timestamp": 20181105204500, "Source": "https://abcnews.go.com/US/13-year-girl-kidnapped-front-home-school-amber/story?id=58981442"}, {"ID": 800240695, "Actor1": "SCHOOL", "Actor1_Country": null, "Actor2": "NORTH CAROLINA", "Actor2_Country": "USA", "Code": 181, "Class": 4, "Action_Location": "South Carolina, United States", "Lat": 33.8191, "Long": -80.9066, "Timestamp": 20181105204500, "Source": "https://abcnews.go.com/US/13-year-girl-kidnapped-front-home-school-amber/story?id=58981442"}, {"ID": 800240696, "Actor1": "SCHOOL", "Actor1_Country": null, "Actor2": "INDIGENOUS", "Actor2_Country": null, "Code": 43, "Class": 1, "Action_Location": "Coober Pedy, South Australia, Australia", "Lat": -28.9974, "Long": 134.759, "Timestamp": 20181105204500, "Source": "https://www.dailymercury.com.au/news/wheres-the-lefts-outrage-over-indigenous-kids/3568342/"}, {"ID": 800240697, "Actor1": "SCHOOL", "Actor1_Country": null, "Actor2": "INDIGENOUS", "Actor2_Country": null, "Code": 43, "Class": 1, "Action_Location": "Nauru", "Lat": -0.533333, "Long": 166.916667, "Timestamp": 20181105204500, "Source": "https://www.dailymercury.com.au/news/wheres-the-lefts-outrage-over-indigenous-kids/3568342/"}, {"ID": 800240702, "Actor1": "SCHOOL", "Actor1_Country": null, "Actor2": "MANCHESTER", "Actor2_Country": "GBR", "Code": 43, "Class": 1, "Action_Location": "Manchester High School, Virginia, United States", "Lat": 37.4068, "Long": -77.6233, "Timestamp": 20181105204500, "Source": "https://www.marketwatch.com/press-release/tazikis-mediterranean-cafe-virginia-launches-hope-program-2018-11-05"}, {"ID": 800240704, "Actor1": "EGYPTIAN", "Actor1_Country": "EGY", "Actor2": "EGYPT", "Actor2_Country": "EGY", "Code": 10, "Class": 1, "Action_Location": "Cairo, Al Qahirah, Egypt", "Lat": 30.05, "Long": 31.25, "Timestamp": 20181105204500, "Source": "https://www.france24.com/en/20181105-egypt-treads-carefully-gaza-broker"}, {"ID": 800240705, "Actor1": "EGYPTIAN", "Actor1_Country": "EGY", "Actor2": "EGYPT", "Actor2_Country": "EGY", "Code": 84, "Class": 2, "Action_Location": "Cairo, Al Qahirah, Egypt", "Lat": 30.05, "Long": 31.25, "Timestamp": 20181105204500, "Source": "https://www.france24.com/en/20181105-egypt-treads-carefully-gaza-broker"}, {"ID": 800240706, "Actor1": "EGYPT", "Actor1_Country": "EGY", "Actor2": "ISRAEL", "Actor2_Country": "ISR", "Code": 43, "Class": 1, "Action_Location": "Cairo, Al Qahirah, Egypt", "Lat": 30.05, "Long": 31.25, "Timestamp": 20181105204500, "Source": "https://www.france24.com/en/20181105-egypt-treads-carefully-gaza-broker"}, {"ID": 800240707, "Actor1": "EGYPT", "Actor1_Country": "EGY", "Actor2": "ISRAEL", "Actor2_Country": "ISR", "Code": 43, "Class": 1, "Action_Location": "Gaza, Israel (general), Israel", "Lat": 31.4167, "Long": 34.3333, "Timestamp": 20181105204500, "Source": "https://www.france24.com/en/20181105-egypt-treads-carefully-gaza-broker"}, {"ID": 800240708, "Actor1": "CAIRO", "Actor1_Country": "EGY", "Actor2": "ISRAEL", "Actor2_Country": "ISR", "Code": 45, "Class": 1, "Action_Location": "Cairo, Al Qahirah, Egypt", "Lat": 30.05, "Long": 31.25, "Timestamp": 20181105204500, "Source": "https://www.france24.com/en/20181105-egypt-treads-carefully-gaza-broker"}, {"ID": 800240709, "Actor1": "EGYPT", "Actor1_Country": "EGY", "Actor2": "ISRAEL", "Actor2_Country": "ISR", "Code": 46, "Class": 1, "Action_Location": "Cairo, Al Qahirah, Egypt", "Lat": 30.05, "Long": 31.25, "Timestamp": 20181105204500, "Source": "https://www.france24.com/en/20181105-egypt-treads-carefully-gaza-broker"}, {"ID": 800240710, "Actor1": "EGYPTIAN", "Actor1_Country": "EGY", "Actor2": "JEWISH", "Actor2_Country": null, "Code": 45, "Class": 1, "Action_Location": "Cairo, Al Qahirah, Egypt", "Lat": 30.05, "Long": 31.25, "Timestamp": 20181105204500, "Source": "https://www.france24.com/en/20181105-egypt-treads-carefully-gaza-broker"}, {"ID": 800240711, "Actor1": "EGYPT", "Actor1_Country": "EGY", "Actor2": "JEWISH", "Actor2_Country": null, "Code": 45, "Class": 1, "Action_Location": "Cairo, Al Qahirah, Egypt", "Lat": 30.05, "Long": 31.25, "Timestamp": 20181105204500, "Source": "https://www.france24.com/en/20181105-egypt-treads-carefully-gaza-broker"}, {"ID": 800240712, "Actor1": "EGYPTIAN", "Actor1_Country": "EGY", "Actor2": "JEWISH", "Actor2_Country": null, "Code": 45, "Class": 1, "Action_Location": "Gaza, Israel (general), Israel", "Lat": 31.4167, "Long": 34.3333, "Timestamp": 20181105204500, "Source": "https://www.france24.com/en/20181105-egypt-treads-carefully-gaza-broker"}, {"ID": 800240713, "Actor1": "EGYPTIAN", "Actor1_Country": "EGY", "Actor2": "JEWISH", "Actor2_Country": null, "Code": 80, "Class": 2, "Action_Location": "Cairo, Al Qahirah, Egypt", "Lat": 30.05, "Long": 31.25, "Timestamp": 20181105204500, "Source": "https://www.france24.com/en/20181105-egypt-treads-carefully-gaza-broker"}, {"ID": 800240714, "Actor1": "EGYPT", "Actor1_Country": "EGY", "Actor2": "JEWISH", "Actor2_Country": null, "Code": 80, "Class": 2, "Action_Location": "Cairo, Al Qahirah, Egypt", "Lat": 30.05, "Long": 31.25, "Timestamp": 20181105204500, "Source": "https://www.france24.com/en/20181105-egypt-treads-carefully-gaza-broker"}, {"ID": 800240715, "Actor1": "EGYPTIAN", "Actor1_Country": "EGY", "Actor2": "JEWISH", "Actor2_Country": null, "Code": 80, "Class": 2, "Action_Location": "Gaza, Israel (general), Israel", "Lat": 31.4167, "Long": 34.3333, "Timestamp": 20181105204500, "Source": "https://www.france24.com/en/20181105-egypt-treads-carefully-gaza-broker"}, {"ID": 800240716, "Actor1": "EGYPT", "Actor1_Country": "EGY", "Actor2": "GAZA", "Actor2_Country": "PSE", "Code": 42, "Class": 1, "Action_Location": "Cairo, Al Qahirah, Egypt", "Lat": 30.05, "Long": 31.25, "Timestamp": 20181105204500, "Source": "https://www.france24.com/en/20181105-egypt-treads-carefully-gaza-broker"}, {"ID": 800240717, "Actor1": "EGYPT", "Actor1_Country": "EGY", "Actor2": "GAZA", "Actor2_Country": "PSE", "Code": 42, "Class": 1, "Action_Location": "Cairo, Al Qahirah, Egypt", "Lat": 30.05, "Long": 31.25, "Timestamp": 20181105204500, "Source": "https://www.france24.com/en/20181105-egypt-treads-carefully-gaza-broker"}, {"ID": 800240718, "Actor1": "EGYPT", "Actor1_Country": "EGY", "Actor2": "GAZA", "Actor2_Country": "PSE", "Code": 42, "Class": 1, "Action_Location": "Gaza Strip", "Lat": 31.425074, "Long": 34.373398, "Timestamp": 20181105204500, "Source": "https://www.france24.com/en/20181105-egypt-treads-carefully-gaza-broker"}, {"ID": 800240719, "Actor1": "CAIRO", "Actor1_Country": "EGY", "Actor2": "PALESTINIAN", "Actor2_Country": "PSE", "Code": 45, "Class": 1, "Action_Location": "Cairo, Al Qahirah, Egypt", "Lat": 30.05, "Long": 31.25, "Timestamp": 20181105204500, "Source": "https://www.france24.com/en/20181105-egypt-treads-carefully-gaza-broker"}, {"ID": 800240721, "Actor1": "EGYPT", "Actor1_Country": "EGY", "Actor2": "HAMAS", "Actor2_Country": "PSE", "Code": 10, "Class": 1, "Action_Location": "Cairo, Al Qahirah, Egypt", "Lat": 30.05, "Long": 31.25, "Timestamp": 20181105204500, "Source": "https://www.france24.com/en/20181105-egypt-treads-carefully-gaza-broker"}, {"ID": 800240722, "Actor1": "EGYPT", "Actor1_Country": "EGY", "Actor2": "HAMAS", "Actor2_Country": "PSE", "Code": 10, "Class": 1, "Action_Location": "Cairo, Al Qahirah, Egypt", "Lat": 30.05, "Long": 31.25, "Timestamp": 20181105204500, "Source": "https://www.france24.com/en/20181105-egypt-treads-carefully-gaza-broker"}, {"ID": 800240723, "Actor1": "EGYPTIAN", "Actor1_Country": "EGY", "Actor2": "HAMAS", "Actor2_Country": "PSE", "Code": 45, "Class": 1, "Action_Location": "Cairo, Al Qahirah, Egypt", "Lat": 30.05, "Long": 31.25, "Timestamp": 20181105204500, "Source": "https://www.france24.com/en/20181105-egypt-treads-carefully-gaza-broker"}, {"ID": 800240724, "Actor1": "EGYPT", "Actor1_Country": "EGY", "Actor2": "HAMAS", "Actor2_Country": "PSE", "Code": 45, "Class": 1, "Action_Location": "Cairo, Al Qahirah, Egypt", "Lat": 30.05, "Long": 31.25, "Timestamp": 20181105204500, "Source": "https://www.france24.com/en/20181105-egypt-treads-carefully-gaza-broker"}, {"ID": 800240725, "Actor1": "EGYPTIAN", "Actor1_Country": "EGY", "Actor2": "HAMAS", "Actor2_Country": "PSE", "Code": 45, "Class": 1, "Action_Location": "Gaza, Israel (general), Israel", "Lat": 31.4167, "Long": 34.3333, "Timestamp": 20181105204500, "Source": "https://www.france24.com/en/20181105-egypt-treads-carefully-gaza-broker"}, {"ID": 800240726, "Actor1": "EGYPTIAN", "Actor1_Country": "EGY", "Actor2": "HAMAS", "Actor2_Country": "PSE", "Code": 80, "Class": 2, "Action_Location": "Cairo, Al Qahirah, Egypt", "Lat": 30.05, "Long": 31.25, "Timestamp": 20181105204500, "Source": "https://www.france24.com/en/20181105-egypt-treads-carefully-gaza-broker"}, {"ID": 800240727, "Actor1": "EGYPT", "Actor1_Country": "EGY", "Actor2": "HAMAS", "Actor2_Country": "PSE", "Code": 80, "Class": 2, "Action_Location": "Cairo, Al Qahirah, Egypt", "Lat": 30.05, "Long": 31.25, "Timestamp": 20181105204500, "Source": "https://www.france24.com/en/20181105-egypt-treads-carefully-gaza-broker"}, {"ID": 800240728, "Actor1": "EGYPTIAN", "Actor1_Country": "EGY", "Actor2": "HAMAS", "Actor2_Country": "PSE", "Code": 80, "Class": 2, "Action_Location": "Gaza, Israel (general), Israel", "Lat": 31.4167, "Long": 34.3333, "Timestamp": 20181105204500, "Source": "https://www.france24.com/en/20181105-egypt-treads-carefully-gaza-broker"}, {"ID": 800240731, "Actor1": "EGYPTIAN", "Actor1_Country": "EGY", "Actor2": "EGYPTIAN", "Actor2_Country": "EGY", "Code": 84, "Class": 2, "Action_Location": "Cairo, Al Qahirah, Egypt", "Lat": 30.05, "Long": 31.25, "Timestamp": 20181105204500, "Source": "https://www.france24.com/en/20181105-egypt-treads-carefully-gaza-broker"}, {"ID": 800240732, "Actor1": "EGYPT", "Actor1_Country": "EGY", "Actor2": "HAMAS", "Actor2_Country": "PSE", "Code": 51, "Class": 1, "Action_Location": "Cairo, Al Qahirah, Egypt", "Lat": 30.05, "Long": 31.25, "Timestamp": 20181105204500, "Source": "https://www.france24.com/en/20181105-egypt-treads-carefully-gaza-broker"}, {"ID": 800240742, "Actor1": "ERITREA", "Actor1_Country": "ERI", "Actor2": "ETHIOPIA", "Actor2_Country": "ETH", "Code": 40, "Class": 1, "Action_Location": "Eritrea", "Lat": 15.0, "Long": 39.0, "Timestamp": 20181105204500, "Source": "https://www.idahostatesman.com/news/business/article221157705.html"}, {"ID": 800240743, "Actor1": "ERITREA", "Actor1_Country": "ERI", "Actor2": "ETHIOPIA", "Actor2_Country": "ETH", "Code": 40, "Class": 1, "Action_Location": "Ethiopia", "Lat": 8.0, "Long": 38.0, "Timestamp": 20181105204500, "Source": "https://www.idahostatesman.com/news/business/article221157705.html"}, {"ID": 800240744, "Actor1": "ERITREA", "Actor1_Country": "ERI", "Actor2": "IDAHO", "Actor2_Country": "USA", "Code": 351, "Class": 1, "Action_Location": "Somalia", "Lat": 6.0, "Long": 48.0, "Timestamp": 20181105204500, "Source": "https://www.idahostatesman.com/news/business/article221157705.html"}, {"ID": 800240755, "Actor1": "ETHIOPIA", "Actor1_Country": "ETH", "Actor2": "ERITREA", "Actor2_Country": "ERI", "Code": 40, "Class": 1, "Action_Location": "Eritrea", "Lat": 15.0, "Long": 39.0, "Timestamp": 20181105204500, "Source": "https://www.idahostatesman.com/news/business/article221157705.html"}, {"ID": 800240756, "Actor1": "ETHIOPIA", "Actor1_Country": "ETH", "Actor2": "ERITREA", "Actor2_Country": "ERI", "Code": 40, "Class": 1, "Action_Location": "Ethiopia", "Lat": 8.0, "Long": 38.0, "Timestamp": 20181105204500, "Source": "https://www.idahostatesman.com/news/business/article221157705.html"}, {"ID": 800240757, "Actor1": "ETHIOPIA", "Actor1_Country": "ETH", "Actor2": "ERITREA", "Actor2_Country": "ERI", "Code": 113, "Class": 3, "Action_Location": "Ethiopia", "Lat": 8.0, "Long": 38.0, "Timestamp": 20181105204500, "Source": "https://www.idahostatesman.com/news/business/article221157705.html"}, {"ID": 800240759, "Actor1": "HELSINKI", "Actor1_Country": "FIN", "Actor2": "RUSSIAN", "Actor2_Country": "RUS", "Code": 40, "Class": 1, "Action_Location": "Helsinki, Etel\u00e4uomen L\u00e4i, Finland", "Lat": 60.1756, "Long": 24.9342, "Timestamp": 20181105204500, "Source": "https://thestarphoenix.com/pmn/news-pmn/trump-says-he-probably-wont-meet-with-putin-in-paris/wcm/489dd173-8c3f-490f-aae4-bd6708ff44ee"}, {"ID": 800240760, "Actor1": "HELSINKI", "Actor1_Country": "FIN", "Actor2": "UNITED STATES", "Actor2_Country": "USA", "Code": 40, "Class": 1, "Action_Location": "Washington, District of Columbia, United States", "Lat": 38.8951, "Long": -77.0364, "Timestamp": 20181105204500, "Source": "https://thestarphoenix.com/pmn/news-pmn/trump-says-he-probably-wont-meet-with-putin-in-paris/wcm/489dd173-8c3f-490f-aae4-bd6708ff44ee"}, {"ID": 800240761, "Actor1": "HELSINKI", "Actor1_Country": "FIN", "Actor2": "UNITED STATES", "Actor2_Country": "USA", "Code": 40, "Class": 1, "Action_Location": "Washington, District of Columbia, United States", "Lat": 38.8951, "Long": -77.0364, "Timestamp": 20181105204500, "Source": "https://thestarphoenix.com/pmn/news-pmn/trump-says-he-probably-wont-meet-with-putin-in-paris/wcm/489dd173-8c3f-490f-aae4-bd6708ff44ee"}, {"ID": 800240794, "Actor1": "BIRMINGHAM", "Actor1_Country": "GBR", "Actor2": "AUSTRALIA", "Actor2_Country": "AUS", "Code": 120, "Class": 3, "Action_Location": "Australia", "Lat": -25.0, "Long": 135.0, "Timestamp": 20181105204500, "Source": "https://www.dailymercury.com.au/news/unis-deserve-better-than-this-cheap-shot/3568341/"}, {"ID": 800240799, "Actor1": "BIRMINGHAM", "Actor1_Country": "GBR", "Actor2": "UNIVERSITY", "Actor2_Country": null, "Code": 36, "Class": 1, "Action_Location": "Australia", "Lat": -25.0, "Long": 135.0, "Timestamp": 20181105204500, "Source": "https://www.dailymercury.com.au/news/unis-deserve-better-than-this-cheap-shot/3568341/"}, {"ID": 800240800, "Actor1": "MANCHESTER", "Actor1_Country": "GBR", "Actor2": "SCHOOL", "Actor2_Country": null, "Code": 42, "Class": 1, "Action_Location": "Manchester High School, Virginia, United States", "Lat": 37.4068, "Long": -77.6233, "Timestamp": 20181105204500, "Source": "https://www.marketwatch.com/press-release/tazikis-mediterranean-cafe-virginia-launches-hope-program-2018-11-05"}, {"ID": 800240804, "Actor1": "UNITED KINGDOM", "Actor1_Country": "GBR", "Actor2": "THERESA MAY", "Actor2_Country": "GBR", "Code": 233, "Class": 1, "Action_Location": "United Kingdom", "Lat": 54.0, "Long": -4.0, "Timestamp": 20181105204500, "Source": "https://www.lbc.co.uk/news/world/asia-bibi-lawyer-of-christian-woman-accused-o/"}, {"ID": 800240805, "Actor1": "BRITAIN", "Actor1_Country": "GBR", "Actor2": "THERESA MAY", "Actor2_Country": "GBR", "Code": 75, "Class": 2, "Action_Location": "United Kingdom", "Lat": 54.0, "Long": -4.0, "Timestamp": 20181105204500, "Source": "https://www.lbc.co.uk/news/world/asia-bibi-lawyer-of-christian-woman-accused-o/"}, {"ID": 800240814, "Actor1": "MANCHESTER", "Actor1_Country": "GBR", "Actor2": "UNITED STATES", "Actor2_Country": "USA", "Code": 42, "Class": 1, "Action_Location": "Manchester High School, Virginia, United States", "Lat": 37.4068, "Long": -77.6233, "Timestamp": 20181105204500, "Source": "https://www.marketwatch.com/press-release/tazikis-mediterranean-cafe-virginia-launches-hope-program-2018-11-05"}, {"ID": 800240819, "Actor1": "THERESA MAY", "Actor1_Country": "GBR", "Actor2": "BRITAIN", "Actor2_Country": "GBR", "Code": 233, "Class": 1, "Action_Location": "United Kingdom", "Lat": 54.0, "Long": -4.0, "Timestamp": 20181105204500, "Source": "https://www.lbc.co.uk/news/world/asia-bibi-lawyer-of-christian-woman-accused-o/"}, {"ID": 800240852, "Actor1": "PRIME MINISTER", "Actor1_Country": null, "Actor2": "MELBOURNE", "Actor2_Country": "AUS", "Code": 36, "Class": 1, "Action_Location": "Melbourne, Victoria, Australia", "Lat": -37.8167, "Long": 144.967, "Timestamp": 20181105204500, "Source": "https://www.kiamaindependent.com.au/story/5741796/coalition-mps-mull-two-elections-in-2019/"}, {"ID": 800240860, "Actor1": "GOVERNMENT", "Actor1_Country": null, "Actor2": "COMPANIES", "Actor2_Country": null, "Code": 51, "Class": 1, "Action_Location": "Canada", "Lat": 60.0, "Long": -96.0, "Timestamp": 20181105204500, "Source": "https://www.theglobeandmail.com/canada/british-columbia/article-bc-sued-by-conservation-group-for-exempting-two-fracking-dams-from/"}, {"ID": 800240868, "Actor1": "PRESIDENT", "Actor1_Country": null, "Actor2": "VOTER", "Actor2_Country": null, "Code": 42, "Class": 1, "Action_Location": "Maricopa County, Arizona, United States", "Lat": 33.5, "Long": -112.501, "Timestamp": 20181105204500, "Source": "http://www.rollcall.com/news/politics/doj-civil-rights-division-monitor-polls-35-counties-election-day"}, {"ID": 800240869, "Actor1": "PRESIDENT", "Actor1_Country": null, "Actor2": "VOTER", "Actor2_Country": null, "Code": 42, "Class": 1, "Action_Location": "Virginia, United States", "Lat": 37.768, "Long": -78.2057, "Timestamp": 20181105204500, "Source": "http://www.rollcall.com/news/politics/doj-civil-rights-division-monitor-polls-35-counties-election-day"}, {"ID": 800240872, "Actor1": "PRESIDENT", "Actor1_Country": null, "Actor2": "VOTER", "Actor2_Country": null, "Code": 91, "Class": 2, "Action_Location": "Maricopa County, Arizona, United States", "Lat": 33.5, "Long": -112.501, "Timestamp": 20181105204500, "Source": "http://www.rollcall.com/news/politics/doj-civil-rights-division-monitor-polls-35-counties-election-day"}, {"ID": 800240908, "Actor1": "PRIME MINISTER", "Actor1_Country": null, "Actor2": "OPPOSITION LEADER", "Actor2_Country": null, "Code": 36, "Class": 1, "Action_Location": "Sunshine Coast, Queensland, Australia", "Lat": -26.5, "Long": 153.0, "Timestamp": 20181105204500, "Source": "https://www.kiamaindependent.com.au/story/5741796/coalition-mps-mull-two-elections-in-2019/"}, {"ID": 800240909, "Actor1": "PRIME MINISTER", "Actor1_Country": null, "Actor2": "OPPOSITION LEADER", "Actor2_Country": null, "Code": 36, "Class": 1, "Action_Location": "Sunshine Coast, Queensland, Australia", "Lat": -26.5, "Long": 153.0, "Timestamp": 20181105204500, "Source": "https://www.kiamaindependent.com.au/story/5741796/coalition-mps-mull-two-elections-in-2019/"}, {"ID": 800240923, "Actor1": "PRESIDENT", "Actor1_Country": null, "Actor2": "UNITED STATES", "Actor2_Country": "USA", "Code": 15, "Class": 1, "Action_Location": "Illinois, United States", "Lat": 40.3363, "Long": -89.0022, "Timestamp": 20181105204500, "Source": "https://www.lmtonline.com/news/education/article/Everything-s-at-stake-on-eve-of-first-Trump-era-13362647.php"}, {"ID": 800240928, "Actor1": "PRESIDENT", "Actor1_Country": null, "Actor2": "CHICAGO", "Actor2_Country": "USA", "Code": 42, "Class": 1, "Action_Location": "Chicago, Illinois, United States", "Lat": 41.85, "Long": -87.6501, "Timestamp": 20181105204500, "Source": "http://www.realtimesmedia.com/index.php/memphis/81063-yes-we-still-can-what-barack-obama%E2%80%99s-presidency-means-10-years-later"}, {"ID": 800240931, "Actor1": "PRESIDENT", "Actor1_Country": null, "Actor2": "OHIO", "Actor2_Country": "USA", "Code": 42, "Class": 1, "Action_Location": "Ohio, United States", "Lat": 40.3736, "Long": -82.7755, "Timestamp": 20181105204500, "Source": "http://www.rollcall.com/news/politics/congressional-leaders-warn-check-trump-presidency"}, {"ID": 800240942, "Actor1": "PRESIDENT", "Actor1_Country": null, "Actor2": "THE ASSOCIATED PRESS", "Actor2_Country": "USA", "Code": 15, "Class": 1, "Action_Location": "Illinois, United States", "Lat": 40.3363, "Long": -89.0022, "Timestamp": 20181105204500, "Source": "https://www.lmtonline.com/news/education/article/Everything-s-at-stake-on-eve-of-first-Trump-era-13362647.php"}, {"ID": 800240943, "Actor1": "PRESIDENT", "Actor1_Country": null, "Actor2": "THE ASSOCIATED PRESS", "Actor2_Country": "USA", "Code": 42, "Class": 1, "Action_Location": "Montana, United States", "Lat": 46.9048, "Long": -110.326, "Timestamp": 20181105204500, "Source": "https://www.lmtonline.com/news/education/article/Everything-s-at-stake-on-eve-of-first-Trump-era-13362647.php"}, {"ID": 800240947, "Actor1": "RULER", "Actor1_Country": null, "Actor2": "ISTANBUL", "Actor2_Country": "TUR", "Code": 42, "Class": 1, "Action_Location": "Riyadh, Ar Riya?, Saudi Arabia", "Lat": 24.6408, "Long": 46.7728, "Timestamp": 20181105204500, "Source": "https://www.ghanavisions.com/news/world/225558-saudis-sent-to-look-into-khashoggi-murder-were-removing-evidence.html"}, {"ID": 800240948, "Actor1": "RULER", "Actor1_Country": null, "Actor2": "ISTANBUL", "Actor2_Country": "TUR", "Code": 42, "Class": 1, "Action_Location": "Riyadh, Ar Riya?, Saudi Arabia", "Lat": 24.6408, "Long": 46.7728, "Timestamp": 20181105204500, "Source": "https://www.ghanavisions.com/news/world/225558-saudis-sent-to-look-into-khashoggi-murder-were-removing-evidence.html"}, {"ID": 800240978, "Actor1": "HOSPITAL", "Actor1_Country": null, "Actor2": "LOCAL MEDIA", "Actor2_Country": null, "Code": 10, "Class": 1, "Action_Location": "Cuba", "Lat": 22.0, "Long": -79.5, "Timestamp": 20181105204500, "Source": "https://www.thesun.co.uk/news/7665890/ten-year-old-girl-who-got-pregnant-after-being-raped-by-her-older-brother-gives-birth-to-a-baby-boy-in-colombia/"}, {"ID": 800240987, "Actor1": "THE SECURITY COUNCIL", "Actor1_Country": null, "Actor2": "ERITREA", "Actor2_Country": "ERI", "Code": 36, "Class": 1, "Action_Location": "Somalia", "Lat": 6.0, "Long": 48.0, "Timestamp": 20181105204500, "Source": "http://www.startribune.com/eritrea-hopes-un-will-lift-sanctions/499693441/"}, {"ID": 800240988, "Actor1": "THE SECURITY COUNCIL", "Actor1_Country": null, "Actor2": "ERITREA", "Actor2_Country": "ERI", "Code": 36, "Class": 1, "Action_Location": "Eritrea", "Lat": 15.0, "Long": 39.0, "Timestamp": 20181105204500, "Source": "https://www.idahostatesman.com/news/business/article221157705.html"}, {"ID": 800240989, "Actor1": "THE SECURITY COUNCIL", "Actor1_Country": null, "Actor2": "ERITREA", "Actor2_Country": "ERI", "Code": 36, "Class": 1, "Action_Location": "Somalia", "Lat": 6.0, "Long": 48.0, "Timestamp": 20181105204500, "Source": "https://www.islandpacket.com/news/business/article221157705.html"}, {"ID": 800240990, "Actor1": "THE SECURITY COUNCIL", "Actor1_Country": null, "Actor2": "ERITREA", "Actor2_Country": "ERI", "Code": 36, "Class": 1, "Action_Location": "Eritrea", "Lat": 15.0, "Long": 39.0, "Timestamp": 20181105204500, "Source": "https://www.idahostatesman.com/news/business/article221157705.html"}, {"ID": 800241029, "Actor1": "ISRAEL", "Actor1_Country": "ISR", "Actor2": "EGYPT", "Actor2_Country": "EGY", "Code": 42, "Class": 1, "Action_Location": "Cairo, Al Qahirah, Egypt", "Lat": 30.05, "Long": 31.25, "Timestamp": 20181105204500, "Source": "https://www.france24.com/en/20181105-egypt-treads-carefully-gaza-broker"}, {"ID": 800241030, "Actor1": "ISRAEL", "Actor1_Country": "ISR", "Actor2": "EGYPT", "Actor2_Country": "EGY", "Code": 42, "Class": 1, "Action_Location": "Gaza, Israel (general), Israel", "Lat": 31.4167, "Long": 34.3333, "Timestamp": 20181105204500, "Source": "https://www.france24.com/en/20181105-egypt-treads-carefully-gaza-broker"}, {"ID": 800241031, "Actor1": "ISRAEL", "Actor1_Country": "ISR", "Actor2": "EGYPT", "Actor2_Country": "EGY", "Code": 46, "Class": 1, "Action_Location": "Cairo, Al Qahirah, Egypt", "Lat": 30.05, "Long": 31.25, "Timestamp": 20181105204500, "Source": "https://www.france24.com/en/20181105-egypt-treads-carefully-gaza-broker"}, {"ID": 800241032, "Actor1": "ISRAEL", "Actor1_Country": "ISR", "Actor2": "EGYPT", "Actor2_Country": "EGY", "Code": 46, "Class": 1, "Action_Location": "Gaza, Israel (general), Israel", "Lat": 31.4167, "Long": 34.3333, "Timestamp": 20181105204500, "Source": "https://www.france24.com/en/20181105-egypt-treads-carefully-gaza-broker"}, {"ID": 800241037, "Actor1": "ISRAEL", "Actor1_Country": "ISR", "Actor2": "PALESTINIAN", "Actor2_Country": "PSE", "Code": 45, "Class": 1, "Action_Location": "Cairo, Al Qahirah, Egypt", "Lat": 30.05, "Long": 31.25, "Timestamp": 20181105204500, "Source": "https://www.france24.com/en/20181105-egypt-treads-carefully-gaza-broker"}, {"ID": 800241038, "Actor1": "ISRAEL", "Actor1_Country": "ISR", "Actor2": "PALESTINIAN", "Actor2_Country": "PSE", "Code": 45, "Class": 1, "Action_Location": "Gaza, Israel (general), Israel", "Lat": 31.4167, "Long": 34.3333, "Timestamp": 20181105204500, "Source": "https://www.france24.com/en/20181105-egypt-treads-carefully-gaza-broker"}, {"ID": 800241082, "Actor1": "JAPAN", "Actor1_Country": "JPN", "Actor2": "COMMUNITY", "Actor2_Country": null, "Code": 13, "Class": 1, "Action_Location": "Japan", "Lat": 36.0, "Long": 138.0, "Timestamp": 20181105204500, "Source": "https://www.dailymercury.com.au/news/bowen-basin-mine-hits-a-major-milestone/3568314/"}, {"ID": 800241100, "Actor1": "JUSTICE OF THE PEACE", "Actor1_Country": null, "Actor2": "SAN ANTONIO", "Actor2_Country": "USA", "Code": 10, "Class": 1, "Action_Location": "San Antonio, Texas, United States", "Lat": 29.4241, "Long": -98.4936, "Timestamp": 20181105204500, "Source": "https://www.couriermail.com.au/news/breaking-news/newlyweds-killed-in-helicopter-crash-in-us/news-story/28179a6adc228e7d6525bc215f902c7f?nk=4c89eca686a2d4f70011d5b9d180f75c-1541449926"}, {"ID": 800241101, "Actor1": "JUSTICE OF THE PEACE", "Actor1_Country": null, "Actor2": "UNITED STATES", "Actor2_Country": "USA", "Code": 13, "Class": 1, "Action_Location": "San Antonio, Texas, United States", "Lat": 29.4241, "Long": -98.4936, "Timestamp": 20181105204500, "Source": "https://www.couriermail.com.au/news/breaking-news/newlyweds-killed-in-helicopter-crash-in-us/news-story/28179a6adc228e7d6525bc215f902c7f?nk=4c89eca686a2d4f70011d5b9d180f75c-1541449926"}, {"ID": 800241102, "Actor1": "PROSECUTOR", "Actor1_Country": null, "Actor2": "UNITED STATES", "Actor2_Country": "USA", "Code": 13, "Class": 1, "Action_Location": "Houston, Texas, United States", "Lat": 29.7633, "Long": -95.3633, "Timestamp": 20181105204500, "Source": "https://www.mysanantonio.com/news/texas/article/Deliberations-resume-in-trial-against-ex-deputy-s-13363737.php"}, {"ID": 800241139, "Actor1": "CONGRESS", "Actor1_Country": null, "Actor2": "MADHYA PRADESH", "Actor2_Country": "IND", "Code": 84, "Class": 2, "Action_Location": "Budhni, Madhya Pradesh, India", "Lat": 22.7833, "Long": 77.6833, "Timestamp": 20181105204500, "Source": "http://in.newshub.org/congress-releases-3rd-list-13-candidates-madhya-pradesh-assembly-elections-29233275.html"}, {"ID": 800241175, "Actor1": "MEDIA", "Actor1_Country": null, "Actor2": "CANADA", "Actor2_Country": "CAN", "Code": 46, "Class": 1, "Action_Location": "Toronto, Ontario, Canada", "Lat": 43.6667, "Long": -79.4167, "Timestamp": 20181105204500, "Source": "https://www.gulfnews.ca/living/chance-cove-native-part-of-panel-discussion-at-child-helpline-international-conference-in-toronto-256771/"}, {"ID": 800241176, "Actor1": "MEDIA", "Actor1_Country": null, "Actor2": "NEW BRUNSWICK", "Actor2_Country": "CAN", "Code": 90, "Class": 2, "Action_Location": "Canada", "Lat": 60.0, "Long": -96.0, "Timestamp": 20181105204500, "Source": "https://www.brandonsun.com/national/breaking-news/progressive-conservatives-set-to-take-power-friday-in-new-brunswick-499694161.html"}, {"ID": 800241177, "Actor1": "MEDIA", "Actor1_Country": null, "Actor2": "TOURIST", "Actor2_Country": null, "Code": 10, "Class": 1, "Action_Location": "Lebanon", "Lat": 33.833333, "Long": 35.833333, "Timestamp": 20181105204500, "Source": "http://www.naharnet.com/stories/en/252746-guidanian-apologizes-after-saying-egypt-is-a-dirty-place"}, {"ID": 800241181, "Actor1": "MEDIA", "Actor1_Country": null, "Actor2": "LEBANON", "Actor2_Country": "LBN", "Code": 10, "Class": 1, "Action_Location": "Lebanon", "Lat": 33.833333, "Long": 35.833333, "Timestamp": 20181105204500, "Source": "http://www.naharnet.com/stories/en/252746-guidanian-apologizes-after-saying-egypt-is-a-dirty-place"}, {"ID": 800241182, "Actor1": "MEDIA", "Actor1_Country": null, "Actor2": "MEDIA", "Actor2_Country": null, "Code": 60, "Class": 2, "Action_Location": "Toronto, Ontario, Canada", "Lat": 43.6667, "Long": -79.4167, "Timestamp": 20181105204500, "Source": "https://www.gulfnews.ca/living/chance-cove-native-part-of-panel-discussion-at-child-helpline-international-conference-in-toronto-256771/"}, {"ID": 800241183, "Actor1": "MEDIA", "Actor1_Country": null, "Actor2": "HAMAS", "Actor2_Country": "PSE", "Code": 51, "Class": 1, "Action_Location": "Cairo, Al Qahirah, Egypt", "Lat": 30.05, "Long": 31.25, "Timestamp": 20181105204500, "Source": "https://www.france24.com/en/20181105-egypt-treads-carefully-gaza-broker"}, {"ID": 800241184, "Actor1": "MEDIA", "Actor1_Country": null, "Actor2": "UNITED STATES", "Actor2_Country": "USA", "Code": 10, "Class": 1, "Action_Location": "Houston, Texas, United States", "Lat": 29.7633, "Long": -95.3633, "Timestamp": 20181105204500, "Source": "https://www.caller.com/story/news/politics/elections/2018/11/05/2018-midterms-beto-orourke-ted-cruz-updates/1889876002/"}, {"ID": 800241185, "Actor1": "TELEVISION", "Actor1_Country": null, "Actor2": "UNITED STATES", "Actor2_Country": "USA", "Code": 40, "Class": 1, "Action_Location": "Phoenix, Arizona, United States", "Lat": 33.4484, "Long": -112.074, "Timestamp": 20181105204500, "Source": "https://abc30.com/politics/these-candidates-could-make-history-on-tuesday/4623487/"}, {"ID": 800241193, "Actor1": "MEDIA", "Actor1_Country": null, "Actor2": "CANADA", "Actor2_Country": "CAN", "Code": 46, "Class": 1, "Action_Location": "Toronto, Ontario, Canada", "Lat": 43.6667, "Long": -79.4167, "Timestamp": 20181105204500, "Source": "https://www.gulfnews.ca/living/chance-cove-native-part-of-panel-discussion-at-child-helpline-international-conference-in-toronto-256771/"}, {"ID": 800241194, "Actor1": "MEDIA", "Actor1_Country": null, "Actor2": "MEDIA", "Actor2_Country": null, "Code": 60, "Class": 2, "Action_Location": "Toronto, Ontario, Canada", "Lat": 43.6667, "Long": -79.4167, "Timestamp": 20181105204500, "Source": "https://www.gulfnews.ca/living/chance-cove-native-part-of-panel-discussion-at-child-helpline-international-conference-in-toronto-256771/"}, {"ID": 800241198, "Actor1": "MEXICO", "Actor1_Country": "MEX", "Actor2": "UNITED STATES", "Actor2_Country": "USA", "Code": 174, "Class": 4, "Action_Location": "Brooklyn, New York, United States", "Lat": 42.3442, "Long": -75.1704, "Timestamp": 20181105204500, "Source": "http://www.wypr.org/post/notorious-drug-lord-el-chapo-heads-trial-new-york"}, {"ID": 800241220, "Actor1": "AIR FORCE", "Actor1_Country": null, "Actor2": "DELAWARE", "Actor2_Country": "USA", "Code": 42, "Class": 1, "Action_Location": "Iraq", "Lat": 33.0, "Long": 44.0, "Timestamp": 20181105204500, "Source": "https://www.12news.com/article/news/utah-mayor-killed-in-afghanistan-grew-up-in-arizona/75-eaf5457a-d5a2-4246-ac0f-759f1c86dab7"}, {"ID": 800241221, "Actor1": "LIEUTENANT", "Actor1_Country": null, "Actor2": "NEW BRUNSWICK", "Actor2_Country": "CAN", "Code": 40, "Class": 1, "Action_Location": "Canada", "Lat": 60.0, "Long": -96.0, "Timestamp": 20181105204500, "Source": "https://www.brandonsun.com/national/breaking-news/progressive-conservatives-set-to-take-power-friday-in-new-brunswick-499694161.html"}, {"ID": 800241227, "Actor1": "CREDIT SUISSE", "Actor1_Country": "CHE", "Actor2": "CANADA", "Actor2_Country": "CAN", "Code": 13, "Class": 1, "Action_Location": "Canada", "Lat": 60.0, "Long": -96.0, "Timestamp": 20181105204500, "Source": "https://siouxcityjournal.com/business/lowe-s-to-close-dozens-of-underperforming-stores-across-the/article_8d14cfa9-9b99-522f-9f4f-1f6693633623.html"}, {"ID": 800241245, "Actor1": "GOOGLE", "Actor1_Country": "USA", "Actor2": "UNITED STATES", "Actor2_Country": "USA", "Code": 10, "Class": 1, "Action_Location": "Tennessee, United States", "Lat": 35.7449, "Long": -86.7489, "Timestamp": 20181105204500, "Source": "http://freerepublic.com/tag/*/index?more=3703096"}, {"ID": 800241271, "Actor1": "NAURUAN", "Actor1_Country": "NRU", "Actor2": "AUSTRALIAN", "Actor2_Country": "AUS", "Code": 20, "Class": 1, "Action_Location": "Northern Territory, Northern Territory, Australia", "Lat": -20.0, "Long": 134.0, "Timestamp": 20181105204500, "Source": "https://www.dailymercury.com.au/news/wheres-the-lefts-outrage-over-indigenous-kids/3568342/"}, {"ID": 800241272, "Actor1": "NAURUAN", "Actor1_Country": "NRU", "Actor2": "AUSTRALIAN", "Actor2_Country": "AUS", "Code": 1822, "Class": 4, "Action_Location": "Coober Pedy, South Australia, Australia", "Lat": -28.9974, "Long": 134.759, "Timestamp": 20181105204500, "Source": "https://www.dailymercury.com.au/news/wheres-the-lefts-outrage-over-indigenous-kids/3568342/"}, {"ID": 800241320, "Actor1": "PAKISTAN", "Actor1_Country": "PAK", "Actor2": "CHINA", "Actor2_Country": "CHN", "Code": 10, "Class": 1, "Action_Location": "Beijing, Beijing, China", "Lat": 39.9289, "Long": 116.388, "Timestamp": 20181105204500, "Source": "http://in.newshub.org/pak-channel-trolled-showing-imran-khan-begging-he-beijing-29233049.html"}, {"ID": 800241321, "Actor1": "PAKISTAN", "Actor1_Country": "PAK", "Actor2": "PRIME MINISTER", "Actor2_Country": null, "Code": 10, "Class": 1, "Action_Location": "Pakistan", "Lat": 30.0, "Long": 70.0, "Timestamp": 20181105204500, "Source": "http://in.newshub.org/pak-channel-trolled-showing-imran-khan-begging-he-beijing-29233049.html"}, {"ID": 800241324, "Actor1": "PAKISTAN", "Actor1_Country": "PAK", "Actor2": "GARRISON", "Actor2_Country": null, "Code": 144, "Class": 3, "Action_Location": "Islamabad, Islamabad, Pakistan", "Lat": 33.7, "Long": 73.1667, "Timestamp": 20181105204500, "Source": "https://www.lbc.co.uk/news/world/asia-bibi-lawyer-of-christian-woman-accused-o/"}, {"ID": 800241325, "Actor1": "ISLAMABAD", "Actor1_Country": "PAK", "Actor2": "GARRISON", "Actor2_Country": null, "Code": 144, "Class": 3, "Action_Location": "Islamabad, Islamabad, Pakistan", "Lat": 33.7, "Long": 73.1667, "Timestamp": 20181105204500, "Source": "https://www.lbc.co.uk/news/world/asia-bibi-lawyer-of-christian-woman-accused-o/"}, {"ID": 800241326, "Actor1": "ISLAMABAD", "Actor1_Country": "PAK", "Actor2": "GARRISON", "Actor2_Country": null, "Code": 144, "Class": 3, "Action_Location": "Italy", "Lat": 42.833333, "Long": 12.833333, "Timestamp": 20181105204500, "Source": "https://www.lbc.co.uk/news/world/asia-bibi-lawyer-of-christian-woman-accused-o/"}, {"ID": 800241329, "Actor1": "PAKISTANI", "Actor1_Country": "PAK", "Actor2": "THE NETHERLAND", "Actor2_Country": "NLD", "Code": 80, "Class": 2, "Action_Location": "Rawalpindi, Punjab, Pakistan", "Lat": 33.6, "Long": 73.0667, "Timestamp": 20181105204500, "Source": "https://www.lbc.co.uk/news/world/asia-bibi-lawyer-of-christian-woman-accused-o/"}, {"ID": 800241336, "Actor1": "PAKISTANI", "Actor1_Country": "PAK", "Actor2": "PAKISTAN", "Actor2_Country": "PAK", "Code": 81, "Class": 2, "Action_Location": "Islamabad, Islamabad, Pakistan", "Lat": 33.7, "Long": 73.1667, "Timestamp": 20181105204500, "Source": "https://www.lbc.co.uk/news/world/asia-bibi-lawyer-of-christian-woman-accused-o/"}, {"ID": 800241346, "Actor1": "PAKISTANI", "Actor1_Country": "PAK", "Actor2": "THE NETHERLAND", "Actor2_Country": "NLD", "Code": 80, "Class": 2, "Action_Location": "Rawalpindi, Punjab, Pakistan", "Lat": 33.6, "Long": 73.0667, "Timestamp": 20181105204500, "Source": "https://www.lbc.co.uk/news/world/asia-bibi-lawyer-of-christian-woman-accused-o/"}, {"ID": 800241347, "Actor1": "PAKISTANI", "Actor1_Country": "PAK", "Actor2": "THE NETHERLAND", "Actor2_Country": "NLD", "Code": 81, "Class": 2, "Action_Location": "Islamabad, Islamabad, Pakistan", "Lat": 33.7, "Long": 73.1667, "Timestamp": 20181105204500, "Source": "https://www.lbc.co.uk/news/world/asia-bibi-lawyer-of-christian-woman-accused-o/"}, {"ID": 800241361, "Actor1": "GAZA", "Actor1_Country": "PSE", "Actor2": "EGYPT", "Actor2_Country": "EGY", "Code": 43, "Class": 1, "Action_Location": "Cairo, Al Qahirah, Egypt", "Lat": 30.05, "Long": 31.25, "Timestamp": 20181105204500, "Source": "https://www.france24.com/en/20181105-egypt-treads-carefully-gaza-broker"}, {"ID": 800241362, "Actor1": "GAZA", "Actor1_Country": "PSE", "Actor2": "EGYPT", "Actor2_Country": "EGY", "Code": 43, "Class": 1, "Action_Location": "Cairo, Al Qahirah, Egypt", "Lat": 30.05, "Long": 31.25, "Timestamp": 20181105204500, "Source": "https://www.france24.com/en/20181105-egypt-treads-carefully-gaza-broker"}, {"ID": 800241363, "Actor1": "HAMAS", "Actor1_Country": "PSE", "Actor2": "ISRAEL", "Actor2_Country": "ISR", "Code": 45, "Class": 1, "Action_Location": "Gaza, Israel (general), Israel", "Lat": 31.4167, "Long": 34.3333, "Timestamp": 20181105204500, "Source": "https://www.france24.com/en/20181105-egypt-treads-carefully-gaza-broker"}, {"ID": 800241364, "Actor1": "HAMAS", "Actor1_Country": "PSE", "Actor2": "ISRAEL", "Actor2_Country": "ISR", "Code": 80, "Class": 2, "Action_Location": "Gaza, Israel (general), Israel", "Lat": 31.4167, "Long": 34.3333, "Timestamp": 20181105204500, "Source": "https://www.france24.com/en/20181105-egypt-treads-carefully-gaza-broker"}, {"ID": 800241365, "Actor1": "HAMAS", "Actor1_Country": "PSE", "Actor2": "ISRAEL", "Actor2_Country": "ISR", "Code": 80, "Class": 2, "Action_Location": "Gaza, Israel (general), Israel", "Lat": 31.4167, "Long": 34.3333, "Timestamp": 20181105204500, "Source": "https://www.france24.com/en/20181105-egypt-treads-carefully-gaza-broker"}, {"ID": 800241366, "Actor1": "HAMAS", "Actor1_Country": "PSE", "Actor2": "PALESTINIAN", "Actor2_Country": "PSE", "Code": 45, "Class": 1, "Action_Location": "Cairo, Al Qahirah, Egypt", "Lat": 30.05, "Long": 31.25, "Timestamp": 20181105204500, "Source": "https://www.france24.com/en/20181105-egypt-treads-carefully-gaza-broker"}, {"ID": 800241367, "Actor1": "HAMAS", "Actor1_Country": "PSE", "Actor2": "PALESTINIAN", "Actor2_Country": "PSE", "Code": 45, "Class": 1, "Action_Location": "Gaza, Israel (general), Israel", "Lat": 31.4167, "Long": 34.3333, "Timestamp": 20181105204500, "Source": "https://www.france24.com/en/20181105-egypt-treads-carefully-gaza-broker"}, {"ID": 800241368, "Actor1": "HAMAS", "Actor1_Country": "PSE", "Actor2": "PALESTINIAN", "Actor2_Country": "PSE", "Code": 80, "Class": 2, "Action_Location": "Gaza, Israel (general), Israel", "Lat": 31.4167, "Long": 34.3333, "Timestamp": 20181105204500, "Source": "https://www.france24.com/en/20181105-egypt-treads-carefully-gaza-broker"}, {"ID": 800241398, "Actor1": "RUSSIA", "Actor1_Country": "RUS", "Actor2": "VOTER", "Actor2_Country": null, "Code": 10, "Class": 1, "Action_Location": "New York, United States", "Lat": 42.1497, "Long": -74.9384, "Timestamp": 20181105204500, "Source": "https://www.nytimes.com/2018/11/05/us/politics/misinformation-election-day.html"}, {"ID": 800241400, "Actor1": "RUSSIAN", "Actor1_Country": "RUS", "Actor2": "HELSINKI", "Actor2_Country": "FIN", "Code": 40, "Class": 1, "Action_Location": "Helsinki, Etel\u00e4uomen L\u00e4i, Finland", "Lat": 60.1756, "Long": 24.9342, "Timestamp": 20181105204500, "Source": "https://thestarphoenix.com/pmn/news-pmn/trump-says-he-probably-wont-meet-with-putin-in-paris/wcm/489dd173-8c3f-490f-aae4-bd6708ff44ee"}, {"ID": 800241401, "Actor1": "RUSSIAN", "Actor1_Country": "RUS", "Actor2": "HELSINKI", "Actor2_Country": "FIN", "Code": 120, "Class": 3, "Action_Location": "Russia", "Lat": 60.0, "Long": 100.0, "Timestamp": 20181105204500, "Source": "https://thestarphoenix.com/pmn/news-pmn/trump-says-he-probably-wont-meet-with-putin-in-paris/wcm/489dd173-8c3f-490f-aae4-bd6708ff44ee"}, {"ID": 800241421, "Actor1": "SAUDI ARABIA", "Actor1_Country": "SAU", "Actor2": "GOVERNMENT", "Actor2_Country": null, "Code": 10, "Class": 1, "Action_Location": "Riyadh, Ar Riya?, Saudi Arabia", "Lat": 24.6408, "Long": 46.7728, "Timestamp": 20181105204500, "Source": "https://www.ghanavisions.com/news/world/225558-saudis-sent-to-look-into-khashoggi-murder-were-removing-evidence.html"}, {"ID": 800241422, "Actor1": "RIYADH", "Actor1_Country": "SAU", "Actor2": "PRINCE", "Actor2_Country": null, "Code": 841, "Class": 2, "Action_Location": "Istanbul, Istanbul, Turkey", "Lat": 41.0186, "Long": 28.9647, "Timestamp": 20181105204500, "Source": "https://www.ghanavisions.com/news/world/225558-saudis-sent-to-look-into-khashoggi-murder-were-removing-evidence.html"}, {"ID": 800241425, "Actor1": "SAUDI ARABIAN", "Actor1_Country": "SAU", "Actor2": "JOURNALIST", "Actor2_Country": null, "Code": 81, "Class": 2, "Action_Location": "Riyadh, Ar Riya?, Saudi Arabia", "Lat": 24.6408, "Long": 46.7728, "Timestamp": 20181105204500, "Source": "https://www.ghanavisions.com/news/world/225558-saudis-sent-to-look-into-khashoggi-murder-were-removing-evidence.html"}, {"ID": 800241426, "Actor1": "RIYADH", "Actor1_Country": "SAU", "Actor2": "SAUDI ARABIA", "Actor2_Country": "SAU", "Code": 43, "Class": 1, "Action_Location": "Anadolu, Turkey (general), Turkey", "Lat": 39.0, "Long": 35.0, "Timestamp": 20181105204500, "Source": "https://www.ghanavisions.com/news/world/225558-saudis-sent-to-look-into-khashoggi-murder-were-removing-evidence.html"}, {"ID": 800241427, "Actor1": "RIYADH", "Actor1_Country": "SAU", "Actor2": "SAUDI ARABIA", "Actor2_Country": "SAU", "Code": 43, "Class": 1, "Action_Location": "Anadolu, Turkey (general), Turkey", "Lat": 39.0, "Long": 35.0, "Timestamp": 20181105204500, "Source": "https://www.ghanavisions.com/news/world/225558-saudis-sent-to-look-into-khashoggi-murder-were-removing-evidence.html"}, {"ID": 800241428, "Actor1": "SAUDI ARABIAN", "Actor1_Country": "SAU", "Actor2": "TURKEY", "Actor2_Country": "TUR", "Code": 81, "Class": 2, "Action_Location": "Riyadh, Ar Riya?, Saudi Arabia", "Lat": 24.6408, "Long": 46.7728, "Timestamp": 20181105204500, "Source": "https://www.ghanavisions.com/news/world/225558-saudis-sent-to-look-into-khashoggi-murder-were-removing-evidence.html"}, {"ID": 800241429, "Actor1": "SAUDI ARABIAN", "Actor1_Country": "SAU", "Actor2": "TURKEY", "Actor2_Country": "TUR", "Code": 81, "Class": 2, "Action_Location": "Istanbul, Istanbul, Turkey", "Lat": 41.0186, "Long": 28.9647, "Timestamp": 20181105204500, "Source": "https://www.ghanavisions.com/news/world/225558-saudis-sent-to-look-into-khashoggi-murder-were-removing-evidence.html"}, {"ID": 800241430, "Actor1": "SAUDI", "Actor1_Country": "SAU", "Actor2": "TURKEY", "Actor2_Country": "TUR", "Code": 190, "Class": 4, "Action_Location": "Bandar, Batha, Chad", "Lat": 13.5667, "Long": 19.6, "Timestamp": 20181105204500, "Source": "https://www.ghanavisions.com/news/world/225558-saudis-sent-to-look-into-khashoggi-murder-were-removing-evidence.html"}, {"ID": 800241431, "Actor1": "SAUDI ARABIAN", "Actor1_Country": "SAU", "Actor2": "TURKEY", "Actor2_Country": "TUR", "Code": 81, "Class": 2, "Action_Location": "Istanbul, Istanbul, Turkey", "Lat": 41.0186, "Long": 28.9647, "Timestamp": 20181105204500, "Source": "https://www.ghanavisions.com/news/world/225558-saudis-sent-to-look-into-khashoggi-murder-were-removing-evidence.html"}, {"ID": 800241432, "Actor1": "SAUDI ARABIAN", "Actor1_Country": "SAU", "Actor2": "TURKEY", "Actor2_Country": "TUR", "Code": 81, "Class": 2, "Action_Location": "Istanbul, Istanbul, Turkey", "Lat": 41.0186, "Long": 28.9647, "Timestamp": 20181105204500, "Source": "https://www.ghanavisions.com/news/world/225558-saudis-sent-to-look-into-khashoggi-murder-were-removing-evidence.html"}, {"ID": 800241442, "Actor1": "SAUDI ARABIA", "Actor1_Country": "SAU", "Actor2": "RIYADH", "Actor2_Country": "SAU", "Code": 42, "Class": 1, "Action_Location": "Anadolu, Turkey (general), Turkey", "Lat": 39.0, "Long": 35.0, "Timestamp": 20181105204500, "Source": "https://www.ghanavisions.com/news/world/225558-saudis-sent-to-look-into-khashoggi-murder-were-removing-evidence.html"}, {"ID": 800241443, "Actor1": "SAUDI ARABIA", "Actor1_Country": "SAU", "Actor2": "RIYADH", "Actor2_Country": "SAU", "Code": 42, "Class": 1, "Action_Location": "Anadolu, Turkey (general), Turkey", "Lat": 39.0, "Long": 35.0, "Timestamp": 20181105204500, "Source": "https://www.ghanavisions.com/news/world/225558-saudis-sent-to-look-into-khashoggi-murder-were-removing-evidence.html"}, {"ID": 800241445, "Actor1": "SAUDI", "Actor1_Country": "SAU", "Actor2": "RIYADH", "Actor2_Country": "SAU", "Code": 42, "Class": 1, "Action_Location": "Riyadh, Ar Riya?, Saudi Arabia", "Lat": 24.6408, "Long": 46.7728, "Timestamp": 20181105204500, "Source": "https://www.ghanavisions.com/news/world/225558-saudis-sent-to-look-into-khashoggi-murder-were-removing-evidence.html"}, {"ID": 800241446, "Actor1": "RIYADH", "Actor1_Country": "SAU", "Actor2": "SAUDI", "Actor2_Country": "SAU", "Code": 43, "Class": 1, "Action_Location": "Riyadh, Ar Riya?, Saudi Arabia", "Lat": 24.6408, "Long": 46.7728, "Timestamp": 20181105204500, "Source": "https://www.ghanavisions.com/news/world/225558-saudis-sent-to-look-into-khashoggi-murder-were-removing-evidence.html"}, {"ID": 800241485, "Actor1": "TURKEY", "Actor1_Country": "TUR", "Actor2": "PRESIDENT", "Actor2_Country": null, "Code": 20, "Class": 1, "Action_Location": "Riyadh, Ar Riya?, Saudi Arabia", "Lat": 24.6408, "Long": 46.7728, "Timestamp": 20181105204500, "Source": "https://www.ghanavisions.com/news/world/225558-saudis-sent-to-look-into-khashoggi-murder-were-removing-evidence.html"}, {"ID": 800241492, "Actor1": "TURKEY", "Actor1_Country": "TUR", "Actor2": "SABAH", "Actor2_Country": "MYS", "Code": 173, "Class": 4, "Action_Location": "Istanbul, Istanbul, Turkey", "Lat": 41.0186, "Long": 28.9647, "Timestamp": 20181105204500, "Source": "https://www.ghanavisions.com/news/world/225558-saudis-sent-to-look-into-khashoggi-murder-were-removing-evidence.html"}, {"ID": 800241495, "Actor1": "TURKEY", "Actor1_Country": "TUR", "Actor2": "SAUDI", "Actor2_Country": "SAU", "Code": 20, "Class": 1, "Action_Location": "Riyadh, Ar Riya?, Saudi Arabia", "Lat": 24.6408, "Long": 46.7728, "Timestamp": 20181105204500, "Source": "https://www.ghanavisions.com/news/world/225558-saudis-sent-to-look-into-khashoggi-murder-were-removing-evidence.html"}, {"ID": 800241496, "Actor1": "TURKEY", "Actor1_Country": "TUR", "Actor2": "SAUDI", "Actor2_Country": "SAU", "Code": 81, "Class": 2, "Action_Location": "Anadolu, Turkey (general), Turkey", "Lat": 39.0, "Long": 35.0, "Timestamp": 20181105204500, "Source": "https://www.ghanavisions.com/news/world/225558-saudis-sent-to-look-into-khashoggi-murder-were-removing-evidence.html"}, {"ID": 800241497, "Actor1": "TURKEY", "Actor1_Country": "TUR", "Actor2": "SAUDI", "Actor2_Country": "SAU", "Code": 81, "Class": 2, "Action_Location": "Riyadh, Ar Riya?, Saudi Arabia", "Lat": 24.6408, "Long": 46.7728, "Timestamp": 20181105204500, "Source": "https://www.ghanavisions.com/news/world/225558-saudis-sent-to-look-into-khashoggi-murder-were-removing-evidence.html"}, {"ID": 800241498, "Actor1": "TURKEY", "Actor1_Country": "TUR", "Actor2": "SAUDI ARABIA", "Actor2_Country": "SAU", "Code": 81, "Class": 2, "Action_Location": "Anadolu, Turkey (general), Turkey", "Lat": 39.0, "Long": 35.0, "Timestamp": 20181105204500, "Source": "https://www.ghanavisions.com/news/world/225558-saudis-sent-to-look-into-khashoggi-murder-were-removing-evidence.html"}, {"ID": 800241505, "Actor1": "TURKEY", "Actor1_Country": "TUR", "Actor2": "HIT SQUAD", "Actor2_Country": null, "Code": 190, "Class": 4, "Action_Location": "Istanbul, Istanbul, Turkey", "Lat": 41.0186, "Long": 28.9647, "Timestamp": 20181105204500, "Source": "https://www.ghanavisions.com/news/world/225558-saudis-sent-to-look-into-khashoggi-murder-were-removing-evidence.html"}, {"ID": 800241506, "Actor1": "TURKEY", "Actor1_Country": "TUR", "Actor2": "HIT SQUAD", "Actor2_Country": null, "Code": 190, "Class": 4, "Action_Location": "Riyadh, Ar Riya?, Saudi Arabia", "Lat": 24.6408, "Long": 46.7728, "Timestamp": 20181105204500, "Source": "https://www.ghanavisions.com/news/world/225558-saudis-sent-to-look-into-khashoggi-murder-were-removing-evidence.html"}, {"ID": 800241507, "Actor1": "TURKEY", "Actor1_Country": "TUR", "Actor2": "HIT SQUAD", "Actor2_Country": null, "Code": 190, "Class": 4, "Action_Location": "Washington, District of Columbia, United States", "Lat": 38.8951, "Long": -77.0364, "Timestamp": 20181105204500, "Source": "https://www.ghanavisions.com/news/world/225558-saudis-sent-to-look-into-khashoggi-murder-were-removing-evidence.html"}, {"ID": 800241510, "Actor1": "ISTANBUL", "Actor1_Country": "TUR", "Actor2": "HOSPITAL", "Actor2_Country": null, "Code": 190, "Class": 4, "Action_Location": "Riyadh, Ar Riya?, Saudi Arabia", "Lat": 24.6408, "Long": 46.7728, "Timestamp": 20181105204500, "Source": "https://www.ghanavisions.com/news/world/225558-saudis-sent-to-look-into-khashoggi-murder-were-removing-evidence.html"}, {"ID": 800241511, "Actor1": "ISTANBUL", "Actor1_Country": "TUR", "Actor2": "HOSPITAL", "Actor2_Country": null, "Code": 190, "Class": 4, "Action_Location": "Riyadh, Ar Riya?, Saudi Arabia", "Lat": 24.6408, "Long": 46.7728, "Timestamp": 20181105204500, "Source": "https://www.ghanavisions.com/news/world/225558-saudis-sent-to-look-into-khashoggi-murder-were-removing-evidence.html"}, {"ID": 800241661, "Actor1": "UNITED STATES", "Actor1_Country": "USA", "Actor2": "BUSINESS", "Actor2_Country": null, "Code": 173, "Class": 4, "Action_Location": "Maine, United States", "Lat": 44.6074, "Long": -69.3977, "Timestamp": 20181105204500, "Source": "https://www.pressherald.com/2018/11/05/kennebunk-man-charged-with-terrorizing-threatened-to-shoot-up-business/"}, {"ID": 800241682, "Actor1": "VIRGINIA", "Actor1_Country": "USA", "Actor2": "POLICE", "Actor2_Country": null, "Code": 90, "Class": 2, "Action_Location": "Virginia, United States", "Lat": 37.768, "Long": -78.2057, "Timestamp": 20181105204500, "Source": "https://wjjs.iheart.com/content/2018-11-05-liberty-high-school-sro-put-on-leave-after-complaints-about-his-behavior/"}, {"ID": 800241683, "Actor1": "UNITED STATES", "Actor1_Country": "USA", "Actor2": "DEPUTY", "Actor2_Country": null, "Code": 114, "Class": 3, "Action_Location": "Virginia, United States", "Lat": 37.768, "Long": -78.2057, "Timestamp": 20181105204500, "Source": "https://wjjs.iheart.com/content/2018-11-05-liberty-high-school-sro-put-on-leave-after-complaints-about-his-behavior/"}, {"ID": 800241684, "Actor1": "HOUSTON", "Actor1_Country": "USA", "Actor2": "DEPUTY", "Actor2_Country": null, "Code": 173, "Class": 4, "Action_Location": "Harris County, Texas, United States", "Lat": 29.8336, "Long": -95.4002, "Timestamp": 20181105204500, "Source": "https://www.mysanantonio.com/news/texas/article/Deliberations-resume-in-trial-against-ex-deputy-s-13363737.php"}, {"ID": 800241720, "Actor1": "PENNSYLVANIA", "Actor1_Country": "USA", "Actor2": "COLLEGE", "Actor2_Country": null, "Code": 12, "Class": 1, "Action_Location": "Pennsylvania, United States", "Lat": 40.5773, "Long": -77.264, "Timestamp": 20181105204500, "Source": "https://www.independent.co.uk/news/world/americas/us-politics/midterms-2018/florida-amendment-4-midterm-elections-2018-felons-vote-prison-jail-rights-a8618991.html"}, {"ID": 800241723, "Actor1": "UNITED STATES", "Actor1_Country": "USA", "Actor2": "COLLEGE", "Actor2_Country": null, "Code": 42, "Class": 1, "Action_Location": "Virginia, United States", "Lat": 37.768, "Long": -78.2057, "Timestamp": 20181105204500, "Source": "http://www.rollcall.com/news/politics/virginias-5th-district-sign-democrats-expanding-house-battlefield"}, {"ID": 800241724, "Actor1": "UNITED STATES", "Actor1_Country": "USA", "Actor2": "STUDENT", "Actor2_Country": null, "Code": 43, "Class": 1, "Action_Location": "Winterpock, Virginia, United States", "Lat": 37.346, "Long": -77.7194, "Timestamp": 20181105204500, "Source": "https://www.marketwatch.com/press-release/tazikis-mediterranean-cafe-virginia-launches-hope-program-2018-11-05"}, {"ID": 800241725, "Actor1": "UNITED STATES", "Actor1_Country": "USA", "Actor2": "STUDENT", "Actor2_Country": null, "Code": 60, "Class": 2, "Action_Location": "Midlothian High School, Virginia, United States", "Lat": 37.4963, "Long": -77.6604, "Timestamp": 20181105204500, "Source": "https://www.marketwatch.com/press-release/tazikis-mediterranean-cafe-virginia-launches-hope-program-2018-11-05"}, {"ID": 800241726, "Actor1": "UNITED STATES", "Actor1_Country": "USA", "Actor2": "SCHOOL", "Actor2_Country": null, "Code": 60, "Class": 2, "Action_Location": "Virginia, United States", "Lat": 37.768, "Long": -78.2057, "Timestamp": 20181105204500, "Source": "https://www.marketwatch.com/press-release/tazikis-mediterranean-cafe-virginia-launches-hope-program-2018-11-05"}, {"ID": 800241729, "Actor1": "RICHMOND", "Actor1_Country": "USA", "Actor2": "SCHOOL", "Actor2_Country": null, "Code": 110, "Class": 3, "Action_Location": "Virginia, United States", "Lat": 37.768, "Long": -78.2057, "Timestamp": 20181105204500, "Source": "https://www.marketwatch.com/press-release/tazikis-mediterranean-cafe-virginia-launches-hope-program-2018-11-05"}, {"ID": 800241734, "Actor1": "UNITED STATES", "Actor1_Country": "USA", "Actor2": "HELSINKI", "Actor2_Country": "FIN", "Code": 40, "Class": 1, "Action_Location": "Washington, District of Columbia, United States", "Lat": 38.8951, "Long": -77.0364, "Timestamp": 20181105204500, "Source": "https://thestarphoenix.com/pmn/news-pmn/trump-says-he-probably-wont-meet-with-putin-in-paris/wcm/489dd173-8c3f-490f-aae4-bd6708ff44ee"}, {"ID": 800241735, "Actor1": "UNITED STATES", "Actor1_Country": "USA", "Actor2": "HELSINKI", "Actor2_Country": "FIN", "Code": 40, "Class": 1, "Action_Location": "Washington, District of Columbia, United States", "Lat": 38.8951, "Long": -77.0364, "Timestamp": 20181105204500, "Source": "https://thestarphoenix.com/pmn/news-pmn/trump-says-he-probably-wont-meet-with-putin-in-paris/wcm/489dd173-8c3f-490f-aae4-bd6708ff44ee"}, {"ID": 800241738, "Actor1": "UNITED STATES", "Actor1_Country": "USA", "Actor2": "PARIS", "Actor2_Country": "FRA", "Code": 40, "Class": 1, "Action_Location": "Argentina", "Lat": -34.0, "Long": -64.0, "Timestamp": 20181105204500, "Source": "https://thestarphoenix.com/pmn/news-pmn/trump-says-he-probably-wont-meet-with-putin-in-paris/wcm/489dd173-8c3f-490f-aae4-bd6708ff44ee"}, {"ID": 800241743, "Actor1": "UNITED STATES", "Actor1_Country": "USA", "Actor2": "MANCHESTER", "Actor2_Country": "GBR", "Code": 43, "Class": 1, "Action_Location": "Manchester High School, Virginia, United States", "Lat": 37.4068, "Long": -77.6233, "Timestamp": 20181105204500, "Source": "https://www.marketwatch.com/press-release/tazikis-mediterranean-cafe-virginia-launches-hope-program-2018-11-05"}, {"ID": 800241748, "Actor1": "UNITED STATES", "Actor1_Country": "USA", "Actor2": "PRESIDENT", "Actor2_Country": null, "Code": 42, "Class": 1, "Action_Location": "Cleveland, Ohio, United States", "Lat": 41.4995, "Long": -81.6954, "Timestamp": 20181105204500, "Source": "https://www.wkbn.com/news/local-news/dewine-cordray-continue-to-battle-for-valley-s-votes-hours-before-election-day/1574501497"}, {"ID": 800241757, "Actor1": "OHIO", "Actor1_Country": "USA", "Actor2": "PRESIDENT", "Actor2_Country": null, "Code": 43, "Class": 1, "Action_Location": "Ohio, United States", "Lat": 40.3736, "Long": -82.7755, "Timestamp": 20181105204500, "Source": "http://www.rollcall.com/news/politics/congressional-leaders-warn-check-trump-presidency"}, {"ID": 800241760, "Actor1": "SEATTLE", "Actor1_Country": "USA", "Actor2": "EMBASSY", "Actor2_Country": null, "Code": 54, "Class": 1, "Action_Location": "Seattle, Washington, United States", "Lat": 47.6062, "Long": -122.332, "Timestamp": 20181105204500, "Source": "https://siouxcityjournal.com/business/as-seattle-area-keeps-building-hotels-there-soon-may-be/article_7617d2c2-e938-520d-8787-793bfc101b55.html"}, {"ID": 800241777, "Actor1": "AMERICAN", "Actor1_Country": "USA", "Actor2": "IRAN", "Actor2_Country": "IRN", "Code": 130, "Class": 3, "Action_Location": "Georgia, United States", "Lat": 32.9866, "Long": -83.6487, "Timestamp": 20181105204500, "Source": "http://freerepublic.com/tag/*/index?more=3703096"}, {"ID": 800241788, "Actor1": "UNITED STATES", "Actor1_Country": "USA", "Actor2": "CONGRESSMAN", "Actor2_Country": null, "Code": 71, "Class": 2, "Action_Location": "El Paso, Texas, United States", "Lat": 31.7587, "Long": -106.487, "Timestamp": 20181105204500, "Source": "https://www.caller.com/story/news/politics/elections/2018/11/05/2018-midterms-beto-orourke-ted-cruz-updates/1889876002/"}, {"ID": 800241789, "Actor1": "UNITED STATES", "Actor1_Country": "USA", "Actor2": "CONGRESSMAN", "Actor2_Country": null, "Code": 71, "Class": 2, "Action_Location": "Houston, Texas, United States", "Lat": 29.7633, "Long": -95.3633, "Timestamp": 20181105204500, "Source": "https://www.caller.com/story/news/politics/elections/2018/11/05/2018-midterms-beto-orourke-ted-cruz-updates/1889876002/"}, {"ID": 800241791, "Actor1": "UNITED STATES", "Actor1_Country": "USA", "Actor2": "SENATE", "Actor2_Country": null, "Code": 110, "Class": 3, "Action_Location": "Washington, District of Columbia, United States", "Lat": 38.8951, "Long": -77.0364, "Timestamp": 20181105204500, "Source": "https://www.yahoo.com/news/latest-trump-urges-supporters-vote-knocks-media-164544035--election.html"}, {"ID": 800241792, "Actor1": "UNITED STATES", "Actor1_Country": "USA", "Actor2": "SENATE", "Actor2_Country": null, "Code": 110, "Class": 3, "Action_Location": "Washington, District of Columbia, United States", "Lat": 38.8951, "Long": -77.0364, "Timestamp": 20181105204500, "Source": "https://www.thetelegraph.com/news/article/The-Latest-Trump-urges-supporters-to-vote-13363744.php"}, {"ID": 800241798, "Actor1": "UNITED STATES", "Actor1_Country": "USA", "Actor2": "MEXICO", "Actor2_Country": "MEX", "Code": 16, "Class": 1, "Action_Location": "Brooklyn, New York, United States", "Lat": 42.3442, "Long": -75.1704, "Timestamp": 20181105204500, "Source": "http://www.wypr.org/post/notorious-drug-lord-el-chapo-heads-trial-new-york"}, {"ID": 800241799, "Actor1": "UNITED STATES", "Actor1_Country": "USA", "Actor2": "MEXICO", "Actor2_Country": "MEX", "Code": 16, "Class": 1, "Action_Location": "New York, United States", "Lat": 42.1497, "Long": -74.9384, "Timestamp": 20181105204500, "Source": "http://www.wypr.org/post/notorious-drug-lord-el-chapo-heads-trial-new-york"}, {"ID": 800241801, "Actor1": "CALIFORNIA", "Actor1_Country": "USA", "Actor2": "MEXICO", "Actor2_Country": "MEX", "Code": 173, "Class": 4, "Action_Location": "California, United States", "Lat": 36.17, "Long": -119.746, "Timestamp": 20181105204500, "Source": "https://wnyt.com/entertainment/nbc-says-it-will-stop-airing-trump-immigrant-ad/5134228/?cat=10114"}, {"ID": 800241804, "Actor1": "DELAWARE", "Actor1_Country": "USA", "Actor2": "AIR FORCE", "Actor2_Country": null, "Code": 43, "Class": 1, "Action_Location": "Iraq", "Lat": 33.0, "Long": 44.0, "Timestamp": 20181105204500, "Source": "https://www.12news.com/article/news/utah-mayor-killed-in-afghanistan-grew-up-in-arizona/75-eaf5457a-d5a2-4246-ac0f-759f1c86dab7"}, {"ID": 800241819, "Actor1": "UNITED STATES", "Actor1_Country": "USA", "Actor2": "RUSSIAN", "Actor2_Country": "RUS", "Code": 120, "Class": 3, "Action_Location": "Washington, District of Columbia, United States", "Lat": 38.8951, "Long": -77.0364, "Timestamp": 20181105204500, "Source": "https://thestarphoenix.com/pmn/news-pmn/trump-says-he-probably-wont-meet-with-putin-in-paris/wcm/489dd173-8c3f-490f-aae4-bd6708ff44ee"}, {"ID": 800241822, "Actor1": "UNITED STATES", "Actor1_Country": "USA", "Actor2": "FIGHTER", "Actor2_Country": null, "Code": 20, "Class": 1, "Action_Location": "Kentucky, United States", "Lat": 37.669, "Long": -84.6514, "Timestamp": 20181105204500, "Source": "https://www.washingtonpost.com/powerpost/i-know-the-ropes-pelosi-makes-her-case-for-leader-as-democrats-chase-house-majority/2018/11/05/dc87df0e-df98-11e8-b732-3c72cbf131f2_story.html"}, {"ID": 800241837, "Actor1": "UNITED STATES", "Actor1_Country": "USA", "Actor2": "UNITED STATES", "Actor2_Country": "USA", "Code": 43, "Class": 1, "Action_Location": "Manchester High School, Virginia, United States", "Lat": 37.4068, "Long": -77.6233, "Timestamp": 20181105204500, "Source": "https://www.marketwatch.com/press-release/tazikis-mediterranean-cafe-virginia-launches-hope-program-2018-11-05"}, {"ID": 800241847, "Actor1": "NEW YORK", "Actor1_Country": "USA", "Actor2": "UNITED STATES", "Actor2_Country": "USA", "Code": 70, "Class": 2, "Action_Location": "New York, United States", "Lat": 42.1497, "Long": -74.9384, "Timestamp": 20181105204500, "Source": "https://www.greenwichtime.com/news/article/Tight-governor-s-race-sanctuary-measure-top-13363886.php"}, {"ID": 800241853, "Actor1": "NEW YORK", "Actor1_Country": "USA", "Actor2": "UNITED STATES", "Actor2_Country": "USA", "Code": 172, "Class": 4, "Action_Location": "New York, United States", "Lat": 42.1497, "Long": -74.9384, "Timestamp": 20181105204500, "Source": "https://www.greenwichtime.com/news/article/Tight-governor-s-race-sanctuary-measure-top-13363886.php"}, {"ID": 800241856, "Actor1": "UNITED STATES", "Actor1_Country": "USA", "Actor2": "DANA ROHRABACHER", "Actor2_Country": "USA", "Code": 100, "Class": 3, "Action_Location": "Irvine, California, United States", "Lat": 33.6695, "Long": -117.823, "Timestamp": 20181105204500, "Source": "https://www.mysanantonio.com/news/article/Candidates-make-last-minute-stops-around-13364126.php"}, {"ID": 800241873, "Actor1": "LAS VEGAS", "Actor1_Country": "USA", "Actor2": "WASHOE", "Actor2_Country": null, "Code": 90, "Class": 2, "Action_Location": "Nevada, United States", "Lat": 38.4199, "Long": -117.122, "Timestamp": 20181105204500, "Source": "http://www.rollcall.com/news/politics/doj-civil-rights-division-monitor-polls-35-counties-election-day"}, {"ID": 800241874, "Actor1": "UNITED STATES", "Actor1_Country": "USA", "Actor2": "WASHOE", "Actor2_Country": null, "Code": 90, "Class": 2, "Action_Location": "Washoe County, Nevada, United States", "Lat": 40.7502, "Long": -119.626, "Timestamp": 20181105204500, "Source": "http://www.rollcall.com/news/politics/doj-civil-rights-division-monitor-polls-35-counties-election-day"}, {"ID": 800241884, "Actor1": "UNITED STATES", "Actor1_Country": "USA", "Actor2": "UNITED STATES", "Actor2_Country": "USA", "Code": 180, "Class": 4, "Action_Location": "Annapolis, California, United States", "Lat": 38.7219, "Long": -123.37, "Timestamp": 20181105204500, "Source": "https://sacramento.cbslocal.com/2018/11/05/police-family-dog-dies-trying-to-protect-woman-from-assault/"}, {"ID": 800241905, "Actor1": "UNITED STATES", "Actor1_Country": "USA", "Actor2": "UNITED STATES", "Actor2_Country": "USA", "Code": 42, "Class": 1, "Action_Location": "Manchester High School, Virginia, United States", "Lat": 37.4068, "Long": -77.6233, "Timestamp": 20181105204500, "Source": "https://www.marketwatch.com/press-release/tazikis-mediterranean-cafe-virginia-launches-hope-program-2018-11-05"}, {"ID": 800241916, "Actor1": "UNITED STATES", "Actor1_Country": "USA", "Actor2": "VOTER", "Actor2_Country": null, "Code": 42, "Class": 1, "Action_Location": "Maricopa County, Arizona, United States", "Lat": 33.5, "Long": -112.501, "Timestamp": 20181105204500, "Source": "http://www.rollcall.com/news/politics/doj-civil-rights-division-monitor-polls-35-counties-election-day"}, {"ID": 800241918, "Actor1": "UNITED STATES", "Actor1_Country": "USA", "Actor2": "VOTER", "Actor2_Country": null, "Code": 91, "Class": 2, "Action_Location": "Maricopa County, Arizona, United States", "Lat": 33.5, "Long": -112.501, "Timestamp": 20181105204500, "Source": "http://www.rollcall.com/news/politics/doj-civil-rights-division-monitor-polls-35-counties-election-day"}, {"ID": 800241924, "Actor1": "AMERICAN", "Actor1_Country": "USA", "Actor2": "IRAN", "Actor2_Country": "IRN", "Code": 130, "Class": 3, "Action_Location": "Tennessee, United States", "Lat": 35.7449, "Long": -86.7489, "Timestamp": 20181105204500, "Source": "http://freerepublic.com/tag/*/index?more=3703096"}, {"ID": 800241931, "Actor1": "UNITED STATES", "Actor1_Country": "USA", "Actor2": "UNITED STATES", "Actor2_Country": "USA", "Code": 15, "Class": 1, "Action_Location": "Illinois, United States", "Lat": 40.3363, "Long": -89.0022, "Timestamp": 20181105204500, "Source": "https://www.lmtonline.com/news/education/article/Everything-s-at-stake-on-eve-of-first-Trump-era-13362647.php"}, {"ID": 800241939, "Actor1": "UNITED STATES", "Actor1_Country": "USA", "Actor2": "THE ASSOCIATED PRESS", "Actor2_Country": "USA", "Code": 42, "Class": 1, "Action_Location": "Montana, United States", "Lat": 46.9048, "Long": -110.326, "Timestamp": 20181105204500, "Source": "https://www.lmtonline.com/news/education/article/Everything-s-at-stake-on-eve-of-first-Trump-era-13362647.php"}, {"ID": 800241949, "Actor1": "UNITED STATES", "Actor1_Country": "USA", "Actor2": "SAN ANTONIO", "Actor2_Country": "USA", "Code": 13, "Class": 1, "Action_Location": "San Antonio, Texas, United States", "Lat": 29.4241, "Long": -98.4936, "Timestamp": 20181105204500, "Source": "https://www.couriermail.com.au/news/breaking-news/newlyweds-killed-in-helicopter-crash-in-us/news-story/28179a6adc228e7d6525bc215f902c7f?nk=4c89eca686a2d4f70011d5b9d180f75c-1541449926"}, {"ID": 800241955, "Actor1": "THE ASSOCIATED PRESS", "Actor1_Country": "USA", "Actor2": "PRESIDENT", "Actor2_Country": null, "Code": 43, "Class": 1, "Action_Location": "Illinois, United States", "Lat": 40.3363, "Long": -89.0022, "Timestamp": 20181105204500, "Source": "https://www.lmtonline.com/news/education/article/Everything-s-at-stake-on-eve-of-first-Trump-era-13362647.php"}, {"ID": 800241957, "Actor1": "THE ASSOCIATED PRESS", "Actor1_Country": "USA", "Actor2": "UNITED STATES", "Actor2_Country": "USA", "Code": 43, "Class": 1, "Action_Location": "Illinois, United States", "Lat": 40.3363, "Long": -89.0022, "Timestamp": 20181105204500, "Source": "https://www.lmtonline.com/news/education/article/Everything-s-at-stake-on-eve-of-first-Trump-era-13362647.php"}, {"ID": 800241962, "Actor1": "BLACK PANTHERS", "Actor1_Country": "USA", "Actor2": "UNITED STATES", "Actor2_Country": "USA", "Code": 57, "Class": 1, "Action_Location": "Georgia, United States", "Lat": 32.9866, "Long": -83.6487, "Timestamp": 20181105204500, "Source": "http://freerepublic.com/tag/*/index?more=3703096"}, {"ID": 800241976, "Actor1": "INDIGENOUS", "Actor1_Country": null, "Actor2": "AUSTRALIAN", "Actor2_Country": "AUS", "Code": 12, "Class": 1, "Action_Location": "Northern Territory, Northern Territory, Australia", "Lat": -20.0, "Long": 134.0, "Timestamp": 20181105204500, "Source": "https://www.dailymercury.com.au/news/wheres-the-lefts-outrage-over-indigenous-kids/3568342/"}, {"ID": 800241977, "Actor1": "INDIGENOUS", "Actor1_Country": null, "Actor2": "SCHOOL", "Actor2_Country": null, "Code": 42, "Class": 1, "Action_Location": "Coober Pedy, South Australia, Australia", "Lat": -28.9974, "Long": 134.759, "Timestamp": 20181105204500, "Source": "https://www.dailymercury.com.au/news/wheres-the-lefts-outrage-over-indigenous-kids/3568342/"}, {"ID": 800241978, "Actor1": "INDIGENOUS", "Actor1_Country": null, "Actor2": "SCHOOL", "Actor2_Country": null, "Code": 42, "Class": 1, "Action_Location": "Nauru", "Lat": -0.533333, "Long": 166.916667, "Timestamp": 20181105204500, "Source": "https://www.dailymercury.com.au/news/wheres-the-lefts-outrage-over-indigenous-kids/3568342/"}]