[{"ID": 800109622, "Actor1": "SHENZHEN", "Actor1_Country": "CHN", "Actor2": "REUTERS", "Actor2_Country": "USA", "Code": 13, "Class": 1, "Action_Location": "Shenzhen, Guangdong, China", "Lat": 22.2, "Long": 111.117, "Timestamp": 20181105103000, "Source": "https://www.reuters.com/article/us-china-economy-exports/export-orders-to-u-s-down-a-third-at-chinas-largest-trade-fair-idUSKCN1NA0HL"}, {"ID": 800109627, "Actor1": "ARMY", "Actor1_Country": null, "Actor2": "POLICE", "Actor2_Country": null, "Code": 190, "Class": 4, "Action_Location": "Bangladesh", "Lat": 24.0, "Long": 90.0, "Timestamp": 20181105103000, "Source": "http://www.china.org.cn/world/Off_the_Wire/2018-11/05/content_70361150.htm"}, {"ID": 800109636, "Actor1": "NURSE", "Actor1_Country": null, "Actor2": "UNITED STATES", "Actor2_Country": "USA", "Code": 193, "Class": 4, "Action_Location": "Washington, District of Columbia, United States", "Lat": 38.8951, "Long": -77.0364, "Timestamp": 20181105103000, "Source": "https://www.washingtonpost.com/nation/2018/11/05/i-wanted-him-feel-compassion-jewish-nurse-who-treated-synagogue-shooting-suspect-tells-his-story/"}, {"ID": 800109648, "Actor1": "ISRAEL", "Actor1_Country": "ISR", "Actor2": "IRAN", "Actor2_Country": "IRN", "Code": 190, "Class": 4, "Action_Location": "Washington, District of Columbia, United States", "Lat": 38.8951, "Long": -77.0364, "Timestamp": 20181105103000, "Source": "https://www.chron.com/news/world/article/The-Latest-Israel-welcome-restored-US-sanctions-13362741.php"}, {"ID": 800109649, "Actor1": "ISRAEL", "Actor1_Country": "ISR", "Actor2": "HASSAN", "Actor2_Country": "JOR", "Code": 190, "Class": 4, "Action_Location": "Tehran, Tehran, Iran", "Lat": 35.75, "Long": 51.5148, "Timestamp": 20181105103000, "Source": "https://www.chron.com/news/world/article/The-Latest-Israel-welcome-restored-US-sanctions-13362741.php"}, {"ID": 800109651, "Actor1": "MILITARY", "Actor1_Country": null, "Actor2": "HASSAN", "Actor2_Country": "JOR", "Code": 190, "Class": 4, "Action_Location": "Tehran, Tehran, Iran", "Lat": 35.75, "Long": 51.5148, "Timestamp": 20181105103000, "Source": "https://www.chron.com/news/world/article/The-Latest-Israel-welcome-restored-US-sanctions-13362741.php"}, {"ID": 800109652, "Actor1": "TURKEY", "Actor1_Country": "TUR", "Actor2": "SAUDI", "Actor2_Country": "SAU", "Code": 12, "Class": 1, "Action_Location": "Ankara, Ankara, Turkey", "Lat": 39.9272, "Long": 32.8644, "Timestamp": 20181105103000, "Source": "https://www.timesnownews.com/international/article/jamal-khashoggi-murder-two-saudis-sent-to-istanbul-to-cover-up-says-turkish-official/309732"}, {"ID": 800109836, "Actor1": "AFGHAN", "Actor1_Country": "AFG", "Actor2": "AFGHANISTAN", "Actor2_Country": "AFG", "Code": 10, "Class": 1, "Action_Location": "Ghazni, Ghazni, Afghanistan", "Lat": 33.5508, "Long": 68.4225, "Timestamp": 20181105103000, "Source": "https://www.rferl.org/a/afghanistan-13-killed-taliban-attack-ghazni-checkpoint/29583225.html"}, {"ID": 800109837, "Actor1": "AFGHAN", "Actor1_Country": "AFG", "Actor2": "AFGHANISTAN", "Actor2_Country": "AFG", "Code": 190, "Class": 4, "Action_Location": "Ghazni, Ghazni, Afghanistan", "Lat": 33.5508, "Long": 68.4225, "Timestamp": 20181105103000, "Source": "https://www.rferl.org/a/afghanistan-13-killed-taliban-attack-ghazni-checkpoint/29583225.html"}, {"ID": 800109839, "Actor1": "AFGHAN", "Actor1_Country": "AFG", "Actor2": "ARMY", "Actor2_Country": null, "Code": 62, "Class": 2, "Action_Location": "Ghazni, Ghazni, Afghanistan", "Lat": 33.5508, "Long": 68.4225, "Timestamp": 20181105103000, "Source": "https://www.rferl.org/a/afghanistan-13-killed-taliban-attack-ghazni-checkpoint/29583225.html"}, {"ID": 800109840, "Actor1": "AFGHAN", "Actor1_Country": "AFG", "Actor2": "ARMY", "Actor2_Country": null, "Code": 62, "Class": 2, "Action_Location": "Kabul, Kabol, Afghanistan", "Lat": 34.5167, "Long": 69.1833, "Timestamp": 20181105103000, "Source": "https://www.rferl.org/a/afghanistan-13-killed-taliban-attack-ghazni-checkpoint/29583225.html"}, {"ID": 800109841, "Actor1": "AFGHAN", "Actor1_Country": "AFG", "Actor2": "ARMY", "Actor2_Country": null, "Code": 190, "Class": 4, "Action_Location": "Kabul, Kabol, Afghanistan", "Lat": 34.5167, "Long": 69.1833, "Timestamp": 20181105103000, "Source": "https://www.rferl.org/a/afghanistan-13-killed-taliban-attack-ghazni-checkpoint/29583225.html"}, {"ID": 800109842, "Actor1": "AFGHANISTAN", "Actor1_Country": "AFG", "Actor2": "AFGHAN", "Actor2_Country": "AFG", "Code": 190, "Class": 4, "Action_Location": "Ghazni, Ghazni, Afghanistan", "Lat": 33.5508, "Long": 68.4225, "Timestamp": 20181105103000, "Source": "https://www.rferl.org/a/afghanistan-13-killed-taliban-attack-ghazni-checkpoint/29583225.html"}, {"ID": 800109843, "Actor1": "AFGHANISTAN", "Actor1_Country": "AFG", "Actor2": "AFGHANISTAN", "Actor2_Country": "AFG", "Code": 874, "Class": 2, "Action_Location": "Afghanistan", "Lat": 33.0, "Long": 66.0, "Timestamp": 20181105103000, "Source": "http://www.rediff.com/news/report/americas-toughest-ever-sanctions-on-iran-come-into-force/20181105.htm"}, {"ID": 800109844, "Actor1": "ASHRAF GHANI", "Actor1_Country": "AFG", "Actor2": "PARLIAMENT", "Actor2_Country": null, "Code": 100, "Class": 3, "Action_Location": "Ghazni, Ghazni, Afghanistan", "Lat": 33.5508, "Long": 68.4225, "Timestamp": 20181105103000, "Source": "http://newageislam.com/current-affairs/ajit-kumar-singh/the-taliban-and-the-afghanistan-elections/d/116790"}, {"ID": 800109845, "Actor1": "TALIBAN", "Actor1_Country": "AFG", "Actor2": "AFGHAN", "Actor2_Country": "AFG", "Code": 190, "Class": 4, "Action_Location": "Ghazni, Ghazni, Afghanistan", "Lat": 33.5508, "Long": 68.4225, "Timestamp": 20181105103000, "Source": "https://www.msn.com/en-us/news/world/taliban-attack-on-an-afghan-checkpoint-kills-13-soldiers-and-police-officers/ar-BBPm6mM"}, {"ID": 800109853, "Actor1": "AFRICA", "Actor1_Country": "AFR", "Actor2": "POLICE OFFICER", "Actor2_Country": null, "Code": 42, "Class": 1, "Action_Location": "Mafikeng, North-West, South Africa", "Lat": -25.8652, "Long": 25.6442, "Timestamp": 20181105103000, "Source": "http://www.destinyman.com/2018/11/05/lerato-sengadi-claims-marital-home/"}, {"ID": 800109879, "Actor1": "AUSTRALIAN", "Actor1_Country": "AUS", "Actor2": "CHINESE", "Actor2_Country": "CHN", "Code": 36, "Class": 1, "Action_Location": "Shanghai, Shanghai, China", "Lat": 31.2222, "Long": 121.458, "Timestamp": 20181105103000, "Source": "https://www.afr.com/news/world/asia/marise-payne-to-visit-china-on-thursday-first-ministerial-visit-in-18-months-20181105-h17jfc"}, {"ID": 800109915, "Actor1": "BANGLADESH", "Actor1_Country": "BGD", "Actor2": "MYANMAR", "Actor2_Country": "MMR", "Code": 36, "Class": 1, "Action_Location": "Bangladesh", "Lat": 24.0, "Long": 90.0, "Timestamp": 20181105103000, "Source": "http://www.china.org.cn/world/Off_the_Wire/2018-11/05/content_70361150.htm"}, {"ID": 800109956, "Actor1": "COMPANIES", "Actor1_Country": null, "Actor2": "CHINA", "Actor2_Country": "CHN", "Code": 51, "Class": 1, "Action_Location": "Tokyo, Tokyo, Japan", "Lat": 35.685, "Long": 139.751, "Timestamp": 20181105103000, "Source": "https://www.reuters.com/article/us-softbank-group-strategy-results/softbanks-son-defends-saudi-ties-as-kingdom-backed-fund-boosts-profit-idUSKCN1NA0AV"}, {"ID": 800109959, "Actor1": "PRODUCER", "Actor1_Country": null, "Actor2": "CHINESE", "Actor2_Country": "CHN", "Code": 61, "Class": 2, "Action_Location": "Shenzhen, Guangdong, China", "Lat": 22.2, "Long": 111.117, "Timestamp": 20181105103000, "Source": "https://www.reuters.com/article/us-china-economy-exports/export-orders-to-u-s-down-a-third-at-chinas-largest-trade-fair-idUSKCN1NA0HL"}, {"ID": 800109962, "Actor1": "COMPANIES", "Actor1_Country": null, "Actor2": "RESIDENTS", "Actor2_Country": null, "Code": 51, "Class": 1, "Action_Location": "Saint-Denis, Reunion (general), Reunion", "Lat": -20.8667, "Long": 55.4667, "Timestamp": 20181105103000, "Source": "https://www.businesswire.com/news/home/20181105005246/en/J.P.-Morgan-Invest-30-Million-USD-Greater"}, {"ID": 800109966, "Actor1": "INVESTOR", "Actor1_Country": null, "Actor2": "UNITED KINGDOM", "Actor2_Country": "GBR", "Code": 12, "Class": 1, "Action_Location": "Italy", "Lat": 42.833333, "Long": 12.833333, "Timestamp": 20181105103000, "Source": "https://www.businessinsider.com.au/no-deal-brexit-steve-eisman-big-short-investor-betting-against-uk-stocks-2018-11"}, {"ID": 800109982, "Actor1": "INDUSTRY", "Actor1_Country": null, "Actor2": "UNITED STATES", "Actor2_Country": "USA", "Code": 51, "Class": 1, "Action_Location": "United States", "Lat": 39.828175, "Long": -98.5795, "Timestamp": 20181105103000, "Source": "https://www.thechronicleherald.ca/news/local/mit-expert-carbon-neutral-biomass-accounting-fraud-256464/"}, {"ID": 800109985, "Actor1": "COMPANY", "Actor1_Country": null, "Actor2": "UNITED STATES", "Actor2_Country": "USA", "Code": 61, "Class": 2, "Action_Location": "United States", "Lat": 39.828175, "Long": -98.5795, "Timestamp": 20181105103000, "Source": "https://www.reuters.com/article/us-china-economy-exports/export-orders-to-u-s-down-a-third-at-chinas-largest-trade-fair-idUSKCN1NA0HL"}, {"ID": 800109986, "Actor1": "COMPANY", "Actor1_Country": null, "Actor2": "UNITED STATES", "Actor2_Country": "USA", "Code": 61, "Class": 2, "Action_Location": "United States", "Lat": 39.828175, "Long": -98.5795, "Timestamp": 20181105103000, "Source": "https://www.reuters.com/article/us-china-economy-exports/export-orders-to-u-s-down-a-third-at-chinas-largest-trade-fair-idUSKCN1NA0HL"}, {"ID": 800110001, "Actor1": "CANADIAN", "Actor1_Country": "CAN", "Actor2": "CANADA", "Actor2_Country": "CAN", "Code": 30, "Class": 1, "Action_Location": "Kelowna, British Columbia, Canada", "Lat": 49.9, "Long": -119.483, "Timestamp": 20181105103000, "Source": "https://www.prnewswire.com:443/news-releases/valens-signs-multi-year-cannabis-extraction-agreement-with-gtec-holdings-300743672.html"}, {"ID": 800110002, "Actor1": "CANADIAN", "Actor1_Country": "CAN", "Actor2": "CANADA", "Actor2_Country": "CAN", "Code": 32, "Class": 1, "Action_Location": "Okanagan, British Columbia, Canada", "Lat": 50.3667, "Long": -119.35, "Timestamp": 20181105103000, "Source": "https://www.prnewswire.com:443/news-releases/valens-signs-multi-year-cannabis-extraction-agreement-with-gtec-holdings-300743672.html"}, {"ID": 800110005, "Actor1": "CANADA", "Actor1_Country": "CAN", "Actor2": "HEALTH CARE PROVIDER", "Actor2_Country": null, "Code": 20, "Class": 1, "Action_Location": "Calgary, Alberta, Canada", "Lat": 51.0833, "Long": -114.083, "Timestamp": 20181105103000, "Source": "https://www.cbc.ca/news/health/adults-needle-fear-phobia-flu-season-1.4879098"}, {"ID": 800110007, "Actor1": "CANADA", "Actor1_Country": "CAN", "Actor2": "SENEGAL", "Actor2_Country": "SEN", "Code": 51, "Class": 1, "Action_Location": "Senegal", "Lat": 14.0, "Long": -14.0, "Timestamp": 20181105103000, "Source": "https://appablog.wordpress.com/2018/11/05/msd-congratulates-senegal-on-the-successful-launch-of-its-national-immunisation-programme-for-human-papillomavirus-hpv/"}, {"ID": 800110008, "Actor1": "CANADA", "Actor1_Country": "CAN", "Actor2": "SENEGAL", "Actor2_Country": "SEN", "Code": 51, "Class": 1, "Action_Location": "Canada", "Lat": 60.0, "Long": -96.0, "Timestamp": 20181105103000, "Source": "https://appablog.wordpress.com/2018/11/05/msd-congratulates-senegal-on-the-successful-launch-of-its-national-immunisation-programme-for-human-papillomavirus-hpv/"}, {"ID": 800110010, "Actor1": "TORONTO", "Actor1_Country": "CAN", "Actor2": "CANADA", "Actor2_Country": "CAN", "Code": 60, "Class": 2, "Action_Location": "Toronto, Ontario, Canada", "Lat": 43.6667, "Long": -79.4167, "Timestamp": 20181105103000, "Source": "https://www.khaleejtimes.com/dnata-doubles-operations-in-canada"}, {"ID": 800110018, "Actor1": "SWITZERLAND", "Actor1_Country": "CHE", "Actor2": "CITIGROUP", "Actor2_Country": "USA", "Code": 46, "Class": 1, "Action_Location": "Frankfurt, Brandenburg, Germany", "Lat": 52.35, "Long": 14.55, "Timestamp": 20181105103000, "Source": "https://www.businesswire.com/news/home/20181105005259/en/Houlihan-Lokey-Continues-Expansion-Global-Industrials-Group"}, {"ID": 800110019, "Actor1": "SWITZERLAND", "Actor1_Country": "CHE", "Actor2": "CITIGROUP", "Actor2_Country": "USA", "Code": 46, "Class": 1, "Action_Location": "Frankfurt, Brandenburg, Germany", "Lat": 52.35, "Long": 14.55, "Timestamp": 20181105103000, "Source": "https://www.businesswire.com/news/home/20181105005259/en/Houlihan-Lokey-Continues-Expansion-Global-Industrials-Group"}, {"ID": 800110031, "Actor1": "CHINESE", "Actor1_Country": "CHN", "Actor2": "AUSTRALIAN", "Actor2_Country": "AUS", "Code": 36, "Class": 1, "Action_Location": "Shanghai, Shanghai, China", "Lat": 31.2222, "Long": 121.458, "Timestamp": 20181105103000, "Source": "https://www.afr.com/news/world/asia/marise-payne-to-visit-china-on-thursday-first-ministerial-visit-in-18-months-20181105-h17jfc"}, {"ID": 800110032, "Actor1": "CHINESE", "Actor1_Country": "CHN", "Actor2": "AUSTRALIAN", "Actor2_Country": "AUS", "Code": 36, "Class": 1, "Action_Location": "Shanghai, Shanghai, China", "Lat": 31.2222, "Long": 121.458, "Timestamp": 20181105103000, "Source": "https://www.afr.com/news/world/asia/marise-payne-to-visit-china-on-thursday-first-ministerial-visit-in-18-months-20181105-h17jfc"}, {"ID": 800110046, "Actor1": "CHINESE", "Actor1_Country": "CHN", "Actor2": "PRODUCER", "Actor2_Country": null, "Code": 61, "Class": 2, "Action_Location": "Shenzhen, Guangdong, China", "Lat": 22.2, "Long": 111.117, "Timestamp": 20181105103000, "Source": "https://www.reuters.com/article/us-china-economy-exports/export-orders-to-u-s-down-a-third-at-chinas-largest-trade-fair-idUSKCN1NA0HL"}, {"ID": 800110048, "Actor1": "CHINA", "Actor1_Country": "CHN", "Actor2": "GOVERNMENT", "Actor2_Country": null, "Code": 51, "Class": 1, "Action_Location": "Beijing, Beijing, China", "Lat": 39.9289, "Long": 116.388, "Timestamp": 20181105103000, "Source": "https://www.afr.com/news/world/asia/marise-payne-to-visit-china-on-thursday-first-ministerial-visit-in-18-months-20181105-h17jfc"}, {"ID": 800110050, "Actor1": "BEIJING", "Actor1_Country": "CHN", "Actor2": "IRAN", "Actor2_Country": "IRN", "Code": 12, "Class": 1, "Action_Location": "Beijing, Beijing, China", "Lat": 39.9289, "Long": 116.388, "Timestamp": 20181105103000, "Source": "https://www.japantimes.co.jp/?post_type=opinion&p=1564373"}, {"ID": 800110051, "Actor1": "BEIJING", "Actor1_Country": "CHN", "Actor2": "IRAN", "Actor2_Country": "IRN", "Code": 12, "Class": 1, "Action_Location": "Beijing, Beijing, China", "Lat": 39.9289, "Long": 116.388, "Timestamp": 20181105103000, "Source": "https://www.japantimes.co.jp/?post_type=opinion&p=1564373"}, {"ID": 800110052, "Actor1": "CHINA", "Actor1_Country": "CHN", "Actor2": "IRAN", "Actor2_Country": "IRN", "Code": 874, "Class": 2, "Action_Location": "Beijing, Beijing, China", "Lat": 39.9289, "Long": 116.388, "Timestamp": 20181105103000, "Source": "https://www.msn.com/en-us/finance/news/china-to-continue-iran-trade-despite-new-us-sanctions/ar-BBPmewq"}, {"ID": 800110053, "Actor1": "BEIJING", "Actor1_Country": "CHN", "Actor2": "IRAN", "Actor2_Country": "IRN", "Code": 163, "Class": 4, "Action_Location": "Beijing, Beijing, China", "Lat": 39.9289, "Long": 116.388, "Timestamp": 20181105103000, "Source": "https://www.japantimes.co.jp/?post_type=opinion&p=1564373"}, {"ID": 800110054, "Actor1": "BEIJING", "Actor1_Country": "CHN", "Actor2": "IRAN", "Actor2_Country": "IRN", "Code": 163, "Class": 4, "Action_Location": "Beijing, Beijing, China", "Lat": 39.9289, "Long": 116.388, "Timestamp": 20181105103000, "Source": "https://www.japantimes.co.jp/?post_type=opinion&p=1564373"}, {"ID": 800110055, "Actor1": "CHINA", "Actor1_Country": "CHN", "Actor2": "RUSSIA", "Actor2_Country": "RUS", "Code": 874, "Class": 2, "Action_Location": "Beijing, Beijing, China", "Lat": 39.9289, "Long": 116.388, "Timestamp": 20181105103000, "Source": "https://www.msn.com/en-us/finance/news/china-to-continue-iran-trade-despite-new-us-sanctions/ar-BBPmewq"}, {"ID": 800110067, "Actor1": "CHINA", "Actor1_Country": "CHN", "Actor2": "SHANGHAI", "Actor2_Country": "CHN", "Code": 46, "Class": 1, "Action_Location": "Shanghai, Shanghai, China", "Lat": 31.2222, "Long": 121.458, "Timestamp": 20181105103000, "Source": "https://www.npr.org/2018/11/05/664280742/expo-promotes-chinas-desire-to-attract-foreign-imports"}, {"ID": 800110094, "Actor1": "POLICE OFFICER", "Actor1_Country": null, "Actor2": "AFGHANISTAN", "Actor2_Country": "AFG", "Code": 190, "Class": 4, "Action_Location": "Kabul, Kabol, Afghanistan", "Lat": 34.5167, "Long": 69.1833, "Timestamp": 20181105103000, "Source": "http://newageislam.com/current-affairs/ajit-kumar-singh/the-taliban-and-the-afghanistan-elections/d/116790"}, {"ID": 800110095, "Actor1": "POLICE OFFICER", "Actor1_Country": null, "Actor2": "AFGHAN", "Actor2_Country": "AFG", "Code": 190, "Class": 4, "Action_Location": "Kabul, Kabol, Afghanistan", "Lat": 34.5167, "Long": 69.1833, "Timestamp": 20181105103000, "Source": "http://newageislam.com/current-affairs/ajit-kumar-singh/the-taliban-and-the-afghanistan-elections/d/116790"}, {"ID": 800110096, "Actor1": "POLICE OFFICER", "Actor1_Country": null, "Actor2": "AFRICA", "Actor2_Country": "AFR", "Code": 43, "Class": 1, "Action_Location": "Mafikeng, North-West, South Africa", "Lat": -25.8652, "Long": 25.6442, "Timestamp": 20181105103000, "Source": "http://www.destinyman.com/2018/11/05/lerato-sengadi-claims-marital-home/"}, {"ID": 800110100, "Actor1": "POLICE", "Actor1_Country": null, "Actor2": "DENMARK", "Actor2_Country": "DNK", "Code": 174, "Class": 4, "Action_Location": "Denmark", "Lat": 56.0, "Long": 10.0, "Timestamp": 20181105103000, "Source": "https://www.rferl.org/a/iran-blames-israel-for-alleged-denmark-murder-plot/29583234.html"}, {"ID": 800110102, "Actor1": "PRISON", "Actor1_Country": null, "Actor2": "UNITED KINGDOM", "Actor2_Country": "GBR", "Code": 84, "Class": 2, "Action_Location": "West Yorkshire, United Kingdom (general), United Kingdom", "Lat": 53.7, "Long": -1.58333, "Timestamp": 20181105103000, "Source": "https://metro.co.uk/2018/11/05/leader-of-britains-worst-child-grooming-gang-scarred-for-life-in-prison-attack-8105394/"}, {"ID": 800110110, "Actor1": "POLICE", "Actor1_Country": null, "Actor2": "NORWEGIAN", "Actor2_Country": "NOR", "Code": 173, "Class": 4, "Action_Location": "Israel", "Lat": 31.5, "Long": 34.75, "Timestamp": 20181105103000, "Source": "https://www.rferl.org/a/iran-blames-israel-for-alleged-denmark-murder-plot/29583234.html"}, {"ID": 800110115, "Actor1": "POLICE", "Actor1_Country": null, "Actor2": "UGANDA", "Actor2_Country": "UGA", "Code": 90, "Class": 2, "Action_Location": "Kampala, Kampala, Uganda", "Lat": 0.315556, "Long": 32.5656, "Timestamp": 20181105103000, "Source": "http://www.monitor.co.ug/News/National/Five-run-after-dropping-piglets-Bank-of-Uganda/688334-4837670-sgk36b/"}, {"ID": 800110117, "Actor1": "POLICE", "Actor1_Country": null, "Actor2": "UNITED STATES", "Actor2_Country": "USA", "Code": 182, "Class": 4, "Action_Location": "Washington, District of Columbia, United States", "Lat": 38.8951, "Long": -77.0364, "Timestamp": 20181105103000, "Source": "https://www.washingtonpost.com/nation/2018/11/05/i-wanted-him-feel-compassion-jewish-nurse-who-treated-synagogue-shooting-suspect-tells-his-story/"}, {"ID": 800110181, "Actor1": "MIGRANT", "Actor1_Country": null, "Actor2": "VERACRUZ", "Actor2_Country": "MEX", "Code": 70, "Class": 2, "Action_Location": "United States", "Lat": 39.828175, "Long": -98.5795, "Timestamp": 20181105103000, "Source": "https://www.pressandjournal.co.uk/news/world/1602126/migrants-hobbled-by-blisters-as-caravan-continues-towards-us-border/"}, {"ID": 800110184, "Actor1": "VOTER", "Actor1_Country": null, "Actor2": "UNITED STATES", "Actor2_Country": "USA", "Code": 10, "Class": 1, "Action_Location": "Houston, Texas, United States", "Lat": 29.7633, "Long": -95.3633, "Timestamp": 20181105103000, "Source": "http://en.rfi.fr/americas/20181105-texas-democrats-struggle-mobilise-voters-key-orourke-cruz-battle"}, {"ID": 800110189, "Actor1": "COMMUNITY", "Actor1_Country": null, "Actor2": "UNITED STATES", "Actor2_Country": "USA", "Code": 43, "Class": 1, "Action_Location": "Florida, United States", "Lat": 27.8333, "Long": -81.717, "Timestamp": 20181105103000, "Source": "https://www.rollcall.com/news/politics/florida-democratic-women"}, {"ID": 800110190, "Actor1": "NEIGHBORHOOD", "Actor1_Country": null, "Actor2": "UNITED STATES", "Actor2_Country": "USA", "Code": 51, "Class": 1, "Action_Location": "New Jersey, United States", "Lat": 40.314, "Long": -74.5089, "Timestamp": 20181105103000, "Source": "https://www.nytimes.com/2018/11/05/us/politics/house-senate-elections-georgia-trump.html"}, {"ID": 800110201, "Actor1": "VOTER", "Actor1_Country": null, "Actor2": "TEXAS", "Actor2_Country": "USA", "Code": 190, "Class": 4, "Action_Location": "Texas, United States", "Lat": 31.106, "Long": -97.6475, "Timestamp": 20181105103000, "Source": "http://en.rfi.fr/americas/20181105-texas-democrats-struggle-mobilise-voters-key-orourke-cruz-battle"}, {"ID": 800110218, "Actor1": "GERMANY", "Actor1_Country": "DEU", "Actor2": "CITIGROUP", "Actor2_Country": "USA", "Code": 46, "Class": 1, "Action_Location": "Frankfurt, Brandenburg, Germany", "Lat": 52.35, "Long": 14.55, "Timestamp": 20181105103000, "Source": "https://www.businesswire.com/news/home/20181105005259/en/Houlihan-Lokey-Continues-Expansion-Global-Industrials-Group"}, {"ID": 800110219, "Actor1": "GERMANY", "Actor1_Country": "DEU", "Actor2": "CITIGROUP", "Actor2_Country": "USA", "Code": 46, "Class": 1, "Action_Location": "London, London, City of, United Kingdom", "Lat": 51.5, "Long": -0.116667, "Timestamp": 20181105103000, "Source": "https://www.tmcnet.com/usubmit/2018/11/05/8845876.htm"}, {"ID": 800110220, "Actor1": "GERMANY", "Actor1_Country": "DEU", "Actor2": "CITIGROUP", "Actor2_Country": "USA", "Code": 46, "Class": 1, "Action_Location": "London, London, City of, United Kingdom", "Lat": 51.5, "Long": -0.116667, "Timestamp": 20181105103000, "Source": "https://www.businesswire.com/news/home/20181105005259/en/Houlihan-Lokey-Continues-Expansion-Global-Industrials-Group"}, {"ID": 800110221, "Actor1": "GERMANY", "Actor1_Country": "DEU", "Actor2": "CITIGROUP", "Actor2_Country": "USA", "Code": 46, "Class": 1, "Action_Location": "London, London, City of, United Kingdom", "Lat": 51.5, "Long": -0.116667, "Timestamp": 20181105103000, "Source": "https://www.businesswire.com/news/home/20181105005259/en/Houlihan-Lokey-Continues-Expansion-Global-Industrials-Group"}, {"ID": 800110272, "Actor1": "STUDENT", "Actor1_Country": null, "Actor2": "PRISON", "Actor2_Country": null, "Code": 71, "Class": 2, "Action_Location": "Somalia", "Lat": 6.0, "Long": 48.0, "Timestamp": 20181105103000, "Source": "https://www.npr.org/2018/11/05/662637215/muslims-hope-to-wake-up-at-the-ballot-box-this-year"}, {"ID": 800110277, "Actor1": "STUDENT", "Actor1_Country": null, "Actor2": "VOTER", "Actor2_Country": null, "Code": 71, "Class": 2, "Action_Location": "Somalia", "Lat": 6.0, "Long": 48.0, "Timestamp": 20181105103000, "Source": "https://www.npr.org/2018/11/05/662637215/muslims-hope-to-wake-up-at-the-ballot-box-this-year"}, {"ID": 800110286, "Actor1": "UNIVERSITY", "Actor1_Country": null, "Actor2": "UNITED STATES", "Actor2_Country": "USA", "Code": 112, "Class": 3, "Action_Location": "Maryland, United States", "Lat": 39.0724, "Long": -76.7902, "Timestamp": 20181105103000, "Source": "https://www.chron.com/news/crime/article/Man-accused-of-secretly-filming-women-in-bathrooms-13362884.php"}, {"ID": 800110298, "Actor1": "RETIRED", "Actor1_Country": null, "Actor2": "UNITED STATES", "Actor2_Country": "USA", "Code": 113, "Class": 3, "Action_Location": "Morris Plains, New Jersey, United States", "Lat": 40.8218, "Long": -74.481, "Timestamp": 20181105103000, "Source": "https://www.courierpostonline.com/story/news/politics/elections/2018/11/05/healthcare-worries-voters-midterm-elections-not-trump-migrant-caravan-talk/1843326002/"}, {"ID": 800110299, "Actor1": "RETIRED", "Actor1_Country": null, "Actor2": "UNITED STATES", "Actor2_Country": "USA", "Code": 113, "Class": 3, "Action_Location": "Ocean County, New Jersey, United States", "Lat": 39.9001, "Long": -74.2163, "Timestamp": 20181105103000, "Source": "https://www.courierpostonline.com/story/news/politics/elections/2018/11/05/healthcare-worries-voters-midterm-elections-not-trump-migrant-caravan-talk/1843326002/"}, {"ID": 800110314, "Actor1": "EUROPE", "Actor1_Country": "EUR", "Actor2": "NORTH AMERICA", "Actor2_Country": "NMR", "Code": 40, "Class": 1, "Action_Location": "United States", "Lat": 39.828175, "Long": -98.5795, "Timestamp": 20181105103000, "Source": "https://www.thechronicleherald.ca/news/local/mit-expert-carbon-neutral-biomass-accounting-fraud-256464/"}, {"ID": 800110318, "Actor1": "EUROPEAN", "Actor1_Country": "EUR", "Actor2": "UNITED KINGDOM", "Actor2_Country": "GBR", "Code": 130, "Class": 3, "Action_Location": "Yorkshire, North Yorkshire, United Kingdom", "Lat": 54.0, "Long": -1.5, "Timestamp": 20181105103000, "Source": "https://www.businessinsider.com.au/no-deal-brexit-steve-eisman-big-short-investor-betting-against-uk-stocks-2018-11"}, {"ID": 800110319, "Actor1": "EUROPEAN", "Actor1_Country": "EUR", "Actor2": "UNITED KINGDOM", "Actor2_Country": "GBR", "Code": 130, "Class": 3, "Action_Location": "Italy", "Lat": 42.833333, "Long": 12.833333, "Timestamp": 20181105103000, "Source": "https://www.businessinsider.com.au/no-deal-brexit-steve-eisman-big-short-investor-betting-against-uk-stocks-2018-11"}, {"ID": 800110320, "Actor1": "EUROPEAN", "Actor1_Country": "EUR", "Actor2": "PUBLICATION", "Actor2_Country": null, "Code": 130, "Class": 3, "Action_Location": "Yorkshire, North Yorkshire, United Kingdom", "Lat": 54.0, "Long": -1.5, "Timestamp": 20181105103000, "Source": "https://www.businessinsider.com.au/no-deal-brexit-steve-eisman-big-short-investor-betting-against-uk-stocks-2018-11"}, {"ID": 800110355, "Actor1": "UNITED KINGDOM", "Actor1_Country": "GBR", "Actor2": "UNITED ARAB EMIRATES", "Actor2_Country": "ARE", "Code": 10, "Class": 1, "Action_Location": "Yorkshire, North Yorkshire, United Kingdom", "Lat": 54.0, "Long": -1.5, "Timestamp": 20181105103000, "Source": "https://www.businessinsider.com.au/no-deal-brexit-steve-eisman-big-short-investor-betting-against-uk-stocks-2018-11"}, {"ID": 800110356, "Actor1": "UNITED KINGDOM", "Actor1_Country": "GBR", "Actor2": "BRUSSELS", "Actor2_Country": "BEL", "Code": 120, "Class": 3, "Action_Location": "Yorkshire, North Yorkshire, United Kingdom", "Lat": 54.0, "Long": -1.5, "Timestamp": 20181105103000, "Source": "https://www.businessinsider.com.au/no-deal-brexit-steve-eisman-big-short-investor-betting-against-uk-stocks-2018-11"}, {"ID": 800110357, "Actor1": "UNITED KINGDOM", "Actor1_Country": "GBR", "Actor2": "BRUSSELS", "Actor2_Country": "BEL", "Code": 120, "Class": 3, "Action_Location": "Yorkshire, North Yorkshire, United Kingdom", "Lat": 54.0, "Long": -1.5, "Timestamp": 20181105103000, "Source": "https://www.businessinsider.com.au/no-deal-brexit-steve-eisman-big-short-investor-betting-against-uk-stocks-2018-11"}, {"ID": 800110363, "Actor1": "UNITED KINGDOM", "Actor1_Country": "GBR", "Actor2": "UNITED KINGDOM", "Actor2_Country": "GBR", "Code": 120, "Class": 3, "Action_Location": "Brussels, Bruxelles-Capitale, Belgium", "Lat": 50.8333, "Long": 4.33333, "Timestamp": 20181105103000, "Source": "https://www.businessinsider.com.au/no-deal-brexit-steve-eisman-big-short-investor-betting-against-uk-stocks-2018-11"}, {"ID": 800110364, "Actor1": "UNITED KINGDOM", "Actor1_Country": "GBR", "Actor2": "UNITED KINGDOM", "Actor2_Country": "GBR", "Code": 120, "Class": 3, "Action_Location": "Yorkshire, North Yorkshire, United Kingdom", "Lat": 54.0, "Long": -1.5, "Timestamp": 20181105103000, "Source": "https://www.businessinsider.com.au/no-deal-brexit-steve-eisman-big-short-investor-betting-against-uk-stocks-2018-11"}, {"ID": 800110370, "Actor1": "BRITISH", "Actor1_Country": "GBR", "Actor2": "THE EU", "Actor2_Country": "EUR", "Code": 12, "Class": 1, "Action_Location": "Ireland", "Lat": 53.0, "Long": -8.0, "Timestamp": 20181105103000, "Source": "https://www.businessinsider.com.au/poll-brits-would-rather-stay-in-the-eu-than-accept-a-no-deal-brexit-2018-11"}, {"ID": 800110381, "Actor1": "BRITISH", "Actor1_Country": "GBR", "Actor2": "AMERICAN", "Actor2_Country": "USA", "Code": 10, "Class": 1, "Action_Location": "United States", "Lat": 39.828175, "Long": -98.5795, "Timestamp": 20181105103000, "Source": "https://www.dailypolitical.com/2018/11/05/british-american-tobacco-plc-ads-bats-receives-buy-rating-from-liberum-capital.html"}, {"ID": 800110386, "Actor1": "GHANA", "Actor1_Country": "GHA", "Actor2": "ENTREPRENEUR", "Actor2_Country": null, "Code": 10, "Class": 1, "Action_Location": "Accra, Greater Accra, Ghana", "Lat": 5.55, "Long": -0.216667, "Timestamp": 20181105103000, "Source": "https://allafrica.com/stories/201811050318.html"}, {"ID": 800110438, "Actor1": "ELECTION COMMISSION", "Actor1_Country": null, "Actor2": "AFGHANISTAN", "Actor2_Country": "AFG", "Code": 10, "Class": 1, "Action_Location": "Kabul, Kabol, Afghanistan", "Lat": 34.5167, "Long": 69.1833, "Timestamp": 20181105103000, "Source": "http://newageislam.com/current-affairs/ajit-kumar-singh/the-taliban-and-the-afghanistan-elections/d/116790"}, {"ID": 800110439, "Actor1": "GOVERNOR", "Actor1_Country": null, "Actor2": "TALIBAN", "Actor2_Country": "AFG", "Code": 13, "Class": 1, "Action_Location": "Ghazni, Ghazni, Afghanistan", "Lat": 33.5508, "Long": 68.4225, "Timestamp": 20181105103000, "Source": "https://www.rferl.org/a/afghanistan-13-killed-taliban-attack-ghazni-checkpoint/29583225.html"}, {"ID": 800110440, "Actor1": "GOVERNOR", "Actor1_Country": null, "Actor2": "TALIBAN", "Actor2_Country": "AFG", "Code": 13, "Class": 1, "Action_Location": "Ghazni, Ghazni, Afghanistan", "Lat": 33.5508, "Long": 68.4225, "Timestamp": 20181105103000, "Source": "https://www.rferl.org/a/afghanistan-13-killed-taliban-attack-ghazni-checkpoint/29583225.html"}, {"ID": 800110442, "Actor1": "MINIST OF HOME AFFAIRS", "Actor1_Country": null, "Actor2": "AFRICA", "Actor2_Country": "AFR", "Code": 10, "Class": 1, "Action_Location": "Gauteng, Gauteng, South Africa", "Lat": -26.0833, "Long": 28.25, "Timestamp": 20181105103000, "Source": "http://polity.org.za/article/da-our-legal-challenge-to-have-ministers-gigaba-and-dlamini-fired-will-be-heard-in-march-next-year-2018-11-05"}, {"ID": 800110443, "Actor1": "MINIST OF HOME AFFAIRS", "Actor1_Country": null, "Actor2": "AFRICA", "Actor2_Country": "AFR", "Code": 14, "Class": 1, "Action_Location": "Gauteng, Gauteng, South Africa", "Lat": -26.0833, "Long": 28.25, "Timestamp": 20181105103000, "Source": "http://polity.org.za/article/da-our-legal-challenge-to-have-ministers-gigaba-and-dlamini-fired-will-be-heard-in-march-next-year-2018-11-05"}, {"ID": 800110489, "Actor1": "PRESIDENT", "Actor1_Country": null, "Actor2": "TEHRAN", "Actor2_Country": "IRN", "Code": 356, "Class": 1, "Action_Location": "Tehran, Tehran, Iran", "Lat": 35.75, "Long": 51.5148, "Timestamp": 20181105103000, "Source": "https://www.bangkokpost.com/news/world/1570350/iran-vows-to-proudly-bypass-us-sanctions"}, {"ID": 800110490, "Actor1": "SECRETARY OF STATE", "Actor1_Country": null, "Actor2": "IRANIAN", "Actor2_Country": "IRN", "Code": 51, "Class": 1, "Action_Location": "Tehran, Tehran, Iran", "Lat": 35.75, "Long": 51.5148, "Timestamp": 20181105103000, "Source": "https://www.mycentraljersey.com/story/news/world/2018/11/05/iran-united-states-president-donald-trump-nuclear-deal-foreign-minister-mohammad-javad-zarif/1859375002/"}, {"ID": 800110498, "Actor1": "PRESIDENT", "Actor1_Country": null, "Actor2": "MEDIA", "Actor2_Country": null, "Code": 10, "Class": 1, "Action_Location": "Louisiana, United States", "Lat": 31.1801, "Long": -91.8749, "Timestamp": 20181105103000, "Source": "https://www.standardmedia.co.ke/article/2001301610/with-trump-is-the-us-still-a-real-democracy"}, {"ID": 800110501, "Actor1": "CHIEF EXECUTIVE", "Actor1_Country": null, "Actor2": "SYNGENTA", "Actor2_Country": null, "Code": 46, "Class": 1, "Action_Location": "United States", "Lat": 39.828175, "Long": -98.5795, "Timestamp": 20181105103000, "Source": "https://www.businesswire.com/news/home/20181105005344/en/Syngenta-Adds-New-Directors-Board"}, {"ID": 800110504, "Actor1": "PRESIDENT", "Actor1_Country": null, "Actor2": "NIGERIA", "Actor2_Country": "NGA", "Code": 10, "Class": 1, "Action_Location": "Buhari, Kano, Nigeria", "Lat": 11.4148, "Long": 8.25082, "Timestamp": 20181105103000, "Source": "https://www.pulse.ng/news/politics/buharis-aide-says-2019-is-a-contest-between-light-darkness-id9070788.html"}, {"ID": 800110526, "Actor1": "PRESIDENT", "Actor1_Country": null, "Actor2": "SAUDI ARABIA", "Actor2_Country": "SAU", "Code": 42, "Class": 1, "Action_Location": "Saudi Arabia", "Lat": 25.0, "Long": 45.0, "Timestamp": 20181105103000, "Source": "https://themuslimtimes.info/2018/11/05/saudi-arabia-told-the-un-top-human-rights-body-that-it-was-investigating-the-murder-of-journalist-jamal-khashoggi/"}, {"ID": 800110530, "Actor1": "PRESIDENT", "Actor1_Country": null, "Actor2": "TENNESSEE", "Actor2_Country": "USA", "Code": 15, "Class": 1, "Action_Location": "Montana, United States", "Lat": 46.9048, "Long": -110.326, "Timestamp": 20181105103000, "Source": "https://newsinfo.inquirer.net/1050634/everythings-at-stake-on-eve-of-first-trump-era-elections"}, {"ID": 800110551, "Actor1": "MINIST OF HOME AFFAIRS", "Actor1_Country": null, "Actor2": "GAUTENG", "Actor2_Country": "ZAF", "Code": 10, "Class": 1, "Action_Location": "Gauteng, Gauteng, South Africa", "Lat": -26.0833, "Long": 28.25, "Timestamp": 20181105103000, "Source": "http://polity.org.za/article/da-our-legal-challenge-to-have-ministers-gigaba-and-dlamini-fired-will-be-heard-in-march-next-year-2018-11-05"}, {"ID": 800110552, "Actor1": "MINIST OF HOME AFFAIRS", "Actor1_Country": null, "Actor2": "GAUTENG", "Actor2_Country": "ZAF", "Code": 14, "Class": 1, "Action_Location": "Gauteng, Gauteng, South Africa", "Lat": -26.0833, "Long": 28.25, "Timestamp": 20181105103000, "Source": "http://polity.org.za/article/da-our-legal-challenge-to-have-ministers-gigaba-and-dlamini-fired-will-be-heard-in-march-next-year-2018-11-05"}, {"ID": 800110553, "Actor1": "GOVERNMENT", "Actor1_Country": null, "Actor2": "ZIMBABWE", "Actor2_Country": "ZWE", "Code": 42, "Class": 1, "Action_Location": "Zimbabwe", "Lat": -19.0, "Long": 29.0, "Timestamp": 20181105103000, "Source": "http://www.polity.org.za/article/economic-turmoil-is-unavoidable-in-mnangagwas-zimbabwe-2018-11-05"}, {"ID": 800110560, "Actor1": "MINIST OF DEFENCE", "Actor1_Country": null, "Actor2": "WELLINGTON", "Actor2_Country": "NZL", "Code": 46, "Class": 1, "Action_Location": "Wellington, New Zealand (general), New Zealand", "Lat": -41.3, "Long": 174.783, "Timestamp": 20181105103000, "Source": "http://www.voxy.co.nz/politics/5/325179"}, {"ID": 800110561, "Actor1": "MINIST OF DEFENCE", "Actor1_Country": null, "Actor2": "VIET NAM", "Actor2_Country": "VNM", "Code": 46, "Class": 1, "Action_Location": "Wellington, New Zealand (general), New Zealand", "Lat": -41.3, "Long": 174.783, "Timestamp": 20181105103000, "Source": "http://www.voxy.co.nz/politics/5/325179"}, {"ID": 800110583, "Actor1": "DOCTOR", "Actor1_Country": null, "Actor2": "JUDGE", "Actor2_Country": null, "Code": 10, "Class": 1, "Action_Location": "United Kingdom", "Lat": 54.0, "Long": -4.0, "Timestamp": 20181105103000, "Source": "https://www.ledburyreporter.co.uk/news/national/17201439.mother-in-permanent-vegetative-state-should-be-allowed-to-die-judge-rules/"}, {"ID": 800110590, "Actor1": "THE EU", "Actor1_Country": "EUR", "Actor2": "VOTER", "Actor2_Country": null, "Code": 51, "Class": 1, "Action_Location": "London, London, City of, United Kingdom", "Lat": 51.5, "Long": -0.116667, "Timestamp": 20181105103000, "Source": "https://www.businessinsider.com.au/poll-brits-would-rather-stay-in-the-eu-than-accept-a-no-deal-brexit-2018-11"}, {"ID": 800110612, "Actor1": "UNITED NATIONS", "Actor1_Country": null, "Actor2": "MYANMAR", "Actor2_Country": "MMR", "Code": 57, "Class": 1, "Action_Location": "Bangladesh", "Lat": 24.0, "Long": 90.0, "Timestamp": 20181105103000, "Source": "http://www.china.org.cn/world/Off_the_Wire/2018-11/05/content_70361150.htm"}, {"ID": 800110613, "Actor1": "UNITED NATIONS", "Actor1_Country": null, "Actor2": "MEMBER NATION", "Actor2_Country": null, "Code": 20, "Class": 1, "Action_Location": "Minnesota, United States", "Lat": 45.7326, "Long": -93.9196, "Timestamp": 20181105103000, "Source": "https://www.onenewsnow.com/pro-life/2018/11/05/reminder-every-child-deserves-a-full-and-decent-life"}, {"ID": 800110629, "Actor1": "IRELAND", "Actor1_Country": "IRL", "Actor2": "LONDON", "Actor2_Country": "GBR", "Code": 51, "Class": 1, "Action_Location": "Wexford, Wexford, Ireland", "Lat": 52.3342, "Long": -6.4575, "Timestamp": 20181105103000, "Source": "https://www.irishexaminer.com/breakingnews/ireland/world-class-hook-lighthouse-in-wexford-wins-prize-at-world-tourism-awards-883244.html"}, {"ID": 800110635, "Actor1": "TEHRAN", "Actor1_Country": "IRN", "Actor2": "BAHRAINI", "Actor2_Country": "BHR", "Code": 111, "Class": 3, "Action_Location": "Tehran, Tehran, Iran", "Lat": 35.75, "Long": 51.5148, "Timestamp": 20181105103000, "Source": "https://www.iranherald.com/news/258250150/iran-condemns-bahrain-life-sentence-for-sheikh-salman"}, {"ID": 800110636, "Actor1": "TEHRAN", "Actor1_Country": "IRN", "Actor2": "BAHRAINI", "Actor2_Country": "BHR", "Code": 111, "Class": 3, "Action_Location": "Manama, Al Manamah, Bahrain", "Lat": 26.2361, "Long": 50.5831, "Timestamp": 20181105103000, "Source": "https://www.iranherald.com/news/258250150/iran-condemns-bahrain-life-sentence-for-sheikh-salman"}, {"ID": 800110637, "Actor1": "IRAN", "Actor1_Country": "IRN", "Actor2": "REGIME", "Actor2_Country": null, "Code": 10, "Class": 1, "Action_Location": "Ahvaz, Khuzestan, Iran", "Lat": 31.3203, "Long": 48.6693, "Timestamp": 20181105103000, "Source": "https://www.rferl.org/a/iran-blames-israel-for-alleged-denmark-murder-plot/29583234.html"}, {"ID": 800110638, "Actor1": "IRAN", "Actor1_Country": "IRN", "Actor2": "IRAQ", "Actor2_Country": "IRQ", "Code": 50, "Class": 1, "Action_Location": "Tehran, Tehran, Iran", "Lat": 35.75, "Long": 51.5148, "Timestamp": 20181105103000, "Source": "https://www.nbcnews.com/news/world/iran-s-rouhani-warns-war-situation-u-s-sanctions-resume-n931196"}, {"ID": 800110639, "Actor1": "IRAN", "Actor1_Country": "IRN", "Actor2": "ISRAEL", "Actor2_Country": "ISR", "Code": 112, "Class": 3, "Action_Location": "Tehran, Tehran, Iran", "Lat": 35.75, "Long": 51.5148, "Timestamp": 20181105103000, "Source": "https://www.chron.com/news/world/article/The-Latest-Israel-welcome-restored-US-sanctions-13362741.php"}, {"ID": 800110641, "Actor1": "IRAN", "Actor1_Country": "IRN", "Actor2": "ISRAEL", "Actor2_Country": "ISR", "Code": 112, "Class": 3, "Action_Location": "Israel", "Lat": 31.5, "Long": 34.75, "Timestamp": 20181105103000, "Source": "https://www.chron.com/news/world/article/The-Latest-Israel-welcome-restored-US-sanctions-13362741.php"}, {"ID": 800110644, "Actor1": "IRAN", "Actor1_Country": "IRN", "Actor2": "HASSAN", "Actor2_Country": "JOR", "Code": 138, "Class": 3, "Action_Location": "Israel", "Lat": 31.5, "Long": 34.75, "Timestamp": 20181105103000, "Source": "https://www.nbcnews.com/news/world/iran-s-rouhani-warns-war-situation-u-s-sanctions-resume-n931196"}, {"ID": 800110645, "Actor1": "IRAN", "Actor1_Country": "IRN", "Actor2": "MILITARY", "Actor2_Country": null, "Code": 112, "Class": 3, "Action_Location": "Tehran, Tehran, Iran", "Lat": 35.75, "Long": 51.5148, "Timestamp": 20181105103000, "Source": "https://www.rferl.org/a/iran-blames-israel-for-alleged-denmark-murder-plot/29583234.html"}, {"ID": 800110646, "Actor1": "TEHRAN", "Actor1_Country": "IRN", "Actor2": "MILITARY", "Actor2_Country": null, "Code": 112, "Class": 3, "Action_Location": "Khuzestan, Khuzestan, Iran", "Lat": 31.5, "Long": 49.0, "Timestamp": 20181105103000, "Source": "https://www.rferl.org/a/iran-blames-israel-for-alleged-denmark-murder-plot/29583234.html"}, {"ID": 800110647, "Actor1": "TEHRAN", "Actor1_Country": "IRN", "Actor2": "MILITARY", "Actor2_Country": null, "Code": 112, "Class": 3, "Action_Location": "Tehran, Tehran, Iran", "Lat": 35.75, "Long": 51.5148, "Timestamp": 20181105103000, "Source": "https://www.rferl.org/a/iran-blames-israel-for-alleged-denmark-murder-plot/29583234.html"}, {"ID": 800110648, "Actor1": "IRAN", "Actor1_Country": "IRN", "Actor2": "MILITARY", "Actor2_Country": null, "Code": 190, "Class": 4, "Action_Location": "Tehran, Tehran, Iran", "Lat": 35.75, "Long": 51.5148, "Timestamp": 20181105103000, "Source": "https://www.rferl.org/a/iran-blames-israel-for-alleged-denmark-murder-plot/29583234.html"}, {"ID": 800110649, "Actor1": "TEHRAN", "Actor1_Country": "IRN", "Actor2": "MILITARY", "Actor2_Country": null, "Code": 190, "Class": 4, "Action_Location": "Tehran, Tehran, Iran", "Lat": 35.75, "Long": 51.5148, "Timestamp": 20181105103000, "Source": "https://www.rferl.org/a/iran-blames-israel-for-alleged-denmark-murder-plot/29583234.html"}, {"ID": 800110650, "Actor1": "TEHRAN", "Actor1_Country": "IRN", "Actor2": "MILITARY", "Actor2_Country": null, "Code": 190, "Class": 4, "Action_Location": "Ahvaz, Khuzestan, Iran", "Lat": 31.3203, "Long": 48.6693, "Timestamp": 20181105103000, "Source": "https://www.rferl.org/a/iran-blames-israel-for-alleged-denmark-murder-plot/29583234.html"}, {"ID": 800110651, "Actor1": "TEHRAN", "Actor1_Country": "IRN", "Actor2": "MILITARY", "Actor2_Country": null, "Code": 190, "Class": 4, "Action_Location": "Tehran, Tehran, Iran", "Lat": 35.75, "Long": 51.5148, "Timestamp": 20181105103000, "Source": "https://www.rferl.org/a/iran-blames-israel-for-alleged-denmark-murder-plot/29583234.html"}, {"ID": 800110652, "Actor1": "IRAN", "Actor1_Country": "IRN", "Actor2": "UNITED STATES", "Actor2_Country": "USA", "Code": 13, "Class": 1, "Action_Location": "Tehran, Tehran, Iran", "Lat": 35.75, "Long": 51.5148, "Timestamp": 20181105103000, "Source": "https://www.mycentraljersey.com/story/news/world/2018/11/05/iran-united-states-president-donald-trump-nuclear-deal-foreign-minister-mohammad-javad-zarif/1859375002/"}, {"ID": 800110653, "Actor1": "IRAN", "Actor1_Country": "IRN", "Actor2": "UNITED STATES", "Actor2_Country": "USA", "Code": 138, "Class": 3, "Action_Location": "Israel", "Lat": 31.5, "Long": 34.75, "Timestamp": 20181105103000, "Source": "https://www.nbcnews.com/news/world/iran-s-rouhani-warns-war-situation-u-s-sanctions-resume-n931196"}, {"ID": 800110654, "Actor1": "IRAN", "Actor1_Country": "IRN", "Actor2": "UNITED STATES", "Actor2_Country": "USA", "Code": 138, "Class": 3, "Action_Location": "United States", "Lat": 39.828175, "Long": -98.5795, "Timestamp": 20181105103000, "Source": "https://www.nbcnews.com/news/world/iran-s-rouhani-warns-war-situation-u-s-sanctions-resume-n931196"}, {"ID": 800110660, "Actor1": "IRAN", "Actor1_Country": "IRN", "Actor2": "UNITED STATES", "Actor2_Country": "USA", "Code": 10, "Class": 1, "Action_Location": "Tehran, Tehran, Iran", "Lat": 35.75, "Long": 51.5148, "Timestamp": 20181105103000, "Source": "https://www.mycentraljersey.com/story/news/world/2018/11/05/iran-united-states-president-donald-trump-nuclear-deal-foreign-minister-mohammad-javad-zarif/1859375002/"}, {"ID": 800110661, "Actor1": "IRAN", "Actor1_Country": "IRN", "Actor2": "UNITED STATES", "Actor2_Country": "USA", "Code": 40, "Class": 1, "Action_Location": "Tehran, Tehran, Iran", "Lat": 35.75, "Long": 51.5148, "Timestamp": 20181105103000, "Source": "https://www.mycentraljersey.com/story/news/world/2018/11/05/iran-united-states-president-donald-trump-nuclear-deal-foreign-minister-mohammad-javad-zarif/1859375002/"}, {"ID": 800110662, "Actor1": "IRAN", "Actor1_Country": "IRN", "Actor2": "UNITED STATES", "Actor2_Country": "USA", "Code": 40, "Class": 1, "Action_Location": "Tehran, Tehran, Iran", "Lat": 35.75, "Long": 51.5148, "Timestamp": 20181105103000, "Source": "https://www.mycentraljersey.com/story/news/world/2018/11/05/iran-united-states-president-donald-trump-nuclear-deal-foreign-minister-mohammad-javad-zarif/1859375002/"}, {"ID": 800110663, "Actor1": "IRAN", "Actor1_Country": "IRN", "Actor2": "UNITED STATES", "Actor2_Country": "USA", "Code": 40, "Class": 1, "Action_Location": "Washington, District of Columbia, United States", "Lat": 38.8951, "Long": -77.0364, "Timestamp": 20181105103000, "Source": "https://www.mycentraljersey.com/story/news/world/2018/11/05/iran-united-states-president-donald-trump-nuclear-deal-foreign-minister-mohammad-javad-zarif/1859375002/"}, {"ID": 800110675, "Actor1": "AVIGDOR LIEBERMAN", "Actor1_Country": "ISR", "Actor2": "IRAN", "Actor2_Country": "IRN", "Code": 110, "Class": 3, "Action_Location": "Tehran, Tehran, Iran", "Lat": 35.75, "Long": 51.5148, "Timestamp": 20181105103000, "Source": "https://www.timesofisrael.com/iran-president-warns-of-war-situation-as-sanctions-resume/"}, {"ID": 800110676, "Actor1": "AVIGDOR LIEBERMAN", "Actor1_Country": "ISR", "Actor2": "IRAN", "Actor2_Country": "IRN", "Code": 110, "Class": 3, "Action_Location": "Iraq", "Lat": 33.0, "Long": 44.0, "Timestamp": 20181105103000, "Source": "https://www.nbcnews.com/news/world/iran-s-rouhani-warns-war-situation-u-s-sanctions-resume-n931196"}, {"ID": 800110677, "Actor1": "AVIGDOR LIEBERMAN", "Actor1_Country": "ISR", "Actor2": "ISRAELI", "Actor2_Country": "ISR", "Code": 43, "Class": 1, "Action_Location": "Gaza, Israel (general), Israel", "Lat": 31.4167, "Long": 34.3333, "Timestamp": 20181105103000, "Source": "https://www.timesofisrael.com/iran-president-warns-of-war-situation-as-sanctions-resume/"}, {"ID": 800110678, "Actor1": "AVIGDOR LIEBERMAN", "Actor1_Country": "ISR", "Actor2": "ISRAEL", "Actor2_Country": "ISR", "Code": 43, "Class": 1, "Action_Location": "United States", "Lat": 39.828175, "Long": -98.5795, "Timestamp": 20181105103000, "Source": "https://www.nbcnews.com/news/world/iran-s-rouhani-warns-war-situation-u-s-sanctions-resume-n931196"}, {"ID": 800110680, "Actor1": "ISRAEL", "Actor1_Country": "ISR", "Actor2": "IRAN", "Actor2_Country": "IRN", "Code": 110, "Class": 3, "Action_Location": "Tehran, Tehran, Iran", "Lat": 35.75, "Long": 51.5148, "Timestamp": 20181105103000, "Source": "https://www.timesofisrael.com/iran-president-warns-of-war-situation-as-sanctions-resume/"}, {"ID": 800110684, "Actor1": "ISRAELI", "Actor1_Country": "ISR", "Actor2": "AVIGDOR LIEBERMAN", "Actor2_Country": "ISR", "Code": 42, "Class": 1, "Action_Location": "Gaza, Israel (general), Israel", "Lat": 31.4167, "Long": 34.3333, "Timestamp": 20181105103000, "Source": "https://www.timesofisrael.com/iran-president-warns-of-war-situation-as-sanctions-resume/"}, {"ID": 800110685, "Actor1": "ISRAEL", "Actor1_Country": "ISR", "Actor2": "AVIGDOR LIEBERMAN", "Actor2_Country": "ISR", "Code": 42, "Class": 1, "Action_Location": "United States", "Lat": 39.828175, "Long": -98.5795, "Timestamp": 20181105103000, "Source": "https://www.nbcnews.com/news/world/iran-s-rouhani-warns-war-situation-u-s-sanctions-resume-n931196"}, {"ID": 800110698, "Actor1": "JEWISH", "Actor1_Country": null, "Actor2": "JEWISH", "Actor2_Country": null, "Code": 43, "Class": 1, "Action_Location": "Washington, District of Columbia, United States", "Lat": 38.8951, "Long": -77.0364, "Timestamp": 20181105103000, "Source": "https://www.washingtonpost.com/nation/2018/11/05/i-wanted-him-feel-compassion-jewish-nurse-who-treated-synagogue-shooting-suspect-tells-his-story/"}, {"ID": 800110699, "Actor1": "JEWISH", "Actor1_Country": null, "Actor2": "JEWISH", "Actor2_Country": null, "Code": 193, "Class": 4, "Action_Location": "Washington, District of Columbia, United States", "Lat": 38.8951, "Long": -77.0364, "Timestamp": 20181105103000, "Source": "https://www.washingtonpost.com/nation/2018/11/05/i-wanted-him-feel-compassion-jewish-nurse-who-treated-synagogue-shooting-suspect-tells-his-story/"}, {"ID": 800110700, "Actor1": "JEWISH", "Actor1_Country": null, "Actor2": "NEWS OUTLET", "Actor2_Country": null, "Code": 13, "Class": 1, "Action_Location": "Washington, District of Columbia, United States", "Lat": 38.8951, "Long": -77.0364, "Timestamp": 20181105103000, "Source": "https://www.washingtonpost.com/nation/2018/11/05/i-wanted-him-feel-compassion-jewish-nurse-who-treated-synagogue-shooting-suspect-tells-his-story/"}, {"ID": 800110701, "Actor1": "JEWISH", "Actor1_Country": null, "Actor2": "JEWISH", "Actor2_Country": null, "Code": 42, "Class": 1, "Action_Location": "Washington, District of Columbia, United States", "Lat": 38.8951, "Long": -77.0364, "Timestamp": 20181105103000, "Source": "https://www.washingtonpost.com/nation/2018/11/05/i-wanted-him-feel-compassion-jewish-nurse-who-treated-synagogue-shooting-suspect-tells-his-story/"}, {"ID": 800110702, "Actor1": "JEWISH", "Actor1_Country": null, "Actor2": "PITTSBURGH", "Actor2_Country": "USA", "Code": 193, "Class": 4, "Action_Location": "Washington, District of Columbia, United States", "Lat": 38.8951, "Long": -77.0364, "Timestamp": 20181105103000, "Source": "https://www.washingtonpost.com/nation/2018/11/05/i-wanted-him-feel-compassion-jewish-nurse-who-treated-synagogue-shooting-suspect-tells-his-story/"}, {"ID": 800110705, "Actor1": "HASSAN", "Actor1_Country": "JOR", "Actor2": "IRAN", "Actor2_Country": "IRN", "Code": 10, "Class": 1, "Action_Location": "Tehran, Tehran, Iran", "Lat": 35.75, "Long": 51.5148, "Timestamp": 20181105103000, "Source": "http://www.china.org.cn/world/2018-11/05/content_70364471.htm"}, {"ID": 800110712, "Actor1": "JAPAN", "Actor1_Country": "JPN", "Actor2": "BUSINESS", "Actor2_Country": null, "Code": 20, "Class": 1, "Action_Location": "Japan", "Lat": 36.0, "Long": 138.0, "Timestamp": 20181105103000, "Source": "https://www.afr.com/business/banking-and-finance/westpacs-inhouse-financial-advice-model-questioned-20181104-h17hxq"}, {"ID": 800110713, "Actor1": "JAPANESE", "Actor1_Country": "JPN", "Actor2": "JUDGE", "Actor2_Country": null, "Code": 10, "Class": 1, "Action_Location": "Tokyo, Tokyo, Japan", "Lat": 35.685, "Long": 139.751, "Timestamp": 20181105103000, "Source": "https://www.japantimes.co.jp/?post_type=opinion&p=1564358"}, {"ID": 800110714, "Actor1": "JAPANESE", "Actor1_Country": "JPN", "Actor2": "JUDGE", "Actor2_Country": null, "Code": 10, "Class": 1, "Action_Location": "Tokyo, Tokyo, Japan", "Lat": 35.685, "Long": 139.751, "Timestamp": 20181105103000, "Source": "https://www.japantimes.co.jp/?post_type=opinion&p=1564358"}, {"ID": 800110715, "Actor1": "JAPAN", "Actor1_Country": "JPN", "Actor2": "SOUTH KOREA", "Actor2_Country": "KOR", "Code": 25, "Class": 1, "Action_Location": "Tokyo, Tokyo, Japan", "Lat": 35.685, "Long": 139.751, "Timestamp": 20181105103000, "Source": "https://www.japantimes.co.jp/?post_type=opinion&p=1564358"}, {"ID": 800110716, "Actor1": "JAPAN", "Actor1_Country": "JPN", "Actor2": "SOUTH KOREA", "Actor2_Country": "KOR", "Code": 25, "Class": 1, "Action_Location": "Seoul, Soul-t'ukpyolsi, South Korea", "Lat": 37.5664, "Long": 127.0, "Timestamp": 20181105103000, "Source": "https://www.japantimes.co.jp/?post_type=opinion&p=1564358"}, {"ID": 800110717, "Actor1": "JAPAN", "Actor1_Country": "JPN", "Actor2": "SOUTH KOREA", "Actor2_Country": "KOR", "Code": 25, "Class": 1, "Action_Location": "Seoul, Soul-t'ukpyolsi, South Korea", "Lat": 37.5664, "Long": 127.0, "Timestamp": 20181105103000, "Source": "https://www.japantimes.co.jp/?post_type=opinion&p=1564358"}, {"ID": 800110718, "Actor1": "JAPAN", "Actor1_Country": "JPN", "Actor2": "SOUTH KOREA", "Actor2_Country": "KOR", "Code": 30, "Class": 1, "Action_Location": "Seoul, Soul-t'ukpyolsi, South Korea", "Lat": 37.5664, "Long": 127.0, "Timestamp": 20181105103000, "Source": "https://www.japantimes.co.jp/?post_type=opinion&p=1564358"}, {"ID": 800110719, "Actor1": "JAPAN", "Actor1_Country": "JPN", "Actor2": "SOUTH KOREA", "Actor2_Country": "KOR", "Code": 30, "Class": 1, "Action_Location": "Tokyo, Tokyo, Japan", "Lat": 35.685, "Long": 139.751, "Timestamp": 20181105103000, "Source": "https://www.japantimes.co.jp/?post_type=opinion&p=1564358"}, {"ID": 800110720, "Actor1": "JAPAN", "Actor1_Country": "JPN", "Actor2": "SOUTH KOREA", "Actor2_Country": "KOR", "Code": 30, "Class": 1, "Action_Location": "Tokyo, Tokyo, Japan", "Lat": 35.685, "Long": 139.751, "Timestamp": 20181105103000, "Source": "https://www.japantimes.co.jp/?post_type=opinion&p=1564358"}, {"ID": 800110721, "Actor1": "JAPAN", "Actor1_Country": "JPN", "Actor2": "SOUTH KOREA", "Actor2_Country": "KOR", "Code": 50, "Class": 1, "Action_Location": "Tokyo, Tokyo, Japan", "Lat": 35.685, "Long": 139.751, "Timestamp": 20181105103000, "Source": "https://www.japantimes.co.jp/?post_type=opinion&p=1564358"}, {"ID": 800110722, "Actor1": "JAPAN", "Actor1_Country": "JPN", "Actor2": "SOUTH KOREA", "Actor2_Country": "KOR", "Code": 50, "Class": 1, "Action_Location": "Tokyo, Tokyo, Japan", "Lat": 35.685, "Long": 139.751, "Timestamp": 20181105103000, "Source": "https://www.japantimes.co.jp/?post_type=opinion&p=1564358"}, {"ID": 800110723, "Actor1": "JAPAN", "Actor1_Country": "JPN", "Actor2": "SOUTH KOREA", "Actor2_Country": "KOR", "Code": 50, "Class": 1, "Action_Location": "Tokyo, Tokyo, Japan", "Lat": 35.685, "Long": 139.751, "Timestamp": 20181105103000, "Source": "https://www.japantimes.co.jp/?post_type=opinion&p=1564358"}, {"ID": 800110724, "Actor1": "JAPAN", "Actor1_Country": "JPN", "Actor2": "SOUTH KOREA", "Actor2_Country": "KOR", "Code": 120, "Class": 3, "Action_Location": "Tokyo, Tokyo, Japan", "Lat": 35.685, "Long": 139.751, "Timestamp": 20181105103000, "Source": "https://www.japantimes.co.jp/?post_type=opinion&p=1564358"}, {"ID": 800110725, "Actor1": "JAPAN", "Actor1_Country": "JPN", "Actor2": "SOUTH KOREA", "Actor2_Country": "KOR", "Code": 120, "Class": 3, "Action_Location": "Seoul, Soul-t'ukpyolsi, South Korea", "Lat": 37.5664, "Long": 127.0, "Timestamp": 20181105103000, "Source": "https://www.japantimes.co.jp/?post_type=opinion&p=1564358"}, {"ID": 800110728, "Actor1": "SHINZO ABE", "Actor1_Country": "JPN", "Actor2": "JAPAN", "Actor2_Country": "JPN", "Code": 10, "Class": 1, "Action_Location": "Tokyo, Tokyo, Japan", "Lat": 35.685, "Long": 139.751, "Timestamp": 20181105103000, "Source": "https://www.japantimes.co.jp/?post_type=opinion&p=1564358"}, {"ID": 800110730, "Actor1": "JAPANESE", "Actor1_Country": "JPN", "Actor2": "JUDGE", "Actor2_Country": null, "Code": 10, "Class": 1, "Action_Location": "Tokyo, Tokyo, Japan", "Lat": 35.685, "Long": 139.751, "Timestamp": 20181105103000, "Source": "https://www.japantimes.co.jp/?post_type=opinion&p=1564358"}, {"ID": 800110731, "Actor1": "JAPAN", "Actor1_Country": "JPN", "Actor2": "JUDGE", "Actor2_Country": null, "Code": 10, "Class": 1, "Action_Location": "Tokyo, Tokyo, Japan", "Lat": 35.685, "Long": 139.751, "Timestamp": 20181105103000, "Source": "https://www.japantimes.co.jp/?post_type=opinion&p=1564358"}, {"ID": 800110746, "Actor1": "FEDERAL COURT", "Actor1_Country": null, "Actor2": "AUSTRALIA", "Actor2_Country": "AUS", "Code": 10, "Class": 1, "Action_Location": "Australia", "Lat": -25.0, "Long": 135.0, "Timestamp": 20181105103000, "Source": "https://www.afr.com/business/legal/with-respect-the-federal-court-is-not-above-scrutiny-20181102-h17fxj"}, {"ID": 800110750, "Actor1": "PROSECUTOR", "Actor1_Country": null, "Actor2": "POLICE", "Actor2_Country": null, "Code": 30, "Class": 1, "Action_Location": "Chester County, Pennsylvania, United States", "Lat": 40.1254, "Long": -75.8749, "Timestamp": 20181105103000, "Source": "https://www.chron.com/news/crime/article/Man-accused-of-secretly-filming-women-in-bathrooms-13362884.php"}, {"ID": 800110751, "Actor1": "PROSECUTOR", "Actor1_Country": null, "Actor2": "POLICE", "Actor2_Country": null, "Code": 30, "Class": 1, "Action_Location": "Maryland, United States", "Lat": 39.0724, "Long": -76.7902, "Timestamp": 20181105103000, "Source": "https://www.chron.com/news/crime/article/Man-accused-of-secretly-filming-women-in-bathrooms-13362884.php"}, {"ID": 800110764, "Actor1": "ADVOCATE", "Actor1_Country": null, "Actor2": "AMERICAN", "Actor2_Country": "USA", "Code": 172, "Class": 4, "Action_Location": "Missouri, United States", "Lat": 38.4623, "Long": -92.302, "Timestamp": 20181105103000, "Source": "http://www.kcur.org/post/missouri-stops-more-mentally-incapacitated-people-voting-anywhere-else"}, {"ID": 800110765, "Actor1": "PUBLIC PROSECUTOR", "Actor1_Country": null, "Actor2": "PUBLIC PROSECUTOR", "Actor2_Country": null, "Code": 112, "Class": 3, "Action_Location": "Seoul, Soul-t'ukpyolsi, South Korea", "Lat": 37.5664, "Long": 127.0, "Timestamp": 20181105103000, "Source": "https://www.upi.com/Top_News/World-News/2018/11/05/South-Koreas-leading-figure-in-MeToo-files-compensation-suit/1581541403911/"}, {"ID": 800110790, "Actor1": "SOUTH KOREA", "Actor1_Country": "KOR", "Actor2": "IRAN", "Actor2_Country": "IRN", "Code": 61, "Class": 2, "Action_Location": "Tehran, Tehran, Iran", "Lat": 35.75, "Long": 51.5148, "Timestamp": 20181105103000, "Source": "https://af.reuters.com/article/commoditiesNews/idAFL4N1XG16J"}, {"ID": 800110791, "Actor1": "SOUTH KOREA", "Actor1_Country": "KOR", "Actor2": "IRAN", "Actor2_Country": "IRN", "Code": 163, "Class": 4, "Action_Location": "Chabahar, Sistan va Baluchestan, Iran", "Lat": 25.2919, "Long": 60.643, "Timestamp": 20181105103000, "Source": "http://www.rediff.com/news/report/americas-toughest-ever-sanctions-on-iran-come-into-force/20181105.htm"}, {"ID": 800110792, "Actor1": "SOUTH KOREA", "Actor1_Country": "KOR", "Actor2": "JAPAN", "Actor2_Country": "JPN", "Code": 30, "Class": 1, "Action_Location": "Seoul, Soul-t'ukpyolsi, South Korea", "Lat": 37.5664, "Long": 127.0, "Timestamp": 20181105103000, "Source": "https://www.japantimes.co.jp/?post_type=opinion&p=1564358"}, {"ID": 800110793, "Actor1": "SOUTH KOREA", "Actor1_Country": "KOR", "Actor2": "JAPAN", "Actor2_Country": "JPN", "Code": 30, "Class": 1, "Action_Location": "Tokyo, Tokyo, Japan", "Lat": 35.685, "Long": 139.751, "Timestamp": 20181105103000, "Source": "https://www.japantimes.co.jp/?post_type=opinion&p=1564358"}, {"ID": 800110794, "Actor1": "SOUTH KOREA", "Actor1_Country": "KOR", "Actor2": "JAPAN", "Actor2_Country": "JPN", "Code": 30, "Class": 1, "Action_Location": "Tokyo, Tokyo, Japan", "Lat": 35.685, "Long": 139.751, "Timestamp": 20181105103000, "Source": "https://www.japantimes.co.jp/?post_type=opinion&p=1564358"}, {"ID": 800110795, "Actor1": "SOUTH KOREA", "Actor1_Country": "KOR", "Actor2": "JAPAN", "Actor2_Country": "JPN", "Code": 50, "Class": 1, "Action_Location": "Tokyo, Tokyo, Japan", "Lat": 35.685, "Long": 139.751, "Timestamp": 20181105103000, "Source": "https://www.japantimes.co.jp/?post_type=opinion&p=1564358"}, {"ID": 800110796, "Actor1": "SOUTH KOREA", "Actor1_Country": "KOR", "Actor2": "JAPAN", "Actor2_Country": "JPN", "Code": 50, "Class": 1, "Action_Location": "Tokyo, Tokyo, Japan", "Lat": 35.685, "Long": 139.751, "Timestamp": 20181105103000, "Source": "https://www.japantimes.co.jp/?post_type=opinion&p=1564358"}, {"ID": 800110797, "Actor1": "SOUTH KOREA", "Actor1_Country": "KOR", "Actor2": "JAPAN", "Actor2_Country": "JPN", "Code": 50, "Class": 1, "Action_Location": "Tokyo, Tokyo, Japan", "Lat": 35.685, "Long": 139.751, "Timestamp": 20181105103000, "Source": "https://www.japantimes.co.jp/?post_type=opinion&p=1564358"}, {"ID": 800110798, "Actor1": "SOUTH KOREAN", "Actor1_Country": "KOR", "Actor2": "JUDICIARY", "Actor2_Country": null, "Code": 20, "Class": 1, "Action_Location": "Seoul, Soul-t'ukpyolsi, South Korea", "Lat": 37.5664, "Long": 127.0, "Timestamp": 20181105103000, "Source": "https://www.japantimes.co.jp/?post_type=opinion&p=1564358"}, {"ID": 800110799, "Actor1": "SOUTH KOREA", "Actor1_Country": "KOR", "Actor2": "PUBLIC PROSECUTOR", "Actor2_Country": null, "Code": 112, "Class": 3, "Action_Location": "Seoul, Soul-t'ukpyolsi, South Korea", "Lat": 37.5664, "Long": 127.0, "Timestamp": 20181105103000, "Source": "https://www.upi.com/Top_News/World-News/2018/11/05/South-Koreas-leading-figure-in-MeToo-files-compensation-suit/1581541403911/"}, {"ID": 800110803, "Actor1": "SOUTH KOREA", "Actor1_Country": "KOR", "Actor2": "SOUTH KOREA", "Actor2_Country": "KOR", "Code": 112, "Class": 3, "Action_Location": "Seoul, Soul-t'ukpyolsi, South Korea", "Lat": 37.5664, "Long": 127.0, "Timestamp": 20181105103000, "Source": "https://www.upi.com/Top_News/World-News/2018/11/05/South-Koreas-leading-figure-in-MeToo-files-compensation-suit/1581541403911/"}, {"ID": 800110804, "Actor1": "SOUTH KOREA", "Actor1_Country": "KOR", "Actor2": "INTERNATIONAL COMMUNITY", "Actor2_Country": null, "Code": 30, "Class": 1, "Action_Location": "Seoul, Soul-t'ukpyolsi, South Korea", "Lat": 37.5664, "Long": 127.0, "Timestamp": 20181105103000, "Source": "https://www.japantimes.co.jp/?post_type=opinion&p=1564358"}, {"ID": 800110860, "Actor1": "SRI LANKA", "Actor1_Country": "LKA", "Actor2": "GOVERNMENT", "Actor2_Country": null, "Code": 51, "Class": 1, "Action_Location": "Colombo, Western, Sri Lanka", "Lat": 6.93194, "Long": 79.8478, "Timestamp": 20181105103000, "Source": "https://www.chron.com/news/world/article/Thousands-march-in-support-of-Sri-Lanka-s-new-13362808.php"}, {"ID": 800110861, "Actor1": "SRI LANKA", "Actor1_Country": "LKA", "Actor2": "GOVERNMENT", "Actor2_Country": null, "Code": 51, "Class": 1, "Action_Location": "Negombo, Western, Sri Lanka", "Lat": 7.2083, "Long": 79.8358, "Timestamp": 20181105103000, "Source": "https://www.chron.com/news/world/article/Thousands-march-in-support-of-Sri-Lanka-s-new-13362808.php"}, {"ID": 800110862, "Actor1": "SRI LANKA", "Actor1_Country": "LKA", "Actor2": "GOVERNMENT", "Actor2_Country": null, "Code": 120, "Class": 3, "Action_Location": "Indian Ocean, ,", "Lat": -10.0, "Long": 70.0, "Timestamp": 20181105103000, "Source": "https://www.chron.com/news/world/article/Thousands-march-in-support-of-Sri-Lanka-s-new-13362808.php"}, {"ID": 800110863, "Actor1": "SRI LANKA", "Actor1_Country": "LKA", "Actor2": "CABINET", "Actor2_Country": null, "Code": 186, "Class": 4, "Action_Location": "Colombo, Western, Sri Lanka", "Lat": 6.93194, "Long": 79.8478, "Timestamp": 20181105103000, "Source": "https://www.chron.com/news/world/article/Thousands-march-in-support-of-Sri-Lanka-s-new-13362808.php"}, {"ID": 800110864, "Actor1": "SRI LANKA", "Actor1_Country": "LKA", "Actor2": "CABINET", "Actor2_Country": null, "Code": 186, "Class": 4, "Action_Location": "Negombo, Western, Sri Lanka", "Lat": 7.2083, "Long": 79.8358, "Timestamp": 20181105103000, "Source": "https://www.chron.com/news/world/article/Thousands-march-in-support-of-Sri-Lanka-s-new-13362808.php"}, {"ID": 800110865, "Actor1": "SRI LANKA", "Actor1_Country": "LKA", "Actor2": "MILITARY PERSONNEL", "Actor2_Country": null, "Code": 112, "Class": 3, "Action_Location": "Colombo, Western, Sri Lanka", "Lat": 6.93194, "Long": 79.8478, "Timestamp": 20181105103000, "Source": "https://www.chron.com/news/world/article/Thousands-march-in-support-of-Sri-Lanka-s-new-13362808.php"}, {"ID": 800110866, "Actor1": "SRI LANKA", "Actor1_Country": "LKA", "Actor2": "MILITARY PERSONNEL", "Actor2_Country": null, "Code": 112, "Class": 3, "Action_Location": "Negombo, Western, Sri Lanka", "Lat": 7.2083, "Long": 79.8358, "Timestamp": 20181105103000, "Source": "https://www.chron.com/news/world/article/Thousands-march-in-support-of-Sri-Lanka-s-new-13362808.php"}, {"ID": 800110888, "Actor1": "MEDIA", "Actor1_Country": null, "Actor2": "POLICE", "Actor2_Country": null, "Code": 130, "Class": 3, "Action_Location": "United Kingdom", "Lat": 54.0, "Long": -4.0, "Timestamp": 20181105103000, "Source": "https://www.khaleejtimes.com/international/motorists-alert-over-dh11000-fine-for-this-offence"}, {"ID": 800110892, "Actor1": "JOURNALIST", "Actor1_Country": null, "Actor2": "ABUJA", "Actor2_Country": "NGA", "Code": 46, "Class": 1, "Action_Location": "Ogun State, Ogun, Nigeria", "Lat": 7.0, "Long": 3.58333, "Timestamp": 20181105103000, "Source": "https://www.onlinenigeria.com/site/stories/652075-okorocha-yari-amosun-suffering-from-change-trauma-oshiomhole.html"}, {"ID": 800110894, "Actor1": "SPOKESMAN", "Actor1_Country": null, "Actor2": "RUSSIA", "Actor2_Country": "RUS", "Code": 14, "Class": 1, "Action_Location": "Kremlin, Moskva, Russia", "Lat": 55.7522, "Long": 37.6156, "Timestamp": 20181105103000, "Source": "https://www.tasnimnews.com/en/news/2018/11/05/1869386/kim-jong-un-may-visit-russia-in-november-seoul-s-ambassador-says"}, {"ID": 800110897, "Actor1": "MEDIA", "Actor1_Country": null, "Actor2": "OREGON", "Actor2_Country": "USA", "Code": 110, "Class": 3, "Action_Location": "Oregon, United States", "Lat": 44.5672, "Long": -122.127, "Timestamp": 20181105103000, "Source": "https://pamplinmedia.com/pt/9-news/411179-311331-counties-take-precauctions-as-ballot-security-tightens"}, {"ID": 800110898, "Actor1": "MEDIA", "Actor1_Country": null, "Actor2": "OREGON", "Actor2_Country": "USA", "Code": 10, "Class": 1, "Action_Location": "Oregon, United States", "Lat": 44.5672, "Long": -122.127, "Timestamp": 20181105103000, "Source": "https://pamplinmedia.com/pt/9-news/411179-311331-counties-take-precauctions-as-ballot-security-tightens"}, {"ID": 800110900, "Actor1": "VERACRUZ", "Actor1_Country": "MEX", "Actor2": "MIGRANT", "Actor2_Country": null, "Code": 75, "Class": 2, "Action_Location": "Mexico", "Lat": 23.0, "Long": -102.0, "Timestamp": 20181105103000, "Source": "https://www.pressandjournal.co.uk/news/world/1602126/migrants-hobbled-by-blisters-as-caravan-continues-towards-us-border/"}, {"ID": 800110902, "Actor1": "MEXICO", "Actor1_Country": "MEX", "Actor2": "UNITED STATES", "Actor2_Country": "USA", "Code": 110, "Class": 3, "Action_Location": "Mexico", "Lat": 23.0, "Long": -102.0, "Timestamp": 20181105103000, "Source": "https://www.courierpostonline.com/story/news/politics/elections/2018/11/05/healthcare-worries-voters-midterm-elections-not-trump-migrant-caravan-talk/1843326002/"}, {"ID": 800110904, "Actor1": "ARMY", "Actor1_Country": null, "Actor2": "AFGHAN", "Actor2_Country": "AFG", "Code": 180, "Class": 4, "Action_Location": "Kabul, Kabol, Afghanistan", "Lat": 34.5167, "Long": 69.1833, "Timestamp": 20181105103000, "Source": "https://www.rferl.org/a/afghanistan-13-killed-taliban-attack-ghazni-checkpoint/29583225.html"}, {"ID": 800110906, "Actor1": "CARRIER", "Actor1_Country": null, "Actor2": "CANADA", "Actor2_Country": "CAN", "Code": 51, "Class": 1, "Action_Location": "Toronto, Ontario, Canada", "Lat": 43.6667, "Long": -79.4167, "Timestamp": 20181105103000, "Source": "https://www.khaleejtimes.com/dnata-doubles-operations-in-canada"}, {"ID": 800110908, "Actor1": "MILITARY", "Actor1_Country": null, "Actor2": "CHRISTIAN", "Actor2_Country": null, "Code": 81, "Class": 2, "Action_Location": "United States", "Lat": 39.828175, "Long": -98.5795, "Timestamp": 20181105103000, "Source": "https://www.rferl.org/a/twitter-suspends-account-rizvi-radical-cleric-for-threats-in-blasphemy-case/29583204.html"}, {"ID": 800110916, "Actor1": "MYANMAR", "Actor1_Country": "MMR", "Actor2": "BANGLADESH", "Actor2_Country": "BGD", "Code": 36, "Class": 1, "Action_Location": "Bangladesh", "Lat": 24.0, "Long": 90.0, "Timestamp": 20181105103000, "Source": "http://www.china.org.cn/world/Off_the_Wire/2018-11/05/content_70361150.htm"}, {"ID": 800110917, "Actor1": "MYANMAR", "Actor1_Country": "MMR", "Actor2": "BANGLADESH", "Actor2_Country": "BGD", "Code": 80, "Class": 2, "Action_Location": "Bangladesh", "Lat": 24.0, "Long": 90.0, "Timestamp": 20181105103000, "Source": "http://www.china.org.cn/world/Off_the_Wire/2018-11/05/content_70361150.htm"}, {"ID": 800110919, "Actor1": "MYANMAR", "Actor1_Country": "MMR", "Actor2": "UNITED NATIONS", "Actor2_Country": null, "Code": 57, "Class": 1, "Action_Location": "Bangladesh", "Lat": 24.0, "Long": 90.0, "Timestamp": 20181105103000, "Source": "http://www.china.org.cn/world/Off_the_Wire/2018-11/05/content_70361150.htm"}, {"ID": 800110920, "Actor1": "RAKHINE STATE", "Actor1_Country": "MMR", "Actor2": "UNITED NATIONS", "Actor2_Country": null, "Code": 160, "Class": 4, "Action_Location": "Bangladesh", "Lat": 24.0, "Long": 90.0, "Timestamp": 20181105103000, "Source": "http://www.china.org.cn/world/Off_the_Wire/2018-11/05/content_70361150.htm"}, {"ID": 800110921, "Actor1": "RAKHINE STATE", "Actor1_Country": "MMR", "Actor2": "MYANMAR", "Actor2_Country": "MMR", "Code": 70, "Class": 2, "Action_Location": "Bangladesh", "Lat": 24.0, "Long": 90.0, "Timestamp": 20181105103000, "Source": "http://www.china.org.cn/world/Off_the_Wire/2018-11/05/content_70361150.htm"}, {"ID": 800110922, "Actor1": "YANGON", "Actor1_Country": "MMR", "Actor2": "DISPLACED PEOPLE", "Actor2_Country": null, "Code": 36, "Class": 1, "Action_Location": "Bangladesh", "Lat": 24.0, "Long": 90.0, "Timestamp": 20181105103000, "Source": "http://www.china.org.cn/world/Off_the_Wire/2018-11/05/content_70361150.htm"}, {"ID": 800110923, "Actor1": "YANGON", "Actor1_Country": "MMR", "Actor2": "RAKHINE", "Actor2_Country": null, "Code": 10, "Class": 1, "Action_Location": "Bangladesh", "Lat": 24.0, "Long": 90.0, "Timestamp": 20181105103000, "Source": "http://www.china.org.cn/world/Off_the_Wire/2018-11/05/content_70361150.htm"}, {"ID": 800110924, "Actor1": "MYANMAR", "Actor1_Country": "MMR", "Actor2": "RAKHINE", "Actor2_Country": null, "Code": 36, "Class": 1, "Action_Location": "Yangon, Yangon, Myanmar", "Lat": 16.8053, "Long": 96.1561, "Timestamp": 20181105103000, "Source": "http://www.china.org.cn/world/Off_the_Wire/2018-11/05/content_70361150.htm"}, {"ID": 800110929, "Actor1": "SYNGENTA", "Actor1_Country": null, "Actor2": "CHIEF EXECUTIVE", "Actor2_Country": null, "Code": 46, "Class": 1, "Action_Location": "United States", "Lat": 39.828175, "Long": -98.5795, "Timestamp": 20181105103000, "Source": "https://www.businesswire.com/news/home/20181105005344/en/Syngenta-Adds-New-Directors-Board"}, {"ID": 800110945, "Actor1": "CITIGROUP", "Actor1_Country": "USA", "Actor2": "SWITZERLAND", "Actor2_Country": "CHE", "Code": 46, "Class": 1, "Action_Location": "Frankfurt, Brandenburg, Germany", "Lat": 52.35, "Long": 14.55, "Timestamp": 20181105103000, "Source": "https://www.businesswire.com/news/home/20181105005259/en/Houlihan-Lokey-Continues-Expansion-Global-Industrials-Group"}, {"ID": 800110946, "Actor1": "CITIGROUP", "Actor1_Country": "USA", "Actor2": "SWITZERLAND", "Actor2_Country": "CHE", "Code": 46, "Class": 1, "Action_Location": "Frankfurt, Brandenburg, Germany", "Lat": 52.35, "Long": 14.55, "Timestamp": 20181105103000, "Source": "https://www.businesswire.com/news/home/20181105005259/en/Houlihan-Lokey-Continues-Expansion-Global-Industrials-Group"}, {"ID": 800110947, "Actor1": "CITIGROUP", "Actor1_Country": "USA", "Actor2": "GERMANY", "Actor2_Country": "DEU", "Code": 46, "Class": 1, "Action_Location": "Frankfurt, Brandenburg, Germany", "Lat": 52.35, "Long": 14.55, "Timestamp": 20181105103000, "Source": "https://www.businesswire.com/news/home/20181105005259/en/Houlihan-Lokey-Continues-Expansion-Global-Industrials-Group"}, {"ID": 800110960, "Actor1": "ISLAMIC", "Actor1_Country": null, "Actor2": "MILITARY", "Actor2_Country": null, "Code": 150, "Class": 4, "Action_Location": "Velayat, Bushehr, Iran", "Lat": 28.0553, "Long": 52.0542, "Timestamp": 20181105103000, "Source": "https://www.iranherald.com/news/258250148/iran-stages-air-defense-exercise"}, {"ID": 800110968, "Actor1": "ISLAMIC", "Actor1_Country": null, "Actor2": "GUNMEN", "Actor2_Country": null, "Code": 190, "Class": 4, "Action_Location": "Minya, Al Minya, Egypt", "Lat": 28.1099, "Long": 30.7503, "Timestamp": 20181105103000, "Source": "https://www.iafrica.com/egypt-says-19-militants-killed-in-security-operation-after-attack-on-christians/"}, {"ID": 800111008, "Actor1": "NIGERIAN", "Actor1_Country": "NGA", "Actor2": "WORKER", "Actor2_Country": null, "Code": 138, "Class": 3, "Action_Location": "Nigeria", "Lat": 10.0, "Long": 8.0, "Timestamp": 20181105103000, "Source": "http://dailypost.ng/2018/11/05/new-minimum-wage-nnpc-speaks-fuel-scarcity-strike-looms/"}, {"ID": 800111010, "Actor1": "ABUJA", "Actor1_Country": "NGA", "Actor2": "JOURNALIST", "Actor2_Country": null, "Code": 46, "Class": 1, "Action_Location": "Ogun State, Ogun, Nigeria", "Lat": 7.0, "Long": 3.58333, "Timestamp": 20181105103000, "Source": "https://www.onlinenigeria.com/site/stories/652075-okorocha-yari-amosun-suffering-from-change-trauma-oshiomhole.html"}, {"ID": 800111025, "Actor1": "NORTH AMERICA", "Actor1_Country": "NMR", "Actor2": "EUROPE", "Actor2_Country": "EUR", "Code": 40, "Class": 1, "Action_Location": "United States", "Lat": 39.828175, "Long": -98.5795, "Timestamp": 20181105103000, "Source": "https://www.thechronicleherald.ca/news/local/mit-expert-carbon-neutral-biomass-accounting-fraud-256464/"}, {"ID": 800111032, "Actor1": "NORWEGIAN", "Actor1_Country": "NOR", "Actor2": "IRAN", "Actor2_Country": "IRN", "Code": 16, "Class": 1, "Action_Location": "Ahvaz, Khuzestan, Iran", "Lat": 31.3203, "Long": 48.6693, "Timestamp": 20181105103000, "Source": "https://www.rferl.org/a/iran-blames-israel-for-alleged-denmark-murder-plot/29583234.html"}, {"ID": 800111033, "Actor1": "NORWEGIAN", "Actor1_Country": "NOR", "Actor2": "IRANIAN", "Actor2_Country": "IRN", "Code": 16, "Class": 1, "Action_Location": "Ahvaz, Khuzestan, Iran", "Lat": 31.3203, "Long": 48.6693, "Timestamp": 20181105103000, "Source": "https://www.rferl.org/a/iran-blames-israel-for-alleged-denmark-murder-plot/29583234.html"}, {"ID": 800111036, "Actor1": "WELLINGTON", "Actor1_Country": "NZL", "Actor2": "MINIST OF DEFENCE", "Actor2_Country": null, "Code": 46, "Class": 1, "Action_Location": "Wellington, New Zealand (general), New Zealand", "Lat": -41.3, "Long": 174.783, "Timestamp": 20181105103000, "Source": "http://www.voxy.co.nz/politics/5/325179"}, {"ID": 800111037, "Actor1": "NEW ZEALAND", "Actor1_Country": "NZL", "Actor2": "VIET NAM", "Actor2_Country": "VNM", "Code": 30, "Class": 1, "Action_Location": "Wellington, New Zealand (general), New Zealand", "Lat": -41.3, "Long": 174.783, "Timestamp": 20181105103000, "Source": "http://www.voxy.co.nz/politics/5/325179"}, {"ID": 800111038, "Actor1": "NEW ZEALAND", "Actor1_Country": "NZL", "Actor2": "VIET NAM", "Actor2_Country": "VNM", "Code": 46, "Class": 1, "Action_Location": "Wellington, New Zealand (general), New Zealand", "Lat": -41.3, "Long": 174.783, "Timestamp": 20181105103000, "Source": "http://www.voxy.co.nz/politics/5/325179"}, {"ID": 800111052, "Actor1": "PAKISTAN", "Actor1_Country": "PAK", "Actor2": "PAKISTAN", "Actor2_Country": "PAK", "Code": 841, "Class": 2, "Action_Location": "Islamabad, Islamabad, Pakistan", "Lat": 33.7, "Long": 73.1667, "Timestamp": 20181105103000, "Source": "http://dailytimes.com.pk/318749/no-document-to-prove-nawaz-made-flagship-investments-wajid-zia-tells-ac-as-cross-examination-enters-final-stage/"}, {"ID": 800111092, "Actor1": "NORTH KOREA", "Actor1_Country": "PRK", "Actor2": "NEW YORK", "Actor2_Country": "USA", "Code": 36, "Class": 1, "Action_Location": "Pohang, Kyongsang-bukto, South Korea", "Lat": 36.0322, "Long": 129.365, "Timestamp": 20181105103000, "Source": "https://www.reuters.com/article/usa-southkorea-military/us-south-korea-marines-hold-small-scale-exercise-ahead-of-north-korea-talks-idUSKCN1NA09D"}, {"ID": 800111127, "Actor1": "DISPLACED PEOPLE", "Actor1_Country": null, "Actor2": "YANGON", "Actor2_Country": "MMR", "Code": 36, "Class": 1, "Action_Location": "Yangon, Yangon, Myanmar", "Lat": 16.8053, "Long": 96.1561, "Timestamp": 20181105103000, "Source": "http://www.china.org.cn/world/Off_the_Wire/2018-11/05/content_70361150.htm"}, {"ID": 800111134, "Actor1": "RELIGION", "Actor1_Country": null, "Actor2": "JEWISH", "Actor2_Country": null, "Code": 120, "Class": 3, "Action_Location": "Washington, District of Columbia, United States", "Lat": 38.8951, "Long": -77.0364, "Timestamp": 20181105103000, "Source": "https://www.washingtonpost.com/nation/2018/11/05/i-wanted-him-feel-compassion-jewish-nurse-who-treated-synagogue-shooting-suspect-tells-his-story/"}, {"ID": 800111189, "Actor1": "SAUDI ARABIA", "Actor1_Country": "SAU", "Actor2": "PRESIDENT", "Actor2_Country": null, "Code": 43, "Class": 1, "Action_Location": "Saudi Arabia", "Lat": 25.0, "Long": 45.0, "Timestamp": 20181105103000, "Source": "https://themuslimtimes.info/2018/11/05/saudi-arabia-told-the-un-top-human-rights-body-that-it-was-investigating-the-murder-of-journalist-jamal-khashoggi/"}, {"ID": 800111191, "Actor1": "SAUDI", "Actor1_Country": "SAU", "Actor2": "KINGDOM", "Actor2_Country": null, "Code": 71, "Class": 2, "Action_Location": "Tokyo, Tokyo, Japan", "Lat": 35.685, "Long": 139.751, "Timestamp": 20181105103000, "Source": "https://www.reuters.com/article/us-softbank-group-strategy-results/softbanks-son-defends-saudi-ties-as-kingdom-backed-fund-boosts-profit-idUSKCN1NA0AV"}, {"ID": 800111192, "Actor1": "SAUDI", "Actor1_Country": "SAU", "Actor2": "CONSULATE", "Actor2_Country": null, "Code": 90, "Class": 2, "Action_Location": "Ankara, Ankara, Turkey", "Lat": 39.9272, "Long": 32.8644, "Timestamp": 20181105103000, "Source": "https://www.timesnownews.com/international/article/jamal-khashoggi-murder-two-saudis-sent-to-istanbul-to-cover-up-says-turkish-official/309732"}, {"ID": 800111197, "Actor1": "SAUDI ARABIA", "Actor1_Country": "SAU", "Actor2": "THE UN", "Actor2_Country": null, "Code": 13, "Class": 1, "Action_Location": "Saudi Arabia", "Lat": 25.0, "Long": 45.0, "Timestamp": 20181105103000, "Source": "https://themuslimtimes.info/2018/11/05/saudi-arabia-told-the-un-top-human-rights-body-that-it-was-investigating-the-murder-of-journalist-jamal-khashoggi/"}, {"ID": 800111199, "Actor1": "SAUDI ARABIA", "Actor1_Country": "SAU", "Actor2": "SAUDI ARABIA", "Actor2_Country": "SAU", "Code": 12, "Class": 1, "Action_Location": "Saudi Arabia", "Lat": 25.0, "Long": 45.0, "Timestamp": 20181105103000, "Source": "https://www.cnbc.com/2018/11/05/softbank-ceo-masayoshi-son-breaks-silence-on-death-of-saudi-journalist.html"}, {"ID": 800111200, "Actor1": "SAUDI", "Actor1_Country": "SAU", "Actor2": "SAUDI", "Actor2_Country": "SAU", "Code": 190, "Class": 4, "Action_Location": "Riyadh, Ar Riya?, Saudi Arabia", "Lat": 24.6408, "Long": 46.7728, "Timestamp": 20181105103000, "Source": "https://www.mycentraljersey.com/story/news/world/2018/11/05/iran-united-states-president-donald-trump-nuclear-deal-foreign-minister-mohammad-javad-zarif/1859375002/"}, {"ID": 800111201, "Actor1": "SAUDI", "Actor1_Country": "SAU", "Actor2": "SAUDI ARABIA", "Actor2_Country": "SAU", "Code": 190, "Class": 4, "Action_Location": "Riyadh, Ar Riya?, Saudi Arabia", "Lat": 24.6408, "Long": 46.7728, "Timestamp": 20181105103000, "Source": "https://www.mycentraljersey.com/story/news/world/2018/11/05/iran-united-states-president-donald-trump-nuclear-deal-foreign-minister-mohammad-javad-zarif/1859375002/"}, {"ID": 800111202, "Actor1": "SAUDI ARABIA", "Actor1_Country": "SAU", "Actor2": "ISTANBUL", "Actor2_Country": "TUR", "Code": 190, "Class": 4, "Action_Location": "Ankara, Ankara, Turkey", "Lat": 39.9272, "Long": 32.8644, "Timestamp": 20181105103000, "Source": "https://www.timesnownews.com/international/article/jamal-khashoggi-murder-two-saudis-sent-to-istanbul-to-cover-up-says-turkish-official/309732"}, {"ID": 800111231, "Actor1": "SWEDEN", "Actor1_Country": "SWE", "Actor2": "DENMARK", "Actor2_Country": "DNK", "Code": 174, "Class": 4, "Action_Location": "Ahvaz, Khuzestan, Iran", "Lat": 31.3203, "Long": 48.6693, "Timestamp": 20181105103000, "Source": "https://www.rferl.org/a/iran-blames-israel-for-alleged-denmark-murder-plot/29583234.html"}, {"ID": 800111232, "Actor1": "SWEDEN", "Actor1_Country": "SWE", "Actor2": "DENMARK", "Actor2_Country": "DNK", "Code": 174, "Class": 4, "Action_Location": "Denmark", "Lat": 56.0, "Long": 10.0, "Timestamp": 20181105103000, "Source": "https://www.rferl.org/a/iran-blames-israel-for-alleged-denmark-murder-plot/29583234.html"}, {"ID": 800111233, "Actor1": "SWEDEN", "Actor1_Country": "SWE", "Actor2": "DENMARK", "Actor2_Country": "DNK", "Code": 174, "Class": 4, "Action_Location": "Denmark", "Lat": 56.0, "Long": 10.0, "Timestamp": 20181105103000, "Source": "https://www.rferl.org/a/iran-blames-israel-for-alleged-denmark-murder-plot/29583234.html"}, {"ID": 800111234, "Actor1": "SWEDEN", "Actor1_Country": "SWE", "Actor2": "NORWEGIAN", "Actor2_Country": "NOR", "Code": 173, "Class": 4, "Action_Location": "Denmark", "Lat": 56.0, "Long": 10.0, "Timestamp": 20181105103000, "Source": "https://www.rferl.org/a/iran-blames-israel-for-alleged-denmark-murder-plot/29583234.html"}, {"ID": 800111235, "Actor1": "SWEDEN", "Actor1_Country": "SWE", "Actor2": "NORWEGIAN", "Actor2_Country": "NOR", "Code": 173, "Class": 4, "Action_Location": "Norway", "Lat": 62.0, "Long": 10.0, "Timestamp": 20181105103000, "Source": "https://www.rferl.org/a/iran-blames-israel-for-alleged-denmark-murder-plot/29583234.html"}, {"ID": 800111236, "Actor1": "SWEDEN", "Actor1_Country": "SWE", "Actor2": "NORWAY", "Actor2_Country": "NOR", "Code": 173, "Class": 4, "Action_Location": "Israel", "Lat": 31.5, "Long": 34.75, "Timestamp": 20181105103000, "Source": "https://www.rferl.org/a/iran-blames-israel-for-alleged-denmark-murder-plot/29583234.html"}, {"ID": 800111237, "Actor1": "SWEDEN", "Actor1_Country": "SWE", "Actor2": "NORWAY", "Actor2_Country": "NOR", "Code": 173, "Class": 4, "Action_Location": "Israel", "Lat": 31.5, "Long": 34.75, "Timestamp": 20181105103000, "Source": "https://www.rferl.org/a/iran-blames-israel-for-alleged-denmark-murder-plot/29583234.html"}, {"ID": 800111264, "Actor1": "TURKEY", "Actor1_Country": "TUR", "Actor2": "PRINCE", "Actor2_Country": null, "Code": 111, "Class": 3, "Action_Location": "Ankara, Ankara, Turkey", "Lat": 39.9272, "Long": 32.8644, "Timestamp": 20181105103000, "Source": "https://www.timesnownews.com/international/article/jamal-khashoggi-murder-two-saudis-sent-to-istanbul-to-cover-up-says-turkish-official/309732"}, {"ID": 800111265, "Actor1": "TURKISH", "Actor1_Country": "TUR", "Actor2": "KINGDOM", "Actor2_Country": null, "Code": 10, "Class": 1, "Action_Location": "Istanbul, Istanbul, Turkey", "Lat": 41.0186, "Long": 28.9647, "Timestamp": 20181105103000, "Source": "https://www.timesnownews.com/international/article/jamal-khashoggi-murder-two-saudis-sent-to-istanbul-to-cover-up-says-turkish-official/309732"}, {"ID": 800111267, "Actor1": "ISTANBUL", "Actor1_Country": "TUR", "Actor2": "KINGDOM", "Actor2_Country": null, "Code": 90, "Class": 2, "Action_Location": "Istanbul, Istanbul, Turkey", "Lat": 41.0186, "Long": 28.9647, "Timestamp": 20181105103000, "Source": "https://www.timesnownews.com/international/article/jamal-khashoggi-murder-two-saudis-sent-to-istanbul-to-cover-up-says-turkish-official/309732"}, {"ID": 800111268, "Actor1": "TURKEY", "Actor1_Country": "TUR", "Actor2": "SAUDI ARABIA", "Actor2_Country": "SAU", "Code": 190, "Class": 4, "Action_Location": "Istanbul, Istanbul, Turkey", "Lat": 41.0186, "Long": 28.9647, "Timestamp": 20181105103000, "Source": "https://www.timesnownews.com/international/article/jamal-khashoggi-murder-two-saudis-sent-to-istanbul-to-cover-up-says-turkish-official/309732"}, {"ID": 800111278, "Actor1": "GUNMAN", "Actor1_Country": null, "Actor2": "UNITED STATES", "Actor2_Country": "USA", "Code": 190, "Class": 4, "Action_Location": "First Baptist Church, Texas, United States", "Lat": 29.3941, "Long": -94.9155, "Timestamp": 20181105103000, "Source": "https://www.onenewsnow.com/church/2018/11/05/prayer-prepared-church-to-deal-with-tragedy"}, {"ID": 800111285, "Actor1": "UKRAINE", "Actor1_Country": "UKR", "Actor2": "UZBEK", "Actor2_Country": "UZB", "Code": 36, "Class": 1, "Action_Location": "Ukraine", "Lat": 49.0, "Long": 32.0, "Timestamp": 20181105103000, "Source": "https://stopru.com/one-more-country-is-preparing-sanctions-against-ukraine/16377/"}, {"ID": 800111286, "Actor1": "UKRAINE", "Actor1_Country": "UKR", "Actor2": "UZBEK", "Actor2_Country": "UZB", "Code": 36, "Class": 1, "Action_Location": "Uzbekistan", "Lat": 41.707542, "Long": 63.84911, "Timestamp": 20181105103000, "Source": "https://stopru.com/one-more-country-is-preparing-sanctions-against-ukraine/16377/"}, {"ID": 800111392, "Actor1": "UNITED STATES", "Actor1_Country": "USA", "Actor2": "POLICE", "Actor2_Country": null, "Code": 16, "Class": 1, "Action_Location": "Washington, District of Columbia, United States", "Lat": 38.8951, "Long": -77.0364, "Timestamp": 20181105103000, "Source": "https://www.washingtonpost.com/nation/2018/11/05/i-wanted-him-feel-compassion-jewish-nurse-who-treated-synagogue-shooting-suspect-tells-his-story/"}, {"ID": 800111395, "Actor1": "UNITED STATES", "Actor1_Country": "USA", "Actor2": "POLICE", "Actor2_Country": null, "Code": 173, "Class": 4, "Action_Location": "Washington, District of Columbia, United States", "Lat": 38.8951, "Long": -77.0364, "Timestamp": 20181105103000, "Source": "https://www.washingtonpost.com/nation/2018/11/05/i-wanted-him-feel-compassion-jewish-nurse-who-treated-synagogue-shooting-suspect-tells-his-story/"}, {"ID": 800111397, "Actor1": "UNITED STATES", "Actor1_Country": "USA", "Actor2": "VOTER", "Actor2_Country": null, "Code": 10, "Class": 1, "Action_Location": "Oregon, United States", "Lat": 44.5672, "Long": -122.127, "Timestamp": 20181105103000, "Source": "https://pamplinmedia.com/pt/9-news/411179-311331-counties-take-precauctions-as-ballot-security-tightens"}, {"ID": 800111398, "Actor1": "CALIFORNIA", "Actor1_Country": "USA", "Actor2": "VOTER", "Actor2_Country": null, "Code": 10, "Class": 1, "Action_Location": "Oregon, United States", "Lat": 44.5672, "Long": -122.127, "Timestamp": 20181105103000, "Source": "https://pamplinmedia.com/pt/9-news/411179-311331-counties-take-precauctions-as-ballot-security-tightens"}, {"ID": 800111399, "Actor1": "UNITED STATES", "Actor1_Country": "USA", "Actor2": "VOTER", "Actor2_Country": null, "Code": 12, "Class": 1, "Action_Location": "Johnson County, Kansas, United States", "Lat": 38.8667, "Long": -94.8669, "Timestamp": 20181105103000, "Source": "http://www.kbia.org/post/johnson-county-promises-election-results-wont-be-late-time"}, {"ID": 800111400, "Actor1": "UNITED STATES", "Actor1_Country": "USA", "Actor2": "VOTER", "Actor2_Country": null, "Code": 12, "Class": 1, "Action_Location": "Kansas, United States", "Lat": 38.5111, "Long": -96.8005, "Timestamp": 20181105103000, "Source": "http://www.kbia.org/post/johnson-county-promises-election-results-wont-be-late-time"}, {"ID": 800111401, "Actor1": "UNITED STATES", "Actor1_Country": "USA", "Actor2": "RESIDENTS", "Actor2_Country": null, "Code": 13, "Class": 1, "Action_Location": "Maricopa County, Arizona, United States", "Lat": 33.5, "Long": -112.501, "Timestamp": 20181105103000, "Source": "http://www.wvlkam.com/news/11-year-old-fatally-shot-grandmother-then-himself-grandfather-tells-police/"}, {"ID": 800111402, "Actor1": "TENNESSEE", "Actor1_Country": "USA", "Actor2": "VOTER", "Actor2_Country": null, "Code": 14, "Class": 1, "Action_Location": "Tennessee, United States", "Lat": 35.7449, "Long": -86.7489, "Timestamp": 20181105103000, "Source": "https://www.nytimes.com/2018/11/05/opinion/a-slow-motion-coup-in-tennessee.html"}, {"ID": 800111405, "Actor1": "PENNSYLVANIA", "Actor1_Country": "USA", "Actor2": "VOTER", "Actor2_Country": null, "Code": 20, "Class": 1, "Action_Location": "Pennsylvania, United States", "Lat": 40.5773, "Long": -77.264, "Timestamp": 20181105103000, "Source": "https://www.dailyitem.com/news/local_news/know-you-election-rights-and-remedies/article_71b7e6e3-3878-5bf7-957c-79c90cdd0fb9.html"}, {"ID": 800111406, "Actor1": "UNITED STATES", "Actor1_Country": "USA", "Actor2": "VOTER", "Actor2_Country": null, "Code": 30, "Class": 1, "Action_Location": "Oregon, United States", "Lat": 44.5672, "Long": -122.127, "Timestamp": 20181105103000, "Source": "https://pamplinmedia.com/pt/9-news/411179-311331-counties-take-precauctions-as-ballot-security-tightens"}, {"ID": 800111408, "Actor1": "UNITED STATES", "Actor1_Country": "USA", "Actor2": "COMMUNITY", "Actor2_Country": null, "Code": 42, "Class": 1, "Action_Location": "Florida, United States", "Lat": 27.8333, "Long": -81.717, "Timestamp": 20181105103000, "Source": "https://www.rollcall.com/news/politics/florida-democratic-women"}, {"ID": 800111411, "Actor1": "UNITED STATES", "Actor1_Country": "USA", "Actor2": "VOTER", "Actor2_Country": null, "Code": 90, "Class": 2, "Action_Location": "Oregon, United States", "Lat": 44.5672, "Long": -122.127, "Timestamp": 20181105103000, "Source": "https://pamplinmedia.com/pt/9-news/411179-311331-counties-take-precauctions-as-ballot-security-tightens"}, {"ID": 800111412, "Actor1": "CALIFORNIA", "Actor1_Country": "USA", "Actor2": "VOTER", "Actor2_Country": null, "Code": 90, "Class": 2, "Action_Location": "Oregon, United States", "Lat": 44.5672, "Long": -122.127, "Timestamp": 20181105103000, "Source": "https://pamplinmedia.com/pt/9-news/411179-311331-counties-take-precauctions-as-ballot-security-tightens"}, {"ID": 800111417, "Actor1": "UNITED STATES", "Actor1_Country": "USA", "Actor2": "VOTER", "Actor2_Country": null, "Code": 112, "Class": 3, "Action_Location": "Oregon, United States", "Lat": 44.5672, "Long": -122.127, "Timestamp": 20181105103000, "Source": "https://pamplinmedia.com/pt/9-news/411179-311331-counties-take-precauctions-as-ballot-security-tightens"}, {"ID": 800111419, "Actor1": "TEXAS", "Actor1_Country": "USA", "Actor2": "VOTER", "Actor2_Country": null, "Code": 190, "Class": 4, "Action_Location": "Houston, Texas, United States", "Lat": 29.7633, "Long": -95.3633, "Timestamp": 20181105103000, "Source": "http://en.rfi.fr/americas/20181105-texas-democrats-struggle-mobilise-voters-key-orourke-cruz-battle"}, {"ID": 800111420, "Actor1": "TEXAS", "Actor1_Country": "USA", "Actor2": "VOTER", "Actor2_Country": null, "Code": 190, "Class": 4, "Action_Location": "Texas, United States", "Lat": 31.106, "Long": -97.6475, "Timestamp": 20181105103000, "Source": "http://en.rfi.fr/americas/20181105-texas-democrats-struggle-mobilise-voters-key-orourke-cruz-battle"}, {"ID": 800111427, "Actor1": "PENNSYLVANIA", "Actor1_Country": "USA", "Actor2": "UNIVERSITY", "Actor2_Country": null, "Code": 112, "Class": 3, "Action_Location": "Chester County, Pennsylvania, United States", "Lat": 40.1254, "Long": -75.8749, "Timestamp": 20181105103000, "Source": "https://www.chron.com/news/crime/article/Man-accused-of-secretly-filming-women-in-bathrooms-13362884.php"}, {"ID": 800111428, "Actor1": "AMERICAN", "Actor1_Country": "USA", "Actor2": "RETIRED", "Actor2_Country": null, "Code": 22, "Class": 1, "Action_Location": "Ocean County, New Jersey, United States", "Lat": 39.9001, "Long": -74.2163, "Timestamp": 20181105103000, "Source": "https://www.courierpostonline.com/story/news/politics/elections/2018/11/05/healthcare-worries-voters-midterm-elections-not-trump-migrant-caravan-talk/1843326002/"}, {"ID": 800111431, "Actor1": "UNITED STATES", "Actor1_Country": "USA", "Actor2": "ACTOR", "Actor2_Country": null, "Code": 180, "Class": 4, "Action_Location": "New York, United States", "Lat": 42.1497, "Long": -74.9384, "Timestamp": 20181105103000, "Source": "https://abcnews.go.com/US/start-here-polls-favor-democrats-hacking-allegations-georgia-migrant/story?id=58932712"}, {"ID": 800111439, "Actor1": "UNITED STATES", "Actor1_Country": "USA", "Actor2": "PRESIDENT", "Actor2_Country": null, "Code": 43, "Class": 1, "Action_Location": "Virginia, United States", "Lat": 37.768, "Long": -78.2057, "Timestamp": 20181105103000, "Source": "https://www.thedailybeast.com/dave-brat-should-be-winning-big-but-this-cia-vet-is-giving-him-the-run-of-his-life"}, {"ID": 800111440, "Actor1": "UNITED STATES", "Actor1_Country": "USA", "Actor2": "GOVERNMENT", "Actor2_Country": null, "Code": 51, "Class": 1, "Action_Location": "New York, United States", "Lat": 42.1497, "Long": -74.9384, "Timestamp": 20181105103000, "Source": "https://www.timesofisrael.com/iran-president-warns-of-war-situation-as-sanctions-resume/"}, {"ID": 800111442, "Actor1": "UNITED STATES", "Actor1_Country": "USA", "Actor2": "GOVERNMENT", "Actor2_Country": null, "Code": 51, "Class": 1, "Action_Location": "United States", "Lat": 39.828175, "Long": -98.5795, "Timestamp": 20181105103000, "Source": "https://www.nbcnews.com/news/world/iran-s-rouhani-warns-war-situation-u-s-sanctions-resume-n931196"}, {"ID": 800111448, "Actor1": "UNITED STATES", "Actor1_Country": "USA", "Actor2": "IRAN", "Actor2_Country": "IRN", "Code": 100, "Class": 3, "Action_Location": "Tehran, Tehran, Iran", "Lat": 35.75, "Long": 51.5148, "Timestamp": 20181105103000, "Source": "https://www.mycentraljersey.com/story/news/world/2018/11/05/iran-united-states-president-donald-trump-nuclear-deal-foreign-minister-mohammad-javad-zarif/1859375002/"}, {"ID": 800111449, "Actor1": "UNITED STATES", "Actor1_Country": "USA", "Actor2": "IRAN", "Actor2_Country": "IRN", "Code": 100, "Class": 3, "Action_Location": "Tehran, Tehran, Iran", "Lat": 35.75, "Long": 51.5148, "Timestamp": 20181105103000, "Source": "https://www.mycentraljersey.com/story/news/world/2018/11/05/iran-united-states-president-donald-trump-nuclear-deal-foreign-minister-mohammad-javad-zarif/1859375002/"}, {"ID": 800111455, "Actor1": "UNITED STATES", "Actor1_Country": "USA", "Actor2": "IRAN", "Actor2_Country": "IRN", "Code": 40, "Class": 1, "Action_Location": "Tehran, Tehran, Iran", "Lat": 35.75, "Long": 51.5148, "Timestamp": 20181105103000, "Source": "https://www.mycentraljersey.com/story/news/world/2018/11/05/iran-united-states-president-donald-trump-nuclear-deal-foreign-minister-mohammad-javad-zarif/1859375002/"}, {"ID": 800111456, "Actor1": "UNITED STATES", "Actor1_Country": "USA", "Actor2": "IRAN", "Actor2_Country": "IRN", "Code": 40, "Class": 1, "Action_Location": "Tehran, Tehran, Iran", "Lat": 35.75, "Long": 51.5148, "Timestamp": 20181105103000, "Source": "https://www.mycentraljersey.com/story/news/world/2018/11/05/iran-united-states-president-donald-trump-nuclear-deal-foreign-minister-mohammad-javad-zarif/1859375002/"}, {"ID": 800111457, "Actor1": "UNITED STATES", "Actor1_Country": "USA", "Actor2": "IRAN", "Actor2_Country": "IRN", "Code": 40, "Class": 1, "Action_Location": "Washington, District of Columbia, United States", "Lat": 38.8951, "Long": -77.0364, "Timestamp": 20181105103000, "Source": "https://www.mycentraljersey.com/story/news/world/2018/11/05/iran-united-states-president-donald-trump-nuclear-deal-foreign-minister-mohammad-javad-zarif/1859375002/"}, {"ID": 800111467, "Actor1": "UNITED STATES", "Actor1_Country": "USA", "Actor2": "WORKER", "Actor2_Country": null, "Code": 12, "Class": 1, "Action_Location": "Olathe, Kansas, United States", "Lat": 38.8814, "Long": -94.8191, "Timestamp": 20181105103000, "Source": "http://www.kbia.org/post/johnson-county-promises-election-results-wont-be-late-time"}, {"ID": 800111472, "Actor1": "UNITED STATES", "Actor1_Country": "USA", "Actor2": "SENATE", "Actor2_Country": null, "Code": 51, "Class": 1, "Action_Location": "West Palm Beach, Florida, United States", "Lat": 26.7153, "Long": -80.0534, "Timestamp": 20181105103000, "Source": "https://www.rollcall.com/news/politics/florida-democratic-women"}, {"ID": 800111479, "Actor1": "UNITED STATES", "Actor1_Country": "USA", "Actor2": "MEDIA", "Actor2_Country": null, "Code": 10, "Class": 1, "Action_Location": "White House, District of Columbia, United States", "Lat": 38.8951, "Long": -77.0364, "Timestamp": 20181105103000, "Source": "http://www.editorandpublisher.com/feature/can-nonprofit-news-help-save-the-media-industry/"}, {"ID": 800111481, "Actor1": "PITTSBURGH", "Actor1_Country": "USA", "Actor2": "SPOKESMAN", "Actor2_Country": null, "Code": 193, "Class": 4, "Action_Location": "Washington, District of Columbia, United States", "Lat": 38.8951, "Long": -77.0364, "Timestamp": 20181105103000, "Source": "https://www.washingtonpost.com/nation/2018/11/05/i-wanted-him-feel-compassion-jewish-nurse-who-treated-synagogue-shooting-suspect-tells-his-story/"}, {"ID": 800111493, "Actor1": "HOUSTON", "Actor1_Country": "USA", "Actor2": "WORSHIPPER", "Actor2_Country": null, "Code": 10, "Class": 1, "Action_Location": "Houston, Texas, United States", "Lat": 29.7633, "Long": -95.3633, "Timestamp": 20181105103000, "Source": "http://en.rfi.fr/americas/20181105-texas-democrats-struggle-mobilise-voters-key-orourke-cruz-battle"}, {"ID": 800111494, "Actor1": "UNITED STATES", "Actor1_Country": "USA", "Actor2": "WORSHIPPER", "Actor2_Country": null, "Code": 13, "Class": 1, "Action_Location": "Houston, Texas, United States", "Lat": 29.7633, "Long": -95.3633, "Timestamp": 20181105103000, "Source": "http://en.rfi.fr/americas/20181105-texas-democrats-struggle-mobilise-voters-key-orourke-cruz-battle"}, {"ID": 800111504, "Actor1": "UNITED STATES", "Actor1_Country": "USA", "Actor2": "MILITANT", "Actor2_Country": null, "Code": 51, "Class": 1, "Action_Location": "Tehran, Tehran, Iran", "Lat": 35.75, "Long": 51.5148, "Timestamp": 20181105103000, "Source": "https://www.timesofisrael.com/iran-president-warns-of-war-situation-as-sanctions-resume/"}, {"ID": 800111505, "Actor1": "UNITED STATES", "Actor1_Country": "USA", "Actor2": "MILITANT", "Actor2_Country": null, "Code": 51, "Class": 1, "Action_Location": "New York, United States", "Lat": 42.1497, "Long": -74.9384, "Timestamp": 20181105103000, "Source": "https://www.timesofisrael.com/iran-president-warns-of-war-situation-as-sanctions-resume/"}, {"ID": 800111512, "Actor1": "WISCONSIN", "Actor1_Country": "USA", "Actor2": "WISCONSIN", "Actor2_Country": "USA", "Code": 43, "Class": 1, "Action_Location": "Wisconsin, United States", "Lat": 44.2563, "Long": -89.6385, "Timestamp": 20181105103000, "Source": "https://www.thedailybeast.com/paul-ryans-hometown-hasnt-felt-scott-walkers-economic-recovery"}, {"ID": 800111516, "Actor1": "UNITED STATES", "Actor1_Country": "USA", "Actor2": "UNITED STATES", "Actor2_Country": "USA", "Code": 112, "Class": 3, "Action_Location": "Chester County, Pennsylvania, United States", "Lat": 40.1254, "Long": -75.8749, "Timestamp": 20181105103000, "Source": "https://www.chron.com/news/crime/article/Man-accused-of-secretly-filming-women-in-bathrooms-13362884.php"}, {"ID": 800111517, "Actor1": "PENNSYLVANIA", "Actor1_Country": "USA", "Actor2": "UNITED STATES", "Actor2_Country": "USA", "Code": 112, "Class": 3, "Action_Location": "Maryland, United States", "Lat": 39.0724, "Long": -76.7902, "Timestamp": 20181105103000, "Source": "https://www.chron.com/news/crime/article/Man-accused-of-secretly-filming-women-in-bathrooms-13362884.php"}, {"ID": 800111518, "Actor1": "UNITED STATES", "Actor1_Country": "USA", "Actor2": "FLORIDA", "Actor2_Country": "USA", "Code": 110, "Class": 3, "Action_Location": "Fort Myers, Florida, United States", "Lat": 26.6406, "Long": -81.8723, "Timestamp": 20181105103000, "Source": "https://www.rollcall.com/news/politics/florida-democratic-women"}, {"ID": 800111519, "Actor1": "UNITED STATES", "Actor1_Country": "USA", "Actor2": "FLORIDA", "Actor2_Country": "USA", "Code": 110, "Class": 3, "Action_Location": "Florida, United States", "Lat": 27.8333, "Long": -81.717, "Timestamp": 20181105103000, "Source": "https://www.rollcall.com/news/politics/florida-democratic-women"}, {"ID": 800111520, "Actor1": "UNITED STATES", "Actor1_Country": "USA", "Actor2": "FLORIDA", "Actor2_Country": "USA", "Code": 36, "Class": 1, "Action_Location": "Florida, United States", "Lat": 27.8333, "Long": -81.717, "Timestamp": 20181105103000, "Source": "https://www.rollcall.com/news/politics/florida-democratic-women"}, {"ID": 800111522, "Actor1": "UNITED STATES", "Actor1_Country": "USA", "Actor2": "FLORIDA", "Actor2_Country": "USA", "Code": 42, "Class": 1, "Action_Location": "Florida, United States", "Lat": 27.8333, "Long": -81.717, "Timestamp": 20181105103000, "Source": "https://www.rollcall.com/news/politics/florida-democratic-women"},