[{"ID": 800046650, "Actor1": "WASHINGTON", "Actor1_Country": "USA", "Actor2": "SAUDI", "Actor2_Country": "SAU", "Code": 20, "Class": 1, "Action_Location": "Riyadh, Ar Riya?, Saudi Arabia", "Lat": 24.6408, "Long": 46.7728, "Timestamp": 20181105033000, "Source": "https://www.yahoo.com/news/saudi-rights-record-un-spotlight-020445872.html"}, {"ID": 800046841, "Actor1": "AUSTRALIA", "Actor1_Country": "AUS", "Actor2": "REPRESENTATIVES", "Actor2_Country": null, "Code": 43, "Class": 1, "Action_Location": "Melbourne, Victoria, Australia", "Lat": -37.8167, "Long": 144.967, "Timestamp": 20181105033000, "Source": "https://www.mailtimes.com.au/story/5740564/imagine-a-15yo-jockey-riding-a-melbourne-cup-winner-it-happened/"}, {"ID": 800046863, "Actor1": "COMPANIES", "Actor1_Country": null, "Actor2": "SHANGHAI", "Actor2_Country": "CHN", "Code": 42, "Class": 1, "Action_Location": "Germany", "Lat": 51.5, "Long": 10.5, "Timestamp": 20181105033000, "Source": "http://www.startribune.com/china-s-xi-promises-market-opening-as-import-fair-begins/499591571/"}, {"ID": 800046864, "Actor1": "COMPANIES", "Actor1_Country": null, "Actor2": "SHANGHAI", "Actor2_Country": "CHN", "Code": 42, "Class": 1, "Action_Location": "Germany", "Lat": 51.5, "Long": 10.5, "Timestamp": 20181105033000, "Source": "http://www.startribune.com/china-s-xi-promises-market-opening-as-import-fair-begins/499591571/"}, {"ID": 800046865, "Actor1": "COMPANIES", "Actor1_Country": null, "Actor2": "GERMAN", "Actor2_Country": "DEU", "Code": 61, "Class": 2, "Action_Location": "Beijing, Beijing, China", "Lat": 39.9289, "Long": 116.388, "Timestamp": 20181105033000, "Source": "http://www.startribune.com/china-s-xi-promises-market-opening-as-import-fair-begins/499591571/"}, {"ID": 800046866, "Actor1": "COMPANIES", "Actor1_Country": null, "Actor2": "GERMAN", "Actor2_Country": "DEU", "Code": 61, "Class": 2, "Action_Location": "Washington, District of Columbia, United States", "Lat": 38.8951, "Long": -77.0364, "Timestamp": 20181105033000, "Source": "http://www.startribune.com/china-s-xi-promises-market-opening-as-import-fair-begins/499591571/"}, {"ID": 800046897, "Actor1": "GENEVA", "Actor1_Country": "CHE", "Actor2": "THE UN", "Actor2_Country": null, "Code": 43, "Class": 1, "Action_Location": "Geneva, Gen\u00e8, Switzerland", "Lat": 46.1956, "Long": 6.14811, "Timestamp": 20181105033000, "Source": "https://www.yahoo.com/news/saudi-rights-record-un-spotlight-020445872.html"}, {"ID": 800046909, "Actor1": "SHANGHAI", "Actor1_Country": "CHN", "Actor2": "COMPANIES", "Actor2_Country": null, "Code": 43, "Class": 1, "Action_Location": "Germany", "Lat": 51.5, "Long": 10.5, "Timestamp": 20181105033000, "Source": "http://www.startribune.com/china-s-xi-promises-market-opening-as-import-fair-begins/499591571/"}, {"ID": 800046910, "Actor1": "SHANGHAI", "Actor1_Country": "CHN", "Actor2": "COMPANIES", "Actor2_Country": null, "Code": 43, "Class": 1, "Action_Location": "Germany", "Lat": 51.5, "Long": 10.5, "Timestamp": 20181105033000, "Source": "http://www.startribune.com/china-s-xi-promises-market-opening-as-import-fair-begins/499591571/"}, {"ID": 800046918, "Actor1": "SHANGHAI", "Actor1_Country": "CHN", "Actor2": "EGYPT", "Actor2_Country": "EGY", "Code": 43, "Class": 1, "Action_Location": "Germany", "Lat": 51.5, "Long": 10.5, "Timestamp": 20181105033000, "Source": "http://www.startribune.com/china-s-xi-promises-market-opening-as-import-fair-begins/499591571/"}, {"ID": 800046927, "Actor1": "CHINESE", "Actor1_Country": "CHN", "Actor2": "REUTERS", "Actor2_Country": "USA", "Code": 42, "Class": 1, "Action_Location": "Shanghai, Shanghai, China", "Lat": 31.2222, "Long": 121.458, "Timestamp": 20181105033000, "Source": "https://uk.reuters.com/article/uk-china-economy-tariff/chinas-xi-promises-lower-tariffs-broader-market-access-idUKKCN1NA05B"}, {"ID": 800046934, "Actor1": "CHINA", "Actor1_Country": "CHN", "Actor2": "CHINESE", "Actor2_Country": "CHN", "Code": 36, "Class": 1, "Action_Location": "Beijing, Beijing, China", "Lat": 39.9289, "Long": 116.388, "Timestamp": 20181105033000, "Source": "https://www.dawn.com/news/1443674/imran-xi-call-for-timely-completion-of-cpec-projects"}, {"ID": 800047001, "Actor1": "POLICE", "Actor1_Country": null, "Actor2": "UNITED STATES", "Actor2_Country": "USA", "Code": 90, "Class": 2, "Action_Location": "Florida State University, Florida, United States", "Lat": 30.4408, "Long": -84.2918, "Timestamp": 20181105033000, "Source": "https://www.nbcnews.com/news/us-news/gunman-who-killed-2-florida-yoga-studio-had-history-harassing-n930936?cid=public-rss_20181105"}, {"ID": 800047056, "Actor1": "COMMUNITY", "Actor1_Country": null, "Actor2": "SCHOOL", "Actor2_Country": null, "Code": 42, "Class": 1, "Action_Location": "Chippewa Falls, Wisconsin, United States", "Lat": 44.9369, "Long": -91.3929, "Timestamp": 20181105033000, "Source": "https://www.mprnews.org/story/2018/11/04/hundreds-gather-vigil-for-girl-scouts-parent-killed-wisconsin-crash"}, {"ID": 800047084, "Actor1": "GERMAN", "Actor1_Country": "DEU", "Actor2": "COMPANIES", "Actor2_Country": null, "Code": 61, "Class": 2, "Action_Location": "Egypt", "Lat": 27.0, "Long": 30.0, "Timestamp": 20181105033000, "Source": "http://www.startribune.com/china-s-xi-promises-market-opening-as-import-fair-begins/499591571/"}, {"ID": 800047085, "Actor1": "GERMAN", "Actor1_Country": "DEU", "Actor2": "COMPANIES", "Actor2_Country": null, "Code": 61, "Class": 2, "Action_Location": "Egypt", "Lat": 27.0, "Long": 30.0, "Timestamp": 20181105033000, "Source": "http://www.startribune.com/china-s-xi-promises-market-opening-as-import-fair-begins/499591571/"}, {"ID": 800047109, "Actor1": "STUDENT", "Actor1_Country": null, "Actor2": "STUDENT", "Actor2_Country": null, "Code": 190, "Class": 4, "Action_Location": "Texas, United States", "Lat": 31.106, "Long": -97.6475, "Timestamp": 20181105033000, "Source": "https://www.azfamily.com/newlyweds-killed-in-helicopter-crash-leaving-ceremony/article_8bb71096-1d03-5d68-8557-8f24a7d95f16.html"}, {"ID": 800047126, "Actor1": "EGYPT", "Actor1_Country": "EGY", "Actor2": "SHANGHAI", "Actor2_Country": "CHN", "Code": 42, "Class": 1, "Action_Location": "Beijing, Beijing, China", "Lat": 39.9289, "Long": 116.388, "Timestamp": 20181105033000, "Source": "http://www.startribune.com/china-s-xi-promises-market-opening-as-import-fair-begins/499591571/"}, {"ID": 800047258, "Actor1": "MINIST", "Actor1_Country": null, "Actor2": "ISRAELI", "Actor2_Country": "ISR", "Code": 13, "Class": 1, "Action_Location": "Jerusalem, Israel (general), Israel", "Lat": 31.7667, "Long": 35.2333, "Timestamp": 20181105033000, "Source": "https://www.dailymail.co.uk/wires/afp/article-6351731/Israel-raids-office-Palestinian-Jerusalem-governor.html"}, {"ID": 800047260, "Actor1": "GOVERNOR", "Actor1_Country": null, "Actor2": "SUPREME COURT", "Actor2_Country": null, "Code": 10, "Class": 1, "Action_Location": "New Delhi, Delhi, India", "Lat": 28.6, "Long": 77.2, "Timestamp": 20181105033000, "Source": "https://www.firstpost.com/india/rbi-governor-urjit-patel-issued-show-cause-notice-for-dishonouring-sc-judgment-on-non-disclosure-of-wilful-defaulters-list-5503411.html"}, {"ID": 800047262, "Actor1": "GOVERNOR", "Actor1_Country": null, "Actor2": "SUPREME COURT", "Actor2_Country": null, "Code": 90, "Class": 2, "Action_Location": "New Delhi, Delhi, India", "Lat": 28.6, "Long": 77.2, "Timestamp": 20181105033000, "Source": "https://www.firstpost.com/india/rbi-governor-urjit-patel-issued-show-cause-notice-for-dishonouring-sc-judgment-on-non-disclosure-of-wilful-defaulters-list-5503411.html"}, {"ID": 800047265, "Actor1": "PRIME MINISTER", "Actor1_Country": null, "Actor2": "SRI LANKA", "Actor2_Country": "LKA", "Code": 60, "Class": 2, "Action_Location": "Colombo, Western, Sri Lanka", "Lat": 6.93194, "Long": 79.8478, "Timestamp": 20181105033000, "Source": "https://scroll.in/article/900926/sri-lankas-political-crisis-explained-and-what-it-means-for-the-island-nations-tamil-community"}, {"ID": 800047283, "Actor1": "PRESIDENT", "Actor1_Country": null, "Actor2": "UNITED STATES", "Actor2_Country": "USA", "Code": 36, "Class": 1, "Action_Location": "Estero, Florida, United States", "Lat": 26.4381, "Long": -81.8068, "Timestamp": 20181105033000, "Source": "https://www.theledger.com/news/20181104/five-things-to-watch-for-on-election-day"}, {"ID": 800047284, "Actor1": "PRESIDENT", "Actor1_Country": null, "Actor2": "UNITED STATES", "Actor2_Country": "USA", "Code": 36, "Class": 1, "Action_Location": "Florida, United States", "Lat": 27.8333, "Long": -81.717, "Timestamp": 20181105033000, "Source": "https://www.theledger.com/news/20181104/five-things-to-watch-for-on-election-day"}, {"ID": 800047288, "Actor1": "PRESIDENT", "Actor1_Country": null, "Actor2": "MONTANA", "Actor2_Country": "USA", "Code": 42, "Class": 1, "Action_Location": "Montana, United States", "Lat": 46.9048, "Long": -110.326, "Timestamp": 20181105033000, "Source": "http://www.mtpr.org/post/final-trump-rally-bozeman-draws-fewer-protesters"}, {"ID": 800047302, "Actor1": "DIPLOMAT", "Actor1_Country": null, "Actor2": "YEMEN", "Actor2_Country": "YEM", "Code": 160, "Class": 4, "Action_Location": "Saudi Arabia", "Lat": 25.0, "Long": 45.0, "Timestamp": 20181105033000, "Source": "https://www.heraldsun.com.au/news/breaking-news/uk-pushing-for-un-action-to-end-yemen-war/news-story/c469db29b6f565e91f9f7eb66d79587c?nk=0e5013e47572b20bcffb40a3747603e0-1541387835"}, {"ID": 800047312, "Actor1": "YOGA", "Actor1_Country": null, "Actor2": "FLORIDA", "Actor2_Country": "USA", "Code": 193, "Class": 4, "Action_Location": "Florida, United States", "Lat": 27.8333, "Long": -81.717, "Timestamp": 20181105033000, "Source": "https://www.nbcnews.com/news/us-news/florida-yoga-studio-shooting-leaves-1-victim-dead-4-wounded-n930716?cid=public-rss_20181105"}, {"ID": 800047329, "Actor1": "THE UN", "Actor1_Country": null, "Actor2": "GENEVA", "Actor2_Country": "CHE", "Code": 42, "Class": 1, "Action_Location": "Riyadh, Ar Riya?, Saudi Arabia", "Lat": 24.6408, "Long": 46.7728, "Timestamp": 20181105033000, "Source": "https://www.yahoo.com/news/saudi-rights-record-un-spotlight-020445872.html"}, {"ID": 800047330, "Actor1": "THE UN", "Actor1_Country": null, "Actor2": "SWITZERLAND", "Actor2_Country": "CHE", "Code": 51, "Class": 1, "Action_Location": "Geneva, Gen\u00e8, Switzerland", "Lat": 46.1956, "Long": 6.14811, "Timestamp": 20181105033000, "Source": "https://www.france24.com/en/20181105-saudi-arabia-human-rights-record-united-nations-spotlight"}, {"ID": 800047332, "Actor1": "THE UN", "Actor1_Country": null, "Actor2": "JOURNALIST", "Actor2_Country": null, "Code": 51, "Class": 1, "Action_Location": "Geneva, Gen\u00e8, Switzerland", "Lat": 46.1956, "Long": 6.14811, "Timestamp": 20181105033000, "Source": "https://www.france24.com/en/20181105-saudi-arabia-human-rights-record-united-nations-spotlight"}, {"ID": 800047337, "Actor1": "NEW DELHI", "Actor1_Country": "IND", "Actor2": "GOVERNOR", "Actor2_Country": null, "Code": 90, "Class": 2, "Action_Location": "New Delhi, Delhi, India", "Lat": 28.6, "Long": 77.2, "Timestamp": 20181105033000, "Source": "https://www.firstpost.com/india/rbi-governor-urjit-patel-issued-show-cause-notice-for-dishonouring-sc-judgment-on-non-disclosure-of-wilful-defaulters-list-5503411.html"}, {"ID": 800047338, "Actor1": "NEW DELHI", "Actor1_Country": "IND", "Actor2": "SUPREME COURT", "Actor2_Country": null, "Code": 10, "Class": 1, "Action_Location": "New Delhi, Delhi, India", "Lat": 28.6, "Long": 77.2, "Timestamp": 20181105033000, "Source": "https://www.firstpost.com/india/rbi-governor-urjit-patel-issued-show-cause-notice-for-dishonouring-sc-judgment-on-non-disclosure-of-wilful-defaulters-list-5503411.html"}, {"ID": 800047415, "Actor1": "REPRESENTATIVES", "Actor1_Country": null, "Actor2": "AUSTRALIA", "Actor2_Country": "AUS", "Code": 42, "Class": 1, "Action_Location": "Melbourne, Victoria, Australia", "Lat": -37.8167, "Long": 144.967, "Timestamp": 20181105033000, "Source": "https://www.mailtimes.com.au/story/5740564/imagine-a-15yo-jockey-riding-a-melbourne-cup-winner-it-happened/"}, {"ID": 800047417, "Actor1": "CONGRESS", "Actor1_Country": null, "Actor2": "VOTER", "Actor2_Country": null, "Code": 20, "Class": 1, "Action_Location": "West Virginia, United States", "Lat": 38.468, "Long": -80.9696, "Timestamp": 20181105033000, "Source": "https://mg.co.za/article/2018-11-05-us-midterms-key-factors-of-the-2018-elections/"}, {"ID": 800047482, "Actor1": "ARMED FORCES", "Actor1_Country": null, "Actor2": "FOREIGN NATIONAL", "Actor2_Country": null, "Code": 80, "Class": 2, "Action_Location": "United Kingdom", "Lat": 54.0, "Long": -4.0, "Timestamp": 20181105033000, "Source": "http://www.kcfm.co.uk/news/uk-news/foreign-nationals-to-be-allowed-into-armed-forces-without-having-lived-in-the-uk/"}, {"ID": 800047616, "Actor1": "PYONGYANG", "Actor1_Country": "PRK", "Actor2": "CUBA", "Actor2_Country": "CUB", "Code": 40, "Class": 1, "Action_Location": "Cuba", "Lat": 22.0, "Long": -79.5, "Timestamp": 20181105033000, "Source": "https://www.scmp.com/news/asia/east-asia/article/2171660/north-korea-cuba-agree-deepen-ties-amid-us-sanctions"}, {"ID": 800047617, "Actor1": "PYONGYANG", "Actor1_Country": "PRK", "Actor2": "CUBA", "Actor2_Country": "CUB", "Code": 40, "Class": 1, "Action_Location": "Cuba", "Lat": 22.0, "Long": -79.5, "Timestamp": 20181105033000, "Source": "https://www.scmp.com/news/asia/east-asia/article/2171660/north-korea-cuba-agree-deepen-ties-amid-us-sanctions"}, {"ID": 800047647, "Actor1": "SAUDI ARABIA", "Actor1_Country": "SAU", "Actor2": "UNITED STATES", "Actor2_Country": "USA", "Code": 160, "Class": 4, "Action_Location": "Riyadh, Ar Riya?, Saudi Arabia", "Lat": 24.6408, "Long": 46.7728, "Timestamp": 20181105033000, "Source": "https://www.france24.com/en/20181105-saudi-arabia-human-rights-record-united-nations-spotlight"}, {"ID": 800047648, "Actor1": "SAUDI ARABIA", "Actor1_Country": "SAU", "Actor2": "UNITED STATES", "Actor2_Country": "USA", "Code": 160, "Class": 4, "Action_Location": "Riyadh, Ar Riya?, Saudi Arabia", "Lat": 24.6408, "Long": 46.7728, "Timestamp": 20181105033000, "Source": "https://www.yahoo.com/news/saudi-rights-record-un-spotlight-020445872.html"}, {"ID": 800047783, "Actor1": "UNITED STATES", "Actor1_Country": "USA", "Actor2": "VOTER", "Actor2_Country": null, "Code": 20, "Class": 1, "Action_Location": "West Virginia, United States", "Lat": 38.468, "Long": -80.9696, "Timestamp": 20181105033000, "Source": "https://mg.co.za/article/2018-11-05-us-midterms-key-factors-of-the-2018-elections/"}, {"ID": 800047791, "Actor1": "TENNESSEE", "Actor1_Country": "USA", "Actor2": "MIGRANT", "Actor2_Country": null, "Code": 111, "Class": 3, "Action_Location": "Tennessee, United States", "Lat": 35.7449, "Long": -86.7489, "Timestamp": 20181105033000, "Source": "https://www.businessinsider.com/trump-migrant-caravan-invasion-campaign-rally-marsha-blackburn-tennessee-2018-11"}, {"ID": 800047794, "Actor1": "UNITED STATES", "Actor1_Country": "USA", "Actor2": "STUDENT", "Actor2_Country": null, "Code": 20, "Class": 1, "Action_Location": "Massachusetts, United States", "Lat": 42.2373, "Long": -71.5314, "Timestamp": 20181105033000, "Source": "https://www.concordmonitor.com/Sanders-urges-New-Hampshire-college-students-to-vote-Tuesday-21322545"}, {"ID": 800047801, "Actor1": "UNITED STATES", "Actor1_Country": "USA", "Actor2": "STUDENT", "Actor2_Country": null, "Code": 190, "Class": 4, "Action_Location": "Texas, United States", "Lat": 31.106, "Long": -97.6475, "Timestamp": 20181105033000, "Source": "https://www.azfamily.com/newlyweds-killed-in-helicopter-crash-leaving-ceremony/article_8bb71096-1d03-5d68-8557-8f24a7d95f16.html"}, {"ID": 800047805, "Actor1": "UNITED STATES", "Actor1_Country": "USA", "Actor2": "PRESIDENT", "Actor2_Country": null, "Code": 36, "Class": 1, "Action_Location": "Estero, Florida, United States", "Lat": 26.4381, "Long": -81.8068, "Timestamp": 20181105033000, "Source": "https://www.theledger.com/news/20181104/five-things-to-watch-for-on-election-day"}, {"ID": 800047806, "Actor1": "UNITED STATES", "Actor1_Country": "USA", "Actor2": "PRESIDENT", "Actor2_Country": null, "Code": 36, "Class": 1, "Action_Location": "Florida, United States", "Lat": 27.8333, "Long": -81.717, "Timestamp": 20181105033000, "Source": "https://www.theledger.com/news/20181104/five-things-to-watch-for-on-election-day"}, {"ID": 800047810, "Actor1": "MONTANA", "Actor1_Country": "USA", "Actor2": "PRESIDENT", "Actor2_Country": null, "Code": 43, "Class": 1, "Action_Location": "Montana, United States", "Lat": 46.9048, "Long": -110.326, "Timestamp": 20181105033000, "Source": "http://www.mtpr.org/post/final-trump-rally-bozeman-draws-fewer-protesters"}, {"ID": 800047811, "Actor1": "UNITED STATES", "Actor1_Country": "USA", "Actor2": "PRESIDENT", "Actor2_Country": null, "Code": 51, "Class": 1, "Action_Location": "Chattanooga, Tennessee, United States", "Lat": 35.0456, "Long": -85.3097, "Timestamp": 20181105033000, "Source": "https://www.businessinsider.com/trump-migrant-caravan-invasion-campaign-rally-marsha-blackburn-tennessee-2018-11"}, {"ID": 800047823, "Actor1": "FLORIDA", "Actor1_Country": "USA", "Actor2": "SENATE", "Actor2_Country": null, "Code": 110, "Class": 3, "Action_Location": "Florida, United States", "Lat": 27.8333, "Long": -81.717, "Timestamp": 20181105033000, "Source": "https://www.theledger.com/news/20181104/five-things-to-watch-for-on-election-day"}, {"ID": 800047856, "Actor1": "UNITED STATES", "Actor1_Country": "USA", "Actor2": "UNITED STATES", "Actor2_Country": "USA", "Code": 51, "Class": 1, "Action_Location": "Chattanooga, Tennessee, United States", "Lat": 35.0456, "Long": -85.3097, "Timestamp": 20181105033000, "Source": "https://www.businessinsider.com/trump-migrant-caravan-invasion-campaign-rally-marsha-blackburn-tennessee-2018-11"}, {"ID": 800047860, "Actor1": "UNITED STATES", "Actor1_Country": "USA", "Actor2": "UNITED STATES", "Actor2_Country": "USA", "Code": 40, "Class": 1, "Action_Location": "White House, District of Columbia, United States", "Lat": 38.8951, "Long": -77.0364, "Timestamp": 20181105033000, "Source": "https://www.breitbart.com/politics/2018/11/04/watch-black-faith-leaders-ask-who-want-represent-you/"}, {"ID": 800047863, "Actor1": "MONTANA", "Actor1_Country": "USA", "Actor2": "UNITED STATES", "Actor2_Country": "USA", "Code": 42, "Class": 1, "Action_Location": "Montana, United States", "Lat": 46.9048, "Long": -110.326, "Timestamp": 20181105033000, "Source": "http://www.mtpr.org/post/final-trump-rally-bozeman-draws-fewer-protesters"}, {"ID": 800047865, "Actor1": "MONTANA", "Actor1_Country": "USA", "Actor2": "UNITED STATES", "Actor2_Country": "USA", "Code": 43, "Class": 1, "Action_Location": "Montana, United States", "Lat": 46.9048, "Long": -110.326, "Timestamp": 20181105033000, "Source": "http://www.mtpr.org/post/trump-headlines-weekend-campaign-blast-advance-tuesdays-election"}, {"ID": 800047867, "Actor1": "UNITED STATES", "Actor1_Country": "USA", "Actor2": "FLORIDA", "Actor2_Country": "USA", "Code": 10, "Class": 1, "Action_Location": "New York, United States", "Lat": 42.1497, "Long": -74.9384, "Timestamp": 20181105033000, "Source": "https://whmi.com/news/national/this-is-not-how-i-raised-him-mother-of-mail-bombing-suspect"}, {"ID": 800047868, "Actor1": "UNITED STATES", "Actor1_Country": "USA", "Actor2": "FLORIDA", "Actor2_Country": "USA", "Code": 10, "Class": 1, "Action_Location": "New York, United States", "Lat": 42.1497, "Long": -74.9384, "Timestamp": 20181105033000, "Source": "https://whmi.com/news/national/this-is-not-how-i-raised-him-mother-of-mail-bombing-suspect"}, {"ID": 800047922, "Actor1": "UNITED STATES", "Actor1_Country": "USA", "Actor2": "UNITED STATES", "Actor2_Country": "USA", "Code": 40, "Class": 1, "Action_Location": "White House, District of Columbia, United States", "Lat": 38.8951, "Long": -77.0364, "Timestamp": 20181105033000, "Source": "https://www.breitbart.com/politics/2018/11/04/watch-black-faith-leaders-ask-who-want-represent-you/"}, {"ID": 800047934, "Actor1": "BARACK OBAMA", "Actor1_Country": "USA", "Actor2": "UNITED STATES", "Actor2_Country": "USA", "Code": 51, "Class": 1, "Action_Location": "Tennessee, United States", "Lat": 35.7449, "Long": -86.7489, "Timestamp": 20181105033000, "Source": "https://mg.co.za/article/2018-11-05-us-midterms-key-factors-of-the-2018-elections/"}, {"ID": 800047940, "Actor1": "REUTERS", "Actor1_Country": "USA", "Actor2": "CHINESE", "Actor2_Country": "CHN", "Code": 43, "Class": 1, "Action_Location": "Shanghai, Shanghai, China", "Lat": 31.2222, "Long": 121.458, "Timestamp": 20181105033000, "Source": "https://uk.reuters.com/article/uk-china-economy-tariff/chinas-xi-promises-lower-tariffs-broader-market-access-idUKKCN1NA05B"}, {"ID": 800047975, "Actor1": "YEMEN", "Actor1_Country": "YEM", "Actor2": "SAUDI", "Actor2_Country": "SAU", "Code": 20, "Class": 1, "Action_Location": "Riyadh, Ar Riya?, Saudi Arabia", "Lat": 24.6408, "Long": 46.7728, "Timestamp": 20181105033000, "Source": "https://www.yahoo.com/news/saudi-rights-record-un-spotlight-020445872.html"}, {"ID": 800047976, "Actor1": "YEMEN", "Actor1_Country": "YEM", "Actor2": "SAUDI ARABIA", "Actor2_Country": "SAU", "Code": 20, "Class": 1, "Action_Location": "Riyadh, Ar Riya?, Saudi Arabia", "Lat": 24.6408, "Long": 46.7728, "Timestamp": 20181105033000, "Source": "https://www.yahoo.com/news/saudi-rights-record-un-spotlight-020445872.html"}]