[{"ID":800032151,"Actor1":"ARMENIAN","Actor1_Country":"ARM","Actor2":"THE EU","Actor2_Country":"EUR","Code":71,"Class":2,"Action_Location":"Areni, Vayots' Dzor, Armenia","Lat":39.7191,"Long":45.1799,"Timestamp":20181105014500,"Source":"http:\/\/setasarmenian.blogspot.com\/2018\/11\/armenian-newsjohn-bolton-remarks-in.html"},{"ID":800032152,"Actor1":"ARMENIAN","Actor1_Country":"ARM","Actor2":"THE EU","Actor2_Country":"EUR","Code":71,"Class":2,"Action_Location":"Venezuela","Lat":8.0,"Long":-66.0,"Timestamp":20181105014500,"Source":"http:\/\/setasarmenian.blogspot.com\/2018\/11\/armenian-newsjohn-bolton-remarks-in.html"},{"ID":800032158,"Actor1":"PAKISTAN","Actor1_Country":"PAK","Actor2":"AUTHORITIES","Actor2_Country":null,"Code":20,"Class":1,"Action_Location":"Arif Abbasi, Sindh, Pakistan","Lat":24.3891,"Long":68.1458,"Timestamp":20181105014500,"Source":"https:\/\/www.thenews.com.pk\/print\/389762-10-year-record-of-projects-completed-in-rawalpindi-sought"},{"ID":800032160,"Actor1":"FISHER","Actor1_Country":null,"Actor2":"PROFESSOR","Actor2_Country":null,"Code":36,"Class":1,"Action_Location":"Virginia, United States","Lat":37.768,"Long":-78.2057,"Timestamp":20181105014500,"Source":"https:\/\/www.wvnews.com\/theet\/theet\/news\/fairmont-state-university-wv-promotes-cybersecurity-through-iron-falcon-space\/article_dead7eb5-aab3-5271-bc73-246f46c17005.html"},{"ID":800032161,"Actor1":"FARMER","Actor1_Country":null,"Actor2":"GAZETTE","Actor2_Country":null,"Code":13,"Class":1,"Action_Location":"Beijing, Beijing, China","Lat":39.9289,"Long":116.388,"Timestamp":20181105014500,"Source":"http:\/\/focus-fen.net\/.\/news\/2018\/11\/05\/435540\/afp-trumps-trade-war-edgy-for-republicans-in-us-midterms.html"},{"ID":800032162,"Actor1":"FARMER","Actor1_Country":null,"Actor2":"GAZETTE","Actor2_Country":null,"Code":13,"Class":1,"Action_Location":"Iowa, United States","Lat":42.0046,"Long":-93.214,"Timestamp":20181105014500,"Source":"http:\/\/focus-fen.net\/.\/news\/2018\/11\/05\/435540\/afp-trumps-trade-war-edgy-for-republicans-in-us-midterms.html"},{"ID":800032166,"Actor1":"CHINA","Actor1_Country":"CHN","Actor2":"CAMBODIA","Actor2_Country":"KHM","Code":173,"Class":4,"Action_Location":"Phnom Penh, (CB11), Cambodia","Lat":11.55,"Long":104.917,"Timestamp":20181105014500,"Source":"https:\/\/aecnewstoday.com\/2018\/cambodia-morning-news-for-november-5\/"},{"ID":800032167,"Actor1":"CHINA","Actor1_Country":"CHN","Actor2":"CAMBODIA","Actor2_Country":"KHM","Code":173,"Class":4,"Action_Location":"Wuzhou, Guangxi, China","Lat":23.4833,"Long":111.317,"Timestamp":20181105014500,"Source":"https:\/\/aecnewstoday.com\/2018\/cambodia-morning-news-for-november-5\/"},{"ID":800032168,"Actor1":"DEMOCRATIC REPUBLIC OF THE CONGO","Actor1_Country":"COD","Actor2":"DEMOCRATIC REPUBLIC OF THE CONGO","Actor2_Country":"COD","Code":193,"Class":4,"Action_Location":"Mukendi, Congo, Democratic Republic of The (general), Democratic Republic Of The Congo","Lat":-6.7,"Long":23.6833,"Timestamp":20181105014500,"Source":"https:\/\/www.africaleader.com\/news\/258239921\/lawyers-for-slain-drc-activist-file-complaint-against-police-chief"},{"ID":800032169,"Actor1":"CRIMINAL","Actor1_Country":null,"Actor2":"UNITED STATES","Actor2_Country":"USA","Code":20,"Class":1,"Action_Location":"Iowa, United States","Lat":42.0046,"Long":-93.214,"Timestamp":20181105014500,"Source":"https:\/\/www.dailymail.co.uk\/wires\/ap\/article-6350001\/GOP-chairman-refers-Kavanaugh-accuser-criminal-probe.html"},{"ID":800032170,"Actor1":"CRIMINAL","Actor1_Country":null,"Actor2":"UNITED STATES","Actor2_Country":"USA","Code":112,"Class":3,"Action_Location":"Montana, United States","Lat":46.9048,"Long":-110.326,"Timestamp":20181105014500,"Source":"https:\/\/www.dailymail.co.uk\/wires\/ap\/article-6350001\/GOP-chairman-refers-Kavanaugh-accuser-criminal-probe.html"},{"ID":800032171,"Actor1":"PROFESSOR","Actor1_Country":null,"Actor2":"FISHER","Actor2_Country":null,"Code":36,"Class":1,"Action_Location":"Virginia, United States","Lat":37.768,"Long":-78.2057,"Timestamp":20181105014500,"Source":"https:\/\/www.wvnews.com\/theet\/theet\/news\/fairmont-state-university-wv-promotes-cybersecurity-through-iron-falcon-space\/article_dead7eb5-aab3-5271-bc73-246f46c17005.html"},{"ID":800032172,"Actor1":"PROFESSOR","Actor1_Country":null,"Actor2":"UNITED STATES","Actor2_Country":"USA","Code":36,"Class":1,"Action_Location":"Virginia, United States","Lat":37.768,"Long":-78.2057,"Timestamp":20181105014500,"Source":"https:\/\/www.wvnews.com\/theet\/theet\/news\/fairmont-state-university-wv-promotes-cybersecurity-through-iron-falcon-space\/article_dead7eb5-aab3-5271-bc73-246f46c17005.html"},{"ID":800032173,"Actor1":"PRESIDENT","Actor1_Country":null,"Actor2":"DEMOCRATIC REPUBLIC OF THE CONGO","Actor2_Country":"COD","Code":193,"Class":4,"Action_Location":"Mukendi, Congo, Democratic Republic of The (general), Democratic Republic Of The Congo","Lat":-6.7,"Long":23.6833,"Timestamp":20181105014500,"Source":"https:\/\/www.africaleader.com\/news\/258239921\/lawyers-for-slain-drc-activist-file-complaint-against-police-chief"},{"ID":800032174,"Actor1":"PRESIDENT","Actor1_Country":null,"Actor2":"ACTIVIST","Actor2_Country":null,"Code":193,"Class":4,"Action_Location":"Mukendi, Congo, Democratic Republic of The (general), Democratic Republic Of The Congo","Lat":-6.7,"Long":23.6833,"Timestamp":20181105014500,"Source":"https:\/\/www.africaleader.com\/news\/258239921\/lawyers-for-slain-drc-activist-file-complaint-against-police-chief"},{"ID":800032175,"Actor1":"GOVERNOR","Actor1_Country":null,"Actor2":"UNITED STATES","Actor2_Country":"USA","Code":36,"Class":1,"Action_Location":"Virginia, United States","Lat":37.768,"Long":-78.2057,"Timestamp":20181105014500,"Source":"https:\/\/www.wvnews.com\/theet\/theet\/news\/fairmont-state-university-wv-promotes-cybersecurity-through-iron-falcon-space\/article_dead7eb5-aab3-5271-bc73-246f46c17005.html"},{"ID":800032176,"Actor1":"WORKER","Actor1_Country":null,"Actor2":"AUSTRALIA","Actor2_Country":"AUS","Code":20,"Class":1,"Action_Location":"Latrobe, Tasmania, Australia","Lat":-41.2362,"Long":146.417,"Timestamp":20181105014500,"Source":"http:\/\/www.latrobevalleyexpress.com.au\/story\/5739602\/lva-would-go-under-burgess\/?cs=1462"},{"ID":800032177,"Actor1":"WORKER","Actor1_Country":null,"Actor2":"AUSTRALIA","Actor2_Country":"AUS","Code":71,"Class":2,"Action_Location":"Latrobe, Tasmania, Australia","Lat":-41.2362,"Long":146.417,"Timestamp":20181105014500,"Source":"http:\/\/www.latrobevalleyexpress.com.au\/story\/5739602\/lva-would-go-under-burgess\/?cs=1462"},{"ID":800032179,"Actor1":"SAUDI","Actor1_Country":"SAU","Actor2":"DISSIDENT","Actor2_Country":null,"Code":84,"Class":2,"Action_Location":"Riyadh, Ar Riya?, Saudi Arabia","Lat":24.6408,"Long":46.7728,"Timestamp":20181105014500,"Source":"https:\/\/www.presstv.com\/Detail\/2018\/11\/04\/579089\/Saudi-billionaire-defends-MbS-on-Fox-Jamal-Khashoggi"},{"ID":800032180,"Actor1":"SAUDI","Actor1_Country":"SAU","Actor2":"DISSIDENT","Actor2_Country":null,"Code":84,"Class":2,"Action_Location":"Istanbul, Istanbul, Turkey","Lat":41.0186,"Long":28.9647,"Timestamp":20181105014500,"Source":"https:\/\/www.presstv.com\/Detail\/2018\/11\/04\/579089\/Saudi-billionaire-defends-MbS-on-Fox-Jamal-Khashoggi"},{"ID":800032181,"Actor1":"SAUDI","Actor1_Country":"SAU","Actor2":"DISSIDENT","Actor2_Country":null,"Code":84,"Class":2,"Action_Location":"Istanbul, Istanbul, Turkey","Lat":41.0186,"Long":28.9647,"Timestamp":20181105014500,"Source":"https:\/\/www.presstv.com\/Detail\/2018\/11\/04\/579089\/Saudi-billionaire-defends-MbS-on-Fox-Jamal-Khashoggi"},{"ID":800032182,"Actor1":"UNITED STATES","Actor1_Country":"USA","Actor2":"CRIMINAL","Actor2_Country":null,"Code":112,"Class":3,"Action_Location":"Montana, United States","Lat":46.9048,"Long":-110.326,"Timestamp":20181105014500,"Source":"https:\/\/www.dailymail.co.uk\/wires\/ap\/article-6350001\/GOP-chairman-refers-Kavanaugh-accuser-criminal-probe.html"},{"ID":800032183,"Actor1":"UNITED STATES","Actor1_Country":"USA","Actor2":"CRIMINAL","Actor2_Country":null,"Code":112,"Class":3,"Action_Location":"Montana, United States","Lat":46.9048,"Long":-110.326,"Timestamp":20181105014500,"Source":"https:\/\/www.dailymail.co.uk\/wires\/ap\/article-6350001\/GOP-chairman-refers-Kavanaugh-accuser-criminal-probe.html"},{"ID":800032184,"Actor1":"COLORADO","Actor1_Country":"USA","Actor2":"GOVERNOR","Actor2_Country":null,"Code":120,"Class":3,"Action_Location":"Colorado, United States","Lat":39.0646,"Long":-105.327,"Timestamp":20181105014500,"Source":"https:\/\/www.dailymail.co.uk\/wires\/ap\/article-6349689\/Health-care-Trump-diverse-stands-Colorado-hopefuls.html"},{"ID":800032185,"Actor1":"COLORADO","Actor1_Country":"USA","Actor2":"GOVERNOR","Actor2_Country":null,"Code":120,"Class":3,"Action_Location":"Colorado, United States","Lat":39.0646,"Long":-105.327,"Timestamp":20181105014500,"Source":"https:\/\/www.dailymail.co.uk\/wires\/ap\/article-6349689\/Health-care-Trump-diverse-stands-Colorado-hopefuls.html"},{"ID":800032186,"Actor1":"UNITED STATES","Actor1_Country":"USA","Actor2":"PROFESSOR","Actor2_Country":null,"Code":36,"Class":1,"Action_Location":"Virginia, United States","Lat":37.768,"Long":-78.2057,"Timestamp":20181105014500,"Source":"https:\/\/www.wvnews.com\/theet\/theet\/news\/fairmont-state-university-wv-promotes-cybersecurity-through-iron-falcon-space\/article_dead7eb5-aab3-5271-bc73-246f46c17005.html"},{"ID":800032187,"Actor1":"UNITED STATES","Actor1_Country":"USA","Actor2":"GOVERNOR","Actor2_Country":null,"Code":36,"Class":1,"Action_Location":"Virginia, United States","Lat":37.768,"Long":-78.2057,"Timestamp":20181105014500,"Source":"https:\/\/www.wvnews.com\/theet\/theet\/news\/fairmont-state-university-wv-promotes-cybersecurity-through-iron-falcon-space\/article_dead7eb5-aab3-5271-bc73-246f46c17005.html"},{"ID":800032191,"Actor1":"FRANCE","Actor1_Country":"FRA","Actor2":"TURKEY","Actor2_Country":"TUR","Code":36,"Class":1,"Action_Location":"Istanbul, Istanbul, Turkey","Lat":41.0186,"Long":28.9647,"Timestamp":20181105014500,"Source":"https:\/\/www.dailymail.co.uk\/wires\/ap\/article-6349667\/Erdogan-Trump-discuss-Turkish-bank-joint-patrols-Syria.html"},{"ID":800032192,"Actor1":"FRANCE","Actor1_Country":"FRA","Actor2":"TURKEY","Actor2_Country":"TUR","Code":36,"Class":1,"Action_Location":"Ankara, Ankara, Turkey","Lat":39.9272,"Long":32.8644,"Timestamp":20181105014500,"Source":"https:\/\/www.dailymail.co.uk\/wires\/ap\/article-6349667\/Erdogan-Trump-discuss-Turkish-bank-joint-patrols-Syria.html"},{"ID":800032195,"Actor1":"SECRETARY OF STATE","Actor1_Country":null,"Actor2":"YEMEN","Actor2_Country":"YEM","Code":256,"Class":1,"Action_Location":"Sanaa, San\u0091a', Yemen","Lat":15.3547,"Long":44.2067,"Timestamp":20181105014500,"Source":"https:\/\/uk.reuters.com\/article\/uk-yemen-security-britain\/britain-pushes-for-u-n-security-council-action-on-yemen-crisis-idUKKCN1NA01T"},{"ID":800032196,"Actor1":"SECRETARY OF STATE","Actor1_Country":null,"Actor2":"YEMEN","Actor2_Country":"YEM","Code":43,"Class":1,"Action_Location":"Sanaa, San\u0091a', Yemen","Lat":15.3547,"Long":44.2067,"Timestamp":20181105014500,"Source":"https:\/\/uk.reuters.com\/article\/uk-yemen-security-britain\/britain-pushes-for-u-n-security-council-action-on-yemen-crisis-idUKKCN1NA01T"},{"ID":800032197,"Actor1":"CAMBODIAN","Actor1_Country":"KHM","Actor2":"NEW ZEALAND","Actor2_Country":"NZL","Code":20,"Class":1,"Action_Location":"Phnom Penh, (CB11), Cambodia","Lat":11.55,"Long":104.917,"Timestamp":20181105014500,"Source":"https:\/\/aecnewstoday.com\/2018\/cambodia-morning-news-for-november-5\/"},{"ID":800032198,"Actor1":"CAMBODIAN","Actor1_Country":"KHM","Actor2":"NEW ZEALAND","Actor2_Country":"NZL","Code":20,"Class":1,"Action_Location":"New Zealand","Lat":-42.0,"Long":174.0,"Timestamp":20181105014500,"Source":"https:\/\/aecnewstoday.com\/2018\/cambodia-morning-news-for-november-5\/"},{"ID":800032199,"Actor1":"CAMBODIA","Actor1_Country":"KHM","Actor2":"NEW ZEALAND","Actor2_Country":"NZL","Code":20,"Class":1,"Action_Location":"Phnom Penh, (CB11), Cambodia","Lat":11.55,"Long":104.917,"Timestamp":20181105014500,"Source":"https:\/\/aecnewstoday.com\/2018\/cambodia-morning-news-for-november-5\/"},{"ID":800032200,"Actor1":"CAMBODIAN","Actor1_Country":"KHM","Actor2":"NEW ZEALAND","Actor2_Country":"NZL","Code":20,"Class":1,"Action_Location":"New Zealand","Lat":-42.0,"Long":174.0,"Timestamp":20181105014500,"Source":"https:\/\/aecnewstoday.com\/2018\/cambodia-morning-news-for-november-5\/"},{"ID":800032201,"Actor1":"RUSSIA","Actor1_Country":"RUS","Actor2":"VLADIMIR PUTIN","Actor2_Country":"RUS","Code":17,"Class":1,"Action_Location":"Ardennes, Auvergne, France","Lat":45.4368,"Long":3.53642,"Timestamp":20181105014500,"Source":"https:\/\/www.msn.com\/en-za\/news\/other\/world-leaders-to-mark-wwi-in-france\/ar-BBPk4Cg"},{"ID":800032202,"Actor1":"TURKEY","Actor1_Country":"TUR","Actor2":"FRANCE","Actor2_Country":"FRA","Code":36,"Class":1,"Action_Location":"Ankara, Ankara, Turkey","Lat":39.9272,"Long":32.8644,"Timestamp":20181105014500,"Source":"https:\/\/www.dailymail.co.uk\/wires\/ap\/article-6349667\/Erdogan-Trump-discuss-Turkish-bank-joint-patrols-Syria.html"},{"ID":800032203,"Actor1":"TURKEY","Actor1_Country":"TUR","Actor2":"FRANCE","Actor2_Country":"FRA","Code":36,"Class":1,"Action_Location":"Ankara, Ankara, Turkey","Lat":39.9272,"Long":32.8644,"Timestamp":20181105014500,"Source":"https:\/\/www.dailymail.co.uk\/wires\/ap\/article-6349667\/Erdogan-Trump-discuss-Turkish-bank-joint-patrols-Syria.html"},{"ID":800032204,"Actor1":"YEMEN","Actor1_Country":"YEM","Actor2":"SECRETARY OF STATE","Actor2_Country":null,"Code":42,"Class":1,"Action_Location":"Sanaa, San\u0091a', Yemen","Lat":15.3547,"Long":44.2067,"Timestamp":20181105014500,"Source":"https:\/\/uk.reuters.com\/article\/uk-yemen-security-britain\/britain-pushes-for-u-n-security-council-action-on-yemen-crisis-idUKKCN1NA01T"},{"ID":800032205,"Actor1":"YEMEN","Actor1_Country":"YEM","Actor2":"YEMEN","Actor2_Country":"YEM","Code":42,"Class":1,"Action_Location":"Sanaa, San\u0091a', Yemen","Lat":15.3547,"Long":44.2067,"Timestamp":20181105014500,"Source":"https:\/\/uk.reuters.com\/article\/uk-yemen-security-britain\/britain-pushes-for-u-n-security-council-action-on-yemen-crisis-idUKKCN1NA01T"},{"ID":800032206,"Actor1":"YEMEN","Actor1_Country":"YEM","Actor2":"YEMEN","Actor2_Country":"YEM","Code":256,"Class":1,"Action_Location":"Sanaa, San\u0091a', Yemen","Lat":15.3547,"Long":44.2067,"Timestamp":20181105014500,"Source":"https:\/\/uk.reuters.com\/article\/uk-yemen-security-britain\/britain-pushes-for-u-n-security-council-action-on-yemen-crisis-idUKKCN1NA01T"},{"ID":800032207,"Actor1":"YEMEN","Actor1_Country":"YEM","Actor2":"YEMEN","Actor2_Country":"YEM","Code":43,"Class":1,"Action_Location":"Sanaa, San\u0091a', Yemen","Lat":15.3547,"Long":44.2067,"Timestamp":20181105014500,"Source":"https:\/\/uk.reuters.com\/article\/uk-yemen-security-britain\/britain-pushes-for-u-n-security-council-action-on-yemen-crisis-idUKKCN1NA01T"},{"ID":800032208,"Actor1":"OPERATIVE","Actor1_Country":null,"Actor2":"POLICE","Actor2_Country":null,"Code":173,"Class":4,"Action_Location":"Maroko, Lagos, Nigeria","Lat":6.40054,"Long":3.09972,"Timestamp":20181105014500,"Source":"http:\/\/thenationonlineng.net\/police-arrest-suspected-traffic-robbers\/"},{"ID":800032387,"Actor1":"AFGHAN","Actor1_Country":"AFG","Actor2":"AFGHANISTAN","Actor2_Country":"AFG","Code":190,"Class":4,"Action_Location":"Kabul, Kabol, Afghanistan","Lat":34.5167,"Long":69.1833,"Timestamp":20181105014500,"Source":"https:\/\/www.northcountrypublicradio.org\/news\/npr\/664198091\/a-utah-town-remembers-its-mayor-killed-in-action-in-afghanistan"},{"ID":800032388,"Actor1":"AFGHAN","Actor1_Country":"AFG","Actor2":"ISLAMIC","Actor2_Country":null,"Code":10,"Class":1,"Action_Location":"Afghanistan","Lat":33.0,"Long":66.0,"Timestamp":20181105014500,"Source":"https:\/\/www.dailymail.co.uk\/wires\/afp\/article-6349269\/Pakistan-buries-Father-Taliban-PM-orders-probe-killing.html"},{"ID":800032389,"Actor1":"AFGHAN","Actor1_Country":"AFG","Actor2":"ISLAMIC","Actor2_Country":null,"Code":10,"Class":1,"Action_Location":"Afghanistan","Lat":33.0,"Long":66.0,"Timestamp":20181105014500,"Source":"https:\/\/www.dailymail.co.uk\/wires\/afp\/article-6349269\/Pakistan-buries-Father-Taliban-PM-orders-probe-killing.html"},{"ID":800032390,"Actor1":"AFGHANISTAN","Actor1_Country":"AFG","Actor2":"PAKISTANI","Actor2_Country":"PAK","Code":12,"Class":1,"Action_Location":"Afghanistan","Lat":33.0,"Long":66.0,"Timestamp":20181105014500,"Source":"https:\/\/www.dailymail.co.uk\/wires\/afp\/article-6349269\/Pakistan-buries-Father-Taliban-PM-orders-probe-killing.html"},{"ID":800032391,"Actor1":"AFGHANISTAN","Actor1_Country":"AFG","Actor2":"PAKISTANI","Actor2_Country":"PAK","Code":12,"Class":1,"Action_Location":"Afghanistan","Lat":33.0,"Long":66.0,"Timestamp":20181105014500,"Source":"https:\/\/www.dailymail.co.uk\/wires\/afp\/article-6349269\/Pakistan-buries-Father-Taliban-PM-orders-probe-killing.html"},{"ID":800032392,"Actor1":"AFGHANISTAN","Actor1_Country":"AFG","Actor2":"PAKISTAN","Actor2_Country":"PAK","Code":1014,"Class":3,"Action_Location":"Rawalpindi, Punjab, Pakistan","Lat":33.6,"Long":73.0667,"Timestamp":20181105014500,"Source":"https:\/\/www.dailymail.co.uk\/wires\/afp\/article-6349269\/Pakistan-buries-Father-Taliban-PM-orders-probe-killing.html"},{"ID":800032393,"Actor1":"AFGHANISTAN","Actor1_Country":"AFG","Actor2":"PAKISTANI","Actor2_Country":"PAK","Code":164,"Class":4,"Action_Location":"Afghanistan","Lat":33.0,"Long":66.0,"Timestamp":20181105014500,"Source":"https:\/\/www.dailymail.co.uk\/wires\/afp\/article-6349269\/Pakistan-buries-Father-Taliban-PM-orders-probe-killing.html"},{"ID":800032394,"Actor1":"AFGHANISTAN","Actor1_Country":"AFG","Actor2":"PAKISTANI","Actor2_Country":"PAK","Code":164,"Class":4,"Action_Location":"Afghanistan","Lat":33.0,"Long":66.0,"Timestamp":20181105014500,"Source":"https:\/\/www.dailymail.co.uk\/wires\/afp\/article-6349269\/Pakistan-buries-Father-Taliban-PM-orders-probe-killing.html"},{"ID":800032395,"Actor1":"AFGHAN","Actor1_Country":"AFG","Actor2":"UNITED STATES","Actor2_Country":"USA","Code":193,"Class":4,"Action_Location":"Utah, United States","Lat":40.1135,"Long":-111.854,"Timestamp":20181105014500,"Source":"https:\/\/www.northcountrypublicradio.org\/news\/npr\/664198091\/a-utah-town-remembers-its-mayor-killed-in-action-in-afghanistan"},{"ID":800032396,"Actor1":"AFGHANISTAN","Actor1_Country":"AFG","Actor2":"UNITED STATES","Actor2_Country":"USA","Code":190,"Class":4,"Action_Location":"Utah, United States","Lat":40.1135,"Long":-111.854,"Timestamp":20181105014500,"Source":"https:\/\/www.northcountrypublicradio.org\/news\/npr\/664198091\/a-utah-town-remembers-its-mayor-killed-in-action-in-afghanistan"},{"ID":800032397,"Actor1":"AFGHANISTAN","Actor1_Country":"AFG","Actor2":"UNITED STATES","Actor2_Country":"USA","Code":190,"Class":4,"Action_Location":"Utah, United States","Lat":40.1135,"Long":-111.854,"Timestamp":20181105014500,"Source":"https:\/\/www.northcountrypublicradio.org\/news\/npr\/664198091\/a-utah-town-remembers-its-mayor-killed-in-action-in-afghanistan"},{"ID":800032398,"Actor1":"TALIBAN","Actor1_Country":"AFG","Actor2":"ISLAMIC WORLD","Actor2_Country":null,"Code":111,"Class":3,"Action_Location":"Jamiat, Zabol, Afghanistan","Lat":32.2417,"Long":67.7136,"Timestamp":20181105014500,"Source":"https:\/\/www.sofmag.com\/who-assassinated-pakistani-cleric-known-as-father-of-afghan-taliban\/"},{"ID":800032399,"Actor1":"TALIBAN","Actor1_Country":"AFG","Actor2":"ISLAMIC WORLD","Actor2_Country":null,"Code":111,"Class":3,"Action_Location":"Jamiat, Zabol, Afghanistan","Lat":32.2417,"Long":67.7136,"Timestamp":20181105014500,"Source":"https:\/\/www.sofmag.com\/who-assassinated-pakistani-cleric-known-as-father-of-afghan-taliban\/"},{"ID":800032400,"Actor1":"TALIBAN","Actor1_Country":"AFG","Actor2":"PAKISTAN","Actor2_Country":"PAK","Code":111,"Class":3,"Action_Location":"Jamiat, Zabol, Afghanistan","Lat":32.2417,"Long":67.7136,"Timestamp":20181105014500,"Source":"https:\/\/www.sofmag.com\/who-assassinated-pakistani-cleric-known-as-father-of-afghan-taliban\/"},{"ID":800032401,"Actor1":"TALIBAN","Actor1_Country":"AFG","Actor2":"PAKISTAN","Actor2_Country":"PAK","Code":1823,"Class":4,"Action_Location":"Rawalpindi, Punjab, Pakistan","Lat":33.6,"Long":73.0667,"Timestamp":20181105014500,"Source":"https:\/\/www.dailymail.co.uk\/wires\/afp\/article-6349269\/Pakistan-buries-Father-Taliban-PM-orders-probe-killing.html"},{"ID":800032402,"Actor1":"AFRICA","Actor1_Country":"AFR","Actor2":"CAMEROON","Actor2_Country":"CMR","Code":43,"Class":1,"Action_Location":"Nkolo, Centre, Cameroon","Lat":4.41667,"Long":11.4167,"Timestamp":20181105014500,"Source":"http:\/\/usa.chinadaily.com.cn\/a\/201811\/05\/WS5bdf98eca310eff3032867aa.html"},{"ID":800032403,"Actor1":"AFRICA","Actor1_Country":"AFR","Actor2":"CAMEROON","Actor2_Country":"CMR","Code":43,"Class":1,"Action_Location":"Nkolo, Centre, Cameroon","Lat":4.41667,"Long":11.4167,"Timestamp":20181105014500,"Source":"http:\/\/usa.chinadaily.com.cn\/a\/201811\/05\/WS5bdf98eca310eff3032867aa.html"},{"ID":800032404,"Actor1":"AFRICA","Actor1_Country":"AFR","Actor2":"DEPUTY","Actor2_Country":null,"Code":43,"Class":1,"Action_Location":"Nkolo, Centre, Cameroon","Lat":4.41667,"Long":11.4167,"Timestamp":20181105014500,"Source":"http:\/\/usa.chinadaily.com.cn\/a\/201811\/05\/WS5bdf98eca310eff3032867aa.html"},{"ID":800032405,"Actor1":"AFRICA","Actor1_Country":"AFR","Actor2":"DEPUTY","Actor2_Country":null,"Code":43,"Class":1,"Action_Location":"Nkolo, Centre, Cameroon","Lat":4.41667,"Long":11.4167,"Timestamp":20181105014500,"Source":"http:\/\/usa.chinadaily.com.cn\/a\/201811\/05\/WS5bdf98eca310eff3032867aa.html"},{"ID":800032406,"Actor1":"AFRICA","Actor1_Country":"AFR","Actor2":"BRITISH","Actor2_Country":"GBR","Code":43,"Class":1,"Action_Location":"United Kingdom","Lat":54.0,"Long":-4.0,"Timestamp":20181105014500,"Source":"https:\/\/www.africaleader.com\/news\/258236941\/prince-charles-camilla-land-in-ghana-on-second-africa-stop"},{"ID":800032407,"Actor1":"AFRICA","Actor1_Country":"AFR","Actor2":"UNITED KINGDOM","Actor2_Country":"GBR","Code":43,"Class":1,"Action_Location":"United Kingdom","Lat":54.0,"Long":-4.0,"Timestamp":20181105014500,"Source":"https:\/\/www.africaleader.com\/news\/258236941\/prince-charles-camilla-land-in-ghana-on-second-africa-stop"},{"ID":800032408,"Actor1":"AFRICA","Actor1_Country":"AFR","Actor2":"ZULU","Actor2_Country":null,"Code":36,"Class":1,"Action_Location":"Canada","Lat":60.0,"Long":-96.0,"Timestamp":20181105014500,"Source":"http:\/\/dailyhive.com\/vancouver\/events\/17241-trivo-fraser-union"},{"ID":800032409,"Actor1":"AFRICA","Actor1_Country":"AFR","Actor2":"COMMUNITY","Actor2_Country":null,"Code":70,"Class":2,"Action_Location":"Haiti","Lat":19.0,"Long":-72.416667,"Timestamp":20181105014500,"Source":"https:\/\/www.tapinto.net\/towns\/soma\/articles\/rho-gamma-omega-chapter-of-alpha-kappa-alpha-sorority-inc-hosts-africa-in-the-1900-s-with-author-annamaria-alfieri-on-nov-13-in-maplewood"},{"ID":800032416,"Actor1":"FISHER","Actor1_Country":null,"Actor2":"SCHOOL","Actor2_Country":null,"Code":13,"Class":1,"Action_Location":"Virginia, United States","Lat":37.768,"Long":-78.2057,"Timestamp":20181105014500,"Source":"https:\/\/www.wvnews.com\/theet\/theet\/news\/fairmont-state-university-wv-promotes-cybersecurity-through-iron-falcon-space\/article_dead7eb5-aab3-5271-bc73-246f46c17005.html"},{"ID":800032417,"Actor1":"FISHER","Actor1_Country":null,"Actor2":"SCHOOL","Actor2_Country":null,"Code":36,"Class":1,"Action_Location":"Virginia, United States","Lat":37.768,"Long":-78.2057,"Timestamp":20181105014500,"Source":"https:\/\/www.wvnews.com\/theet\/theet\/news\/fairmont-state-university-wv-promotes-cybersecurity-through-iron-falcon-space\/article_dead7eb5-aab3-5271-bc73-246f46c17005.html"},{"ID":800032418,"Actor1":"FARMER","Actor1_Country":null,"Actor2":"NEW YORK","Actor2_Country":"USA","Code":10,"Class":1,"Action_Location":"Iowa, United States","Lat":42.0046,"Long":-93.214,"Timestamp":20181105014500,"Source":"http:\/\/focus-fen.net\/.\/news\/2018\/11\/05\/435540\/afp-trumps-trade-war-edgy-for-republicans-in-us-midterms.html"},{"ID":800032419,"Actor1":"RANCHER","Actor1_Country":null,"Actor2":"UNITED STATES","Actor2_Country":"USA","Code":42,"Class":1,"Action_Location":"Montana, United States","Lat":46.9048,"Long":-110.326,"Timestamp":20181105014500,"Source":"https:\/\/www.dailymail.co.uk\/wires\/ap\/article-6349513\/Sen-Jon-Tester-pushes-make-race-Montana-not-Trump.html"},{"ID":800032420,"Actor1":"RANCHER","Actor1_Country":null,"Actor2":"UNITED STATES","Actor2_Country":"USA","Code":42,"Class":1,"Action_Location":"Montana, United States","Lat":46.9048,"Long":-110.326,"Timestamp":20181105014500,"Source":"https:\/\/www.dailymail.co.uk\/wires\/ap\/article-6349513\/Sen-Jon-Tester-pushes-make-race-Montana-not-Trump.html"},{"ID":800032421,"Actor1":"UNITED ARAB EMIRATES","Actor1_Country":"ARE","Actor2":"PAKISTAN","Actor2_Country":"PAK","Code":60,"Class":2,"Action_Location":"Islamabad, Islamabad, Pakistan","Lat":33.7,"Long":73.1667,"Timestamp":20181105014500,"Source":"https:\/\/nationalinterest.org\/feature\/pakistan%E2%80%99s-imran-khan-heads-china-major-implications-belt-and-road-initiative-34897"},{"ID":800032422,"Actor1":"UNITED ARAB EMIRATES","Actor1_Country":"ARE","Actor2":"PAKISTAN","Actor2_Country":"PAK","Code":60,"Class":2,"Action_Location":"Beijing, Beijing, China","Lat":39.9289,"Long":116.388,"Timestamp":20181105014500,"Source":"https:\/\/nationalinterest.org\/feature\/pakistan%E2%80%99s-imran-khan-heads-china-major-implications-belt-and-road-initiative-34897"},{"ID":800032423,"Actor1":"UNITED ARAB EMIRATES","Actor1_Country":"ARE","Actor2":"PAKISTAN","Actor2_Country":"PAK","Code":60,"Class":2,"Action_Location":"Beijing, Beijing, China","Lat":39.9289,"Long":116.388,"Timestamp":20181105014500,"Source":"https:\/\/nationalinterest.org\/feature\/pakistan%E2%80%99s-imran-khan-heads-china-major-implications-belt-and-road-initiative-34897"},{"ID":800032425,"Actor1":"ARMENIAN","Actor1_Country":"ARM","Actor2":"AZERBAIJAN","Actor2_Country":"AZE","Code":173,"Class":4,"Action_Location":"Baku, Baki*, Azerbaijan","Lat":40.3953,"Long":49.8822,"Timestamp":20181105014500,"Source":"http:\/\/setasarmenian.blogspot.com\/2018\/11\/armenian-newsjohn-bolton-remarks-in.html"},{"ID":800032426,"Actor1":"ARMENIAN","Actor1_Country":"ARM","Actor2":"AZERBAIJAN","Actor2_Country":"AZE","Code":173,"Class":4,"Action_Location":"Baku, Baki*, Azerbaijan","Lat":40.3953,"Long":49.8822,"Timestamp":20181105014500,"Source":"http:\/\/setasarmenian.blogspot.com\/2018\/11\/armenian-newsjohn-bolton-remarks-in.html"},{"ID":800032427,"Actor1":"ARMENIAN","Actor1_Country":"ARM","Actor2":"CHRISTIAN","Actor2_Country":null,"Code":111,"Class":3,"Action_Location":"Echmiatsin, Armavir, Armenia","Lat":40.1656,"Long":44.2946,"Timestamp":20181105014500,"Source":"http:\/\/setasarmenian.blogspot.com\/2018\/11\/armenian-newsjohn-bolton-remarks-in.html"},{"ID":800032428,"Actor1":"ARMENIA","Actor1_Country":"ARM","Actor2":"CRIMINAL","Actor2_Country":null,"Code":173,"Class":4,"Action_Location":"Azeri, Vayots' Dzor, Armenia","Lat":39.7195,"Long":45.6474,"Timestamp":20181105014500,"Source":"http:\/\/setasarmenian.blogspot.com\/2018\/11\/armenian-newsjohn-bolton-remarks-in.html"},{"ID":800032429,"Actor1":"ARMENIA","Actor1_Country":"ARM","Actor2":"CITIZEN","Actor2_Country":null,"Code":42,"Class":1,"Action_Location":"Azeri, Vayots' Dzor, Armenia","Lat":39.7195,"Long":45.6474,"Timestamp":20181105014500,"Source":"http:\/\/setasarmenian.blogspot.com\/2018\/11\/armenian-newsjohn-bolton-remarks-in.html"},{"ID":800032430,"Actor1":"ARMENIA","Actor1_Country":"ARM","Actor2":"JOURNALIST","Actor2_Country":null,"Code":10,"Class":1,"Action_Location":"Areni, Vayots' Dzor, Armenia","Lat":39.7191,"Long":45.1799,"Timestamp":20181105014500,"Source":"http:\/\/setasarmenian.blogspot.com\/2018\/11\/armenian-newsjohn-bolton-remarks-in.html"},{"ID":800032431,"Actor1":"ARMENIA","Actor1_Country":"ARM","Actor2":"HOLY SEE","Actor2_Country":"VAT","Code":40,"Class":1,"Action_Location":"Echmiatsin, Armavir, Armenia","Lat":40.1656,"Long":44.2946,"Timestamp":20181105014500,"Source":"http:\/\/setasarmenian.blogspot.com\/2018\/11\/armenian-newsjohn-bolton-remarks-in.html"},{"ID":800032432,"Actor1":"ARMENIA","Actor1_Country":"ARM","Actor2":"AZERBAIJAN","Actor2_Country":"AZE","Code":173,"Class":4,"Action_Location":"Azeri, Vayots' Dzor, Armenia","Lat":39.7195,"Long":45.6474,"Timestamp":20181105014500,"Source":"http:\/\/setasarmenian.blogspot.com\/2018\/11\/armenian-newsjohn-bolton-remarks-in.html"},{"ID":800032433,"Actor1":"ARMENIAN","Actor1_Country":"ARM","Actor2":"AZERBAIJAN","Actor2_Country":"AZE","Code":173,"Class":4,"Action_Location":"Baku, Baki*, Azerbaijan","Lat":40.3953,"Long":49.8822,"Timestamp":20181105014500,"Source":"http:\/\/setasarmenian.blogspot.com\/2018\/11\/armenian-newsjohn-bolton-remarks-in.html"},{"ID":800032455,"Actor1":"AUSTRALIA","Actor1_Country":"AUS","Actor2":"AUSTRALIA","Actor2_Country":"AUS","Code":13,"Class":1,"Action_Location":"Australia","Lat":-25.0,"Long":135.0,"Timestamp":20181105014500,"Source":"https:\/\/www.abc.net.au\/news\/2018-11-05\/china-claims-free-trade-push-amid-us-trade-war-pressure\/10464848"},{"ID":800032456,"Actor1":"AUSTRALIA","Actor1_Country":"AUS","Actor2":"AUSTRALIA","Actor2_Country":"AUS","Code":14,"Class":1,"Action_Location":"Marulan, New South Wales, Australia","Lat":-34.7084,"Long":150.01,"Timestamp":20181105014500,"Source":"https:\/\/www.goulburnpost.com.au\/story\/5732620\/new-village-centre-for-marulan\/"},{"ID":800032457,"Actor1":"AUSTRALIA","Actor1_Country":"AUS","Actor2":"AUSTRALIA","Actor2_Country":"AUS","Code":14,"Class":1,"Action_Location":"Marulan, New South Wales, Australia","Lat":-34.7084,"Long":150.01,"Timestamp":20181105014500,"Source":"https:\/\/www.goulburnpost.com.au\/story\/5732620\/new-village-centre-for-marulan\/"},{"ID":800032458,"Actor1":"AUSTRALIA","Actor1_Country":"AUS","Actor2":"AUSTRALIA","Actor2_Country":"AUS","Code":14,"Class":1,"Action_Location":"Sydney, New South Wales, Australia","Lat":-33.8833,"Long":151.217,"Timestamp":20181105014500,"Source":"https:\/\/www.goulburnpost.com.au\/story\/5732620\/new-village-centre-for-marulan\/"},{"ID":800032460,"Actor1":"AUSTRALIA","Actor1_Country":"AUS","Actor2":"CHINA","Actor2_Country":"CHN","Code":36,"Class":1,"Action_Location":"Beijing, Beijing, China","Lat":39.9289,"Long":116.388,"Timestamp":20181105014500,"Source":"https:\/\/www.abc.net.au\/news\/2018-11-05\/china-claims-free-trade-push-amid-us-trade-war-pressure\/10464848"},{"ID":800032461,"Actor1":"AUSTRALIA","Actor1_Country":"AUS","Actor2":"CHINA","Actor2_Country":"CHN","Code":36,"Class":1,"Action_Location":"Beijing, Beijing, China","Lat":39.9289,"Long":116.388,"Timestamp":20181105014500,"Source":"https:\/\/www.abc.net.au\/news\/2018-11-05\/china-claims-free-trade-push-amid-us-trade-war-pressure\/10464848"},{"ID":800032462,"Actor1":"AUSTRALIAN","Actor1_Country":"AUS","Actor2":"CHINA","Actor2_Country":"CHN","Code":12,"Class":1,"Action_Location":"Beijing, Beijing, China","Lat":39.9289,"Long":116.388,"Timestamp":20181105014500,"Source":"https:\/\/www.abc.net.au\/news\/2018-11-05\/china-claims-free-trade-push-amid-us-trade-war-pressure\/10464848"},{"ID":800032463,"Actor1":"AUSTRALIAN","Actor1_Country":"AUS","Actor2":"CHINA","Actor2_Country":"CHN","Code":12,"Class":1,"Action_Location":"Australia","Lat":-25.0,"Long":135.0,"Timestamp":20181105014500,"Source":"https:\/\/www.abc.net.au\/news\/2018-11-05\/china-claims-free-trade-push-amid-us-trade-war-pressure\/10464848"},{"ID":800032464,"Actor1":"AUSTRALIA","Actor1_Country":"AUS","Actor2":"VOTER","Actor2_Country":null,"Code":14,"Class":1,"Action_Location":"Sydney, New South Wales, Australia","Lat":-33.8833,"Long":151.217,"Timestamp":20181105014500,"Source":"https:\/\/www.bordermail.com.au\/story\/5739143\/phelps-confirmed-as-new-wentworth-mp\/?cs=9676"},{"ID":800032466,"Actor1":"AUSTRALIA","Actor1_Country":"AUS","Actor2":"GOVERNMENT","Actor2_Country":null,"Code":190,"Class":4,"Action_Location":"Williamtown, New South Wales, Australia","Lat":-32.8167,"Long":151.85,"Timestamp":20181105014500,"Source":"https:\/\/www.theherald.com.au\/story\/5738902\/human-error-blamed-for-disparate-williamtown-blood-tests-on-same-day\/"},{"ID":800032467,"Actor1":"AUSTRALIAN","Actor1_Country":"AUS","Actor2":"PRESIDENT","Actor2_Country":null,"Code":192,"Class":4,"Action_Location":"Sydney, New South Wales, Australia","Lat":-33.8833,"Long":151.217,"Timestamp":20181105014500,"Source":"https:\/\/www.bordermail.com.au\/story\/5739143\/phelps-confirmed-as-new-wentworth-mp\/?cs=9676"},{"ID":800032468,"Actor1":"AUSTRALIA","Actor1_Country":"AUS","Actor2":"NEW ZEALAND","Actor2_Country":"NZL","Code":51,"Class":1,"Action_Location":"Avondale, New South Wales, Australia","Lat":-33.0681,"Long":151.465,"Timestamp":20181105014500,"Source":"http:\/\/www.voxy.co.nz\/sport\/5\/325159"},{"ID":800032469,"Actor1":"AUSTRALIAN","Actor1_Country":"AUS","Actor2":"MANILA","Actor2_Country":"PHL","Code":36,"Class":1,"Action_Location":"Melbourne, Victoria, Australia","Lat":-37.8167,"Long":144.967,"Timestamp":20181105014500,"Source":"https:\/\/www.dailymail.co.uk\/wires\/aap\/article-6349595\/Missionary-Sister-Fox-land-Melbourne.html"},{"ID":800032470,"Actor1":"AUSTRALIAN","Actor1_Country":"AUS","Actor2":"MANILA","Actor2_Country":"PHL","Code":36,"Class":1,"Action_Location":"Melbourne, Victoria, Australia","Lat":-37.8167,"Long":144.967,"Timestamp":20181105014500,"Source":"https:\/\/www.dailymail.co.uk\/wires\/aap\/article-6349595\/Missionary-Sister-Fox-land-Melbourne.html"},{"ID":800032471,"Actor1":"AUSTRALIA","Actor1_Country":"AUS","Actor2":"PHILIPPINE","Actor2_Country":"PHL","Code":1711,"Class":4,"Action_Location":"Melbourne, Victoria, Australia","Lat":-37.8167,"Long":144.967,"Timestamp":20181105014500,"Source":"https:\/\/www.dailymail.co.uk\/wires\/aap\/article-6349595\/Missionary-Sister-Fox-land-Melbourne.html"},{"ID":800032472,"Actor1":"AUSTRALIA","Actor1_Country":"AUS","Actor2":"PHILIPPINE","Actor2_Country":"PHL","Code":1711,"Class":4,"Action_Location":"Melbourne, Victoria, Australia","Lat":-37.8167,"Long":144.967,"Timestamp":20181105014500,"Source":"https:\/\/www.dailymail.co.uk\/wires\/aap\/article-6349595\/Missionary-Sister-Fox-land-Melbourne.html"},{"ID":800032473,"Actor1":"AUSTRALIA","Actor1_Country":"AUS","Actor2":"EXTREMIST","Actor2_Country":null,"Code":20,"Class":1,"Action_Location":"Australia","Lat":-25.0,"Long":135.0,"Timestamp":20181105014500,"Source":"https:\/\/www.dailymail.co.uk\/wires\/aap\/article-6350377\/Senior-Nat-floats-party-vetting-crackdown.html"},{"ID":800032474,"Actor1":"AUSTRALIA","Actor1_Country":"AUS","Actor2":"THAILAND","Actor2_Country":"THA","Code":51,"Class":1,"Action_Location":"Marree, South Australia, Australia","Lat":-29.65,"Long":138.067,"Timestamp":20181105014500,"Source":"https:\/\/www.stockjournal.com.au\/story\/5739354\/rural-health-ambassador-receives-state-honour\/"},{"ID":800032475,"Actor1":"AUSTRALIA","Actor1_Country":"AUS","Actor2":"THAILAND","Actor2_Country":"THA","Code":51,"Class":1,"Action_Location":"Thailand","Lat":15.0,"Long":100.0,"Timestamp":20181105014500,"Source":"https:\/\/www.stockjournal.com.au\/story\/5739354\/rural-health-ambassador-receives-state-honour\/"},{"ID":800032476,"Actor1":"AUSTRALIA","Actor1_Country":"AUS","Actor2":"THAILAND","Actor2_Country":"THA","Code":73,"Class":2,"Action_Location":"Marree, South Australia, Australia","Lat":-29.65,"Long":138.067,"Timestamp":20181105014500,"Source":"https:\/\/www.stockjournal.com.au\/story\/5739354\/rural-health-ambassador-receives-state-honour\/"},{"ID":800032478,"Actor1":"AUSTRALIAN","Actor1_Country":"AUS","Actor2":"CHINA","Actor2_Country":"CHN","Code":12,"Class":1,"Action_Location":"Beijing, Beijing, China","Lat":39.9289,"Long":116.388,"Timestamp":20181105014500,"Source":"https:\/\/www.abc.net.au\/news\/2018-11-05\/china-claims-free-trade-push-amid-us-trade-war-pressure\/10464848"},{"ID":800032479,"Actor1":"AUSTRALIA","Actor1_Country":"AUS","Actor2":"RESIDENTS","Actor2_Country":null,"Code":51,"Class":1,"Action_Location":"Marulan, New South Wales, Australia","Lat":-34.7084,"Long":150.01,"Timestamp":20181105014500,"Source":"https:\/\/www.goulburnpost.com.au\/story\/5732620\/new-village-centre-for-marulan\/"},{"ID":800032480,"Actor1":"AUSTRALIA","Actor1_Country":"AUS","Actor2":"AUSTRALIA","Actor2_Country":"AUS","Code":51,"Class":1,"Action_Location":"Toorak, Queensland, Australia","Lat":-27.4333,"Long":153.05,"Timestamp":20181105014500,"Source":"https:\/\/www.dailymail.co.uk\/wires\/aap\/article-6349589\/Vic-campaign-locations-reveal-vote-hopes.html"},{"ID":800032481,"Actor1":"AUSTRALIA","Actor1_Country":"AUS","Actor2":"AUSTRALIA","Actor2_Country":"AUS","Code":51,"Class":1,"Action_Location":"Toorak, Queensland, Australia","Lat":-27.4333,"Long":153.05,"Timestamp":20181105014500,"Source":"https:\/\/www.dailymail.co.uk\/wires\/aap\/article-6349589\/Vic-campaign-locations-reveal-vote-hopes.html"},{"ID":800032482,"Actor1":"AUSTRALIA","Actor1_Country":"AUS","Actor2":"AUSTRALIA","Actor2_Country":"AUS","Code":51,"Class":1,"Action_Location":"Marree, South Australia, Australia","Lat":-29.65,"Long":138.067,"Timestamp":20181105014500,"Source":"https:\/\/www.stockjournal.com.au\/story\/5739354\/rural-health-ambassador-receives-state-honour\/"},{"ID":800032483,"Actor1":"AUSTRALIA","Actor1_Country":"AUS","Actor2":"AUSTRALIA","Actor2_Country":"AUS","Code":192,"Class":4,"Action_Location":"Sydney, New South Wales, Australia","Lat":-33.8833,"Long":151.217,"Timestamp":20181105014500,"Source":"https:\/\/www.bordermail.com.au\/story\/5739143\/phelps-confirmed-as-new-wentworth-mp\/?cs=9676"},{"ID":800032484,"Actor1":"AUSTRALIA","Actor1_Country":"AUS","Actor2":"AUSTRALIAN","Actor2_Country":"AUS","Code":51,"Class":1,"Action_Location":"Marree, South Australia, Australia","Lat":-29.65,"Long":138.067,"Timestamp":20181105014500,"Source":"https:\/\/www.stockjournal.com.au\/story\/5739354\/rural-health-ambassador-receives-state-honour\/"},{"ID":800032486,"Actor1":"AZERBAIJAN","Actor1_Country":"AZE","Actor2":"ARMENIA","Actor2_Country":"ARM","Code":173,"Class":4,"Action_Location":"Azeri, Vayots' Dzor, Armenia","Lat":39.7195,"Long":45.6474,"Timestamp":20181105014500,"Source":"http:\/\/setasarmenian.blogspot.com\/2018\/11\/armenian-newsjohn-bolton-remarks-in.html"},{"ID":800032487,"Actor1":"AZERBAIJAN","Actor1_Country":"AZE","Actor2":"ARMENIAN","Actor2_Country":"ARM","Code":173,"Class":4,"Action_Location":"Baku, Baki*, Azerbaijan","Lat":40.3953,"Long":49.8822,"Timestamp":20181105014500,"Source":"http:\/\/setasarmenian.blogspot.com\/2018\/11\/armenian-newsjohn-bolton-remarks-in.html"},{"ID":800032488,"Actor1":"AZERBAIJAN","Actor1_Country":"AZE","Actor2":"ARMENIA","Actor2_Country":"ARM","Code":173,"Class":4,"Action_Location":"Baku, Baki*, Azerbaijan","Lat":40.3953,"Long":49.8822,"Timestamp":20181105014500,"Source":"http:\/\/setasarmenian.blogspot.com\/2018\/11\/armenian-newsjohn-bolton-remarks-in.html"},{"ID":800032489,"Actor1":"AZERBAIJAN","Actor1_Country":"AZE","Actor2":"PRISONER","Actor2_Country":null,"Code":841,"Class":2,"Action_Location":"Stepanakert, Xank?ndi*, Azerbaijan","Lat":39.8173,"Long":46.7557,"Timestamp":20181105014500,"Source":"http:\/\/setasarmenian.blogspot.com\/2018\/11\/armenian-newsjohn-bolton-remarks-in.html"},{"ID":800032490,"Actor1":"AZERBAIJAN","Actor1_Country":"AZE","Actor2":"PRISONER","Actor2_Country":null,"Code":841,"Class":2,"Action_Location":"Stepanakert, Xank?ndi*, Azerbaijan","Lat":39.8173,"Long":46.7557,"Timestamp":20181105014500,"Source":"http:\/\/setasarmenian.blogspot.com\/2018\/11\/armenian-newsjohn-bolton-remarks-in.html"},{"ID":800032491,"Actor1":"AZERBAIJAN","Actor1_Country":"AZE","Actor2":"PRISONER","Actor2_Country":null,"Code":841,"Class":2,"Action_Location":"Karabakh, Dagestan, Russia","Lat":42.4692,"Long":46.8645,"Timestamp":20181105014500,"Source":"http:\/\/setasarmenian.blogspot.com\/2018\/11\/armenian-newsjohn-bolton-remarks-in.html"},{"ID":800032492,"Actor1":"AZERBAIJAN","Actor1_Country":"AZE","Actor2":"RUSSIA","Actor2_Country":"RUS","Code":10,"Class":1,"Action_Location":"Karabakh, Dagestan, Russia","Lat":42.4692,"Long":46.8645,"Timestamp":20181105014500,"Source":"http:\/\/setasarmenian.blogspot.com\/2018\/11\/armenian-newsjohn-bolton-remarks-in.html"},{"ID":800032497,"Actor1":"BELGIUM","Actor1_Country":"BEL","Actor2":"UNITED KINGDOM","Actor2_Country":"GBR","Code":43,"Class":1,"Action_Location":"Dendermonde, Region Flamande, Belgium","Lat":51.0287,"Long":4.10106,"Timestamp":20181105014500,"Source":"https:\/\/www.bbc.co.uk\/news\/uk-england-leeds-46018891"},{"ID":800032498,"Actor1":"BELGIUM","Actor1_Country":"BEL","Actor2":"UNITED KINGDOM","Actor2_Country":"GBR","Code":43,"Class":1,"Action_Location":"Yorkshire, North Yorkshire, United Kingdom","Lat":54.0,"Long":-1.5,"Timestamp":20181105014500,"Source":"https:\/\/www.bbc.co.uk\/news\/uk-england-leeds-46018891"},{"ID":800032499,"Actor1":"BELGIUM","Actor1_Country":"BEL","Actor2":"REGIME","Actor2_Country":null,"Code":10,"Class":1,"Action_Location":"Dublin, Dublin, Ireland","Lat":53.3331,"Long":-6.24889,"Timestamp":20181105014500,"Source":"https:\/\/www.dailymail.co.uk\/wires\/pa\/article-6349309\/Brexit-process-undermining-peace-Northern-Ireland-warns-Varadkar.html"},{"ID":800032500,"Actor1":"BELGIUM","Actor1_Country":"BEL","Actor2":"REGIME","Actor2_Country":null,"Code":10,"Class":1,"Action_Location":"Dublin, Dublin, Ireland","Lat":53.3331,"Long":-6.24889,"Timestamp":20181105014500,"Source":"https:\/\/www.dailymail.co.uk\/wires\/pa\/article-6349309\/Brexit-process-undermining-peace-Northern-Ireland-warns-Varadkar.html"},{"ID":800032501,"Actor1":"BELGIUM","Actor1_Country":"BEL","Actor2":"REGIME","Actor2_Country":null,"Code":20,"Class":1,"Action_Location":"Brussels, Bruxelles-Capitale, Belgium","Lat":50.8333,"Long":4.33333,"Timestamp":20181105014500,"Source":"https:\/\/www.dailymail.co.uk\/wires\/pa\/article-6349309\/Brexit-process-undermining-peace-Northern-Ireland-warns-Varadkar.html"},{"ID":800032502,"Actor1":"BELGIUM","Actor1_Country":"BEL","Actor2":"HOSPITAL","Actor2_Country":null,"Code":43,"Class":1,"Action_Location":"East Flanders, Region Flamande, Belgium","Lat":51.0,"Long":3.75,"Timestamp":20181105014500,"Source":"https:\/\/www.bbc.co.uk\/news\/uk-england-leeds-46018891"},{"ID":800032506,"Actor1":"BAHAMA","Actor1_Country":"BHS","Actor2":"PRISON","Actor2_Country":null,"Code":173,"Class":4,"Action_Location":"Bahamas, The","Lat":24.0,"Long":-76.0,"Timestamp":20181105014500,"Source":"https:\/\/prestonbusinessreview.com\/he-swore-he-had-nothing-to-do-with-wifes-death-at-sea-now-hes-expected-to-plead-guilty-to-manslaughter\/23587\/"},{"ID":800032507,"Actor1":"BAHAMA","Actor1_Country":"BHS","Actor2":"PROSECUTOR","Actor2_Country":null,"Code":40,"Class":1,"Action_Location":"Bahamas, The","Lat":24.0,"Long":-76.0,"Timestamp":20181105014500,"Source":"https:\/\/prestonbusinessreview.com\/he-swore-he-had-nothing-to-do-with-wifes-death-at-sea-now-hes-expected-to-plead-guilty-to-manslaughter\/23587\/"},{"ID":800032508,"Actor1":"BAHAMA","Actor1_Country":"BHS","Actor2":"PROSECUTOR","Actor2_Country":null,"Code":40,"Class":1,"Action_Location":"Bahamas, The","Lat":24.0,"Long":-76.0,"Timestamp":20181105014500,"Source":"https:\/\/prestonbusinessreview.com\/he-swore-he-had-nothing-to-do-with-wifes-death-at-sea-now-hes-expected-to-plead-guilty-to-manslaughter\/23587\/"},{"ID":800032510,"Actor1":"BRAZIL","Actor1_Country":"BRA","Actor2":"POLICE","Actor2_Country":null,"Code":43,"Class":1,"Action_Location":"Rio De Janeiro, Estado do Rio, Brazil","Lat":-22.9,"Long":-43.2333,"Timestamp":20181105014500,"Source":"https:\/\/www.dailymail.co.uk\/wires\/aap\/article-6350083\/Police-travel-Brazil-Haddad-murder.html"},{"ID":800032511,"Actor1":"BRAZIL","Actor1_Country":"BRA","Actor2":"GOVERNMENT","Actor2_Country":null,"Code":125,"Class":3,"Action_Location":"Brazil","Lat":-10.0,"Long":-55.0,"Timestamp":20181105014500,"Source":"https:\/\/www.thedailybeast.com\/brazils-next-president-jair-bolsonaro-declares-war-on-fake-news-media"},{"ID":800032530,"Actor1":"COMPANY","Actor1_Country":null,"Actor2":"SHANGHAI","Actor2_Country":"CHN","Code":33,"Class":1,"Action_Location":"Shanghai, Shanghai, China","Lat":31.2222,"Long":121.458,"Timestamp":20181105014500,"Source":"http:\/\/en.ce.cn\/main\/latest\/201811\/05\/t20181105_30703062.shtml"},{"ID":800032531,"Actor1":"BANK","Actor1_Country":null,"Actor2":"POLICE","Actor2_Country":null,"Code":43,"Class":1,"Action_Location":"Ariaria, Abia, Nigeria","Lat":5.10636,"Long":7.33232,"Timestamp":20181105014500,"Source":"https:\/\/www.newtelegraphng.com\/2018\/11\/idps-attack-action-aid-officials\/"},{"ID":800032532,"Actor1":"BANK","Actor1_Country":null,"Actor2":"POLICE","Actor2_Country":null,"Code":190,"Class":4,"Action_Location":"Ariaria, Abia, Nigeria","Lat":5.10636,"Long":7.33232,"Timestamp":20181105014500,"Source":"https:\/\/www.newtelegraphng.com\/2018\/11\/idps-attack-action-aid-officials\/"},{"ID":800032533,"Actor1":"COMPANY","Actor1_Country":null,"Actor2":"HUNTER","Actor2_Country":null,"Code":190,"Class":4,"Action_Location":"Toronto, Ontario, Canada","Lat":43.6667,"Long":-79.4167,"Timestamp":20181105014500,"Source":"https:\/\/www.theherald.com.au\/story\/5738441\/tax-agent-jailed-to-appeal\/"},{"ID":800032534,"Actor1":"INDUSTRY","Actor1_Country":null,"Actor2":"GOVERNMENT","Actor2_Country":null,"Code":12,"Class":1,"Action_Location":"Sydney, New South Wales, Australia","Lat":-33.8833,"Long":151.217,"Timestamp":20181105014500,"Source":"https:\/\/www.smh.com.au\/business\/banking-and-finance\/devil-in-the-detail-the-worry-about-westpac-s-results-20181105-p50e12.html"},{"ID":800032535,"Actor1":"COMPANY","Actor1_Country":null,"Actor2":"GOVERNMENT","Actor2_Country":null,"Code":130,"Class":3,"Action_Location":"Malaysia","Lat":2.5,"Long":112.5,"Timestamp":20181105014500,"Source":"http:\/\/theindependent.sg\/1mdb-scandal-cannot-happen-again-tun-mahathir\/"},{"ID":800032536,"Actor1":"EMPLOYER","Actor1_Country":null,"Actor2":"MALE","Actor2_Country":"MDV","Code":112,"Class":3,"Action_Location":"United States","Lat":39.828175,"Long":-98.5795,"Timestamp":20181105014500,"Source":"https:\/\/www.smartcompany.com.au\/people-human-resources\/google-employees-protest-sexual-misconduct\/"},{"ID":800032537,"Actor1":"COMPANY","Actor1_Country":null,"Actor2":"WEBSITE","Actor2_Country":null,"Code":10,"Class":1,"Action_Location":"United States","Lat":39.828175,"Long":-98.5795,"Timestamp":20181105014500,"Source":"https:\/\/www.dailypolitical.com\/2018\/11\/04\/15-92-billion-in-sales-expected-for-archer-daniels-midland-co-adm-this-quarter.html"},{"ID":800032538,"Actor1":"COMPANY","Actor1_Country":null,"Actor2":"GOOGLE","Actor2_Country":"USA","Code":51,"Class":1,"Action_Location":"Mountain View, California, United States","Lat":34.5064,"Long":-117.359,"Timestamp":20181105014500,"Source":"https:\/\/www.beaumontenterprise.com\/business\/technology\/article\/Google-employees-to-walk-out-to-protest-treatment-13353391.php"},{"ID":800032539,"Actor1":"COMPANY","Actor1_Country":null,"Actor2":"GOOGLE","Actor2_Country":"USA","Code":51,"Class":1,"Action_Location":"China","Lat":35.0,"Long":105.0,"Timestamp":20181105014500,"Source":"https:\/\/www.beaumontenterprise.com\/business\/technology\/article\/Google-employees-to-walk-out-to-protest-treatment-13353391.php"},{"ID":800032540,"Actor1":"BANK","Actor1_Country":null,"Actor2":"NEW ZEALAND","Actor2_Country":"NZL","Code":90,"Class":2,"Action_Location":"Wellington, New Zealand (general), New Zealand","Lat":-41.3,"Long":174.783,"Timestamp":20181105014500,"Source":"https:\/\/www.nzherald.co.nz\/business\/news\/article.cfm?c_id=3&objectid=12154769"},{"ID":800032541,"Actor1":"BANK","Actor1_Country":null,"Actor2":"NEW ZEALAND","Actor2_Country":"NZL","Code":110,"Class":3,"Action_Location":"Southland, Southland, New Zealand","Lat":-45.6667,"Long":168.0,"Timestamp":20181105014500,"Source":"https:\/\/www.nzherald.co.nz\/business\/news\/article.cfm?c_id=3&objectid=12154769"},{"ID":800032542,"Actor1":"COMPANY","Actor1_Country":null,"Actor2":"UNITED STATES","Actor2_Country":"USA","Code":10,"Class":1,"Action_Location":"Denver, Colorado, United States","Lat":39.7392,"Long":-104.985,"Timestamp":20181105014500,"Source":"https:\/\/www.beaumontenterprise.com\/news\/world\/article\/New-Orleans-restaurateur-aims-for-inclusivity-in-13361571.php"},{"ID":800032543,"Actor1":"BUSINESS","Actor1_Country":null,"Actor2":"OKLAHOMA CITY","Actor2_Country":"USA","Code":10,"Class":1,"Action_Location":"Oklahoma, United States","Lat":35.5376,"Long":-96.9247,"Timestamp":20181105014500,"Source":"https:\/\/www.dailymail.co.uk\/wires\/ap\/article-6349411\/Democrat-Edmondson-threatens-GOP-dominance-Oklahoma.html"},{"ID":800032544,"Actor1":"COMPANIES","Actor1_Country":null,"Actor2":"UNITED STATES","Actor2_Country":"USA","Code":43,"Class":1,"Action_Location":"New York, United States","Lat":42.1497,"Long":-74.9384,"Timestamp":20181105014500,"Source":"http:\/\/www.gothamgazette.com\/state\/8044-antonio-delgado-makes-final-pitch-in-bid-to-swing-new-york-19"},{"ID":800032545,"Actor1":"CENTRAL AFRICAN REPUBLIC","Actor1_Country":"CAF","Actor2":"AFRICA","Actor2_Country":"AFR","Code":73,"Class":2,"Action_Location":"Ndjamena, (CD04), Chad","Lat":12.1085,"Long":15.0482,"Timestamp":20181105014500,"Source":"https:\/\/www.africaleader.com\/news\/258233920\/six-sudanese-die-in-food-clash-at-refugee-camp-in-chad"},{"ID":800032546,"Actor1":"CENTRAL AFRICAN REPUBLIC","Actor1_Country":"CAF","Actor2":"AFRICA","Actor2_Country":"AFR","Code":73,"Class":2,"Action_Location":"Central African Republic","Lat":7.0,"Long":21.0,"Timestamp":20181105014500,"Source":"https:\/\/www.africaleader.com\/news\/258233920\/six-sudanese-die-in-food-clash-at-refugee-camp-in-chad"},{"ID":800032553,"Actor1":"CANADA","Actor1_Country":"CAN","Actor2":"AFRICA","Actor2_Country":"AFR","Code":51,"Class":1,"Action_Location":"Canada","Lat":60.0,"Long":-96.0,"Timestamp":20181105014500,"Source":"http:\/\/dailyhive.com\/vancouver\/events\/17241-trivo-fraser-union"},{"ID":800032554,"Actor1":"CANADIAN","Actor1_Country":"CAN","Actor2":"BRITISH","Actor2_Country":"GBR","Code":10,"Class":1,"Action_Location":"Passchendaele, Queensland, Australia","Lat":-28.55,"Long":151.85,"Timestamp":20181105014500,"Source":"https:\/\/vision.org.au\/radio\/2018\/11\/05\/the-remembrance-day-centenary-general-john-monash\/"},{"ID":800032555,"Actor1":"CANADIAN","Actor1_Country":"CAN","Actor2":"BRITISH","Actor2_Country":"GBR","Code":10,"Class":1,"Action_Location":"Germany","Lat":51.5,"Long":10.5,"Timestamp":20181105014500,"Source":"https:\/\/vision.org.au\/radio\/2018\/11\/05\/the-remembrance-day-centenary-general-john-monash\/"},{"ID":800032556,"Actor1":"CANADIAN","Actor1_Country":"CAN","Actor2":"UNITED KINGDOM","Actor2_Country":"GBR","Code":51,"Class":1,"Action_Location":"United Kingdom","Lat":54.0,"Long":-4.0,"Timestamp":20181105014500,"Source":"https:\/\/winnipegsun.com\/opinion\/columnists\/brodbeck-support-for-carbon-tax-still-soft-even-with-federal-rebate"},{"ID":800032557,"Actor1":"CANADIAN","Actor1_Country":"CAN","Actor2":"UNITED KINGDOM","Actor2_Country":"GBR","Code":190,"Class":4,"Action_Location":"Passchendaele, Queensland, Australia","Lat":-28.55,"Long":151.85,"Timestamp":20181105014500,"Source":"https:\/\/vision.org.au\/radio\/2018\/11\/05\/the-remembrance-day-centenary-general-john-monash\/"},{"ID":800032558,"Actor1":"CANADIAN","Actor1_Country":"CAN","Actor2":"BRITISH","Actor2_Country":"GBR","Code":190,"Class":4,"Action_Location":"United Kingdom","Lat":54.0,"Long":-4.0,"Timestamp":20181105014500,"Source":"https:\/\/vision.org.au\/radio\/2018\/11\/05\/the-remembrance-day-centenary-general-john-monash\/"},{"ID":800032559,"Actor1":"CANADA","Actor1_Country":"CAN","Actor2":"GOVERNMENT","Actor2_Country":null,"Code":120,"Class":3,"Action_Location":"Sarnia, Ontario, Canada","Lat":42.9667,"Long":-82.4,"Timestamp":20181105014500,"Source":"https:\/\/theprovince.com\/opinion\/columnists\/gossmann-why-im-opening-a-plant-in-u-s-instead-of-ontario\/wcm\/174fb732-5440-491c-a904-de017faa56db"},{"ID":800032560,"Actor1":"TORONTO","Actor1_Country":"CAN","Actor2":"DISTRICT COURT","Actor2_Country":null,"Code":20,"Class":1,"Action_Location":"Toronto, Ontario, Canada","Lat":43.6667,"Long":-79.4167,"Timestamp":20181105014500,"Source":"https:\/\/www.theherald.com.au\/story\/5738441\/tax-agent-jailed-to-appeal\/"},{"ID":800032561,"Actor1":"TORONTO","Actor1_Country":"CAN","Actor2":"DISTRICT COURT","Actor2_Country":null,"Code":81,"Class":2,"Action_Location":"Toronto, Ontario, Canada","Lat":43.6667,"Long":-79.4167,"Timestamp":20181105014500,"Source":"https:\/\/www.theherald.com.au\/story\/5738441\/tax-agent-jailed-to-appeal\/"},{"ID":800032562,"Actor1":"CANADA","Actor1_Country":"CAN","Actor2":"MEDIA","Actor2_Country":null,"Code":40,"Class":1,"Action_Location":"Carlton, Saskatchewan, Canada","Lat":52.8167,"Long":-106.5,"Timestamp":20181105014500,"Source":"https:\/\/www.benzinga.com\/pressreleases\/18\/11\/r12627599\/media-advisory-itinerary-for-monday-november-5-2018"},{"ID":800032563,"Actor1":"CANADA","Actor1_Country":"CAN","Actor2":"MEDIA","Actor2_Country":null,"Code":43,"Class":1,"Action_Location":"Carlton, Saskatchewan, Canada","Lat":52.8167,"Long":-106.5,"Timestamp":20181105014500,"Source":"https:\/\/www.benzinga.com\/pressreleases\/18\/11\/r12627599\/media-advisory-itinerary-for-monday-november-5-2018"},{"ID":800032564,"Actor1":"CANADA","Actor1_Country":"CAN","Actor2":"ZULU","Actor2_Country":null,"Code":36,"Class":1,"Action_Location":"Canada","Lat":60.0,"Long":-96.0,"Timestamp":20181105014500,"Source":"http:\/\/dailyhive.com\/vancouver\/events\/17241-trivo-fraser-union"},{"ID":800032565,"Actor1":"CANADA","Actor1_Country":"CAN","Actor2":"COMMUNITY","Actor2_Country":null,"Code":51,"Class":1,"Action_Location":"Vancouver, British Columbia, Canada","Lat":49.25,"Long":-123.133,"Timestamp":20181105014500,"Source":"https:\/\/nationalpost.com\/pmn\/news-pmn\/canada-news-pmn\/residents-of-b-c-community-displaced-by-slow-moving-landslide-can-return-home"},{"ID":800032566,"Actor1":"BASEL","Actor1_Country":"CHE","Actor2":"BANK","Actor2_Country":null,"Code":84,"Class":2,"Action_Location":"India","Lat":20.0,"Long":77.0,"Timestamp":20181105014500,"Source":"https:\/\/economictimes.indiatimes.com\/news\/economy\/policy\/section-7-invoked-only-after-rbi-ignored-government-wish-list\/articleshow\/66504582.cms"},{"ID":800032567,"Actor1":"BERN","Actor1_Country":"CHE","Actor2":"NEW JERSEY","Actor2_Country":"USA","Code":874,"Class":2,"Action_Location":"New Jersey, United States","Lat":40.314,"Long":-74.5089,"Timestamp":20181105014500,"Source":"https:\/\/www.witn.com\/content\/news\/Donations-travel-hundreds-of-miles-to-help-local-hurricane-victims-499583251.html"},{"ID":800032577,"Actor1":"CHINA","Actor1_Country":"CHN","Actor2":"AUSTRALIA","Actor2_Country":"AUS","Code":36,"Class":1,"Action_Location":"Beijing, Beijing, China","Lat":39.9289,"Long":116.388,"Timestamp":20181105014500,"Source":"https:\/\/www.abc.net.au\/news\/2018-11-05\/china-claims-free-trade-push-amid-us-trade-war-pressure\/10464848"},{"ID":800032578,"Actor1":"CHINA","Actor1_Country":"CHN","Actor2":"AUSTRALIA","Actor2_Country":"AUS","Code":36,"Class":1,"Action_Location":"Beijing, Beijing, China","Lat":39.9289,"Long":116.388,"Timestamp":20181105014500,"Source":"https:\/\/www.abc.net.au\/news\/2018-11-05\/china-claims-free-trade-push-amid-us-trade-war-pressure\/10464848"},{"ID":800032579,"Actor1":"CHINA","Actor1_Country":"CHN","Actor2":"AUSTRALIA","Actor2_Country":"AUS","Code":90,"Class":2,"Action_Location":"Beijing, Beijing, China","Lat":39.9289,"Long":116.388,"Timestamp":20181105014500,"Source":"https:\/\/www.abc.net.au\/news\/2018-11-05\/china-claims-free-trade-push-amid-us-trade-war-pressure\/10464848"},{"ID":800032580,"Actor1":"CHINA","Actor1_Country":"CHN","Actor2":"CAMEROON","Actor2_Country":"CMR","Code":43,"Class":1,"Action_Location":"Lankao, Shaanxi, China","Lat":32.3003,"Long":108.893,"Timestamp":20181105014500,"Source":"http:\/\/usa.chinadaily.com.cn\/a\/201811\/05\/WS5bdf98eca310eff3032867aa.html"},{"ID":800032581,"Actor1":"CHINA","Actor1_Country":"CHN","Actor2":"CAMEROON","Actor2_Country":"CMR","Code":43,"Class":1,"Action_Location":"Nkolo, Centre, Cameroon","Lat":4.41667,"Long":11.4167,"Timestamp":20181105014500,"Source":"http:\/\/usa.chinadaily.com.cn\/a\/201811\/05\/WS5bdf98eca310eff3032867aa.html"},{"ID":800032582,"Actor1":"CHINA","Actor1_Country":"CHN","Actor2":"DEPUTY","Actor2_Country":null,"Code":42,"Class":1,"Action_Location":"Hainan Province, Hainan, China","Lat":19.2,"Long":109.6,"Timestamp":20181105014500,"Source":"http:\/\/en.ce.cn\/main\/latest\/201811\/05\/t20181105_30703062.shtml"},{"ID":800032583,"Actor1":"CANTON","Actor1_Country":"CHN","Actor2":"DEPUTY","Actor2_Country":null,"Code":43,"Class":1,"Action_Location":"Shanghai, Shanghai, China","Lat":31.2222,"Long":121.458,"Timestamp":20181105014500,"Source":"http:\/\/en.ce.cn\/main\/latest\/201811\/05\/t20181105_30703062.shtml"},{"ID":800032584,"Actor1":"BEIJING","Actor1_Country":"CHN","Actor2":"MINIST","Actor2_Country":null,"Code":43,"Class":1,"Action_Location":"Beijing, Beijing, China","Lat":39.9289,"Long":116.388,"Timestamp":20181105014500,"Source":"https:\/\/www.abc.net.au\/news\/2018-11-05\/china-claims-free-trade-push-amid-us-trade-war-pressure\/10464848"},{"ID":800032585,"Actor1":"CHINA","Actor1_Country":"CHN","Actor2":"UNITED NATIONS","Actor2_Country":null,"Code":172,"Class":4,"Action_Location":"Tibet, Xizang, China","Lat":32.0,"Long":90.0,"Timestamp":20181105014500,"Source":"https:\/\/www.fredericknewspost.com\/public\/ap\/lodi-gyari-dalai-lama-s-emissary-and-a-tireless-advocate\/article_06af579c-83a7-50c1-b515-7fa2f31e5893.html"},{"ID":800032586,"Actor1":"CHINA","Actor1_Country":"CHN","Actor2":"UNITED NATIONS","Actor2_Country":null,"Code":172,"Class":4,"Action_Location":"Tibet, Xizang, China","Lat":32.0,"Long":90.0,"Timestamp":20181105014500,"Source":"https:\/\/www.fredericknewspost.com\/public\/ap\/lodi-gyari-dalai-lama-s-emissary-and-a-tireless-advocate\/article_06af579c-83a7-50c1-b515-7fa2f31e5893.html"},{"ID":800032587,"Actor1":"CHINA","Actor1_Country":"CHN","Actor2":"UNITED NATIONS","Actor2_Country":null,"Code":172,"Class":4,"Action_Location":"Dharamsala, Himachal Pradesh, India","Lat":32.2167,"Long":76.3167,"Timestamp":20181105014500,"Source":"https:\/\/www.fredericknewspost.com\/public\/ap\/lodi-gyari-dalai-lama-s-emissary-and-a-tireless-advocate\/article_06af579c-83a7-50c1-b515-7fa2f31e5893.html"},{"ID":800032588,"Actor1":"CHINA","Actor1_Country":"CHN","Actor2":"UNITED NATIONS","Actor2_Country":null,"Code":172,"Class":4,"Action_Location":"Dharamsala, Himachal Pradesh, India","Lat":32.2167,"Long":76.3167,"Timestamp":20181105014500,"Source":"https:\/\/www.fredericknewspost.com\/public\/ap\/lodi-gyari-dalai-lama-s-emissary-and-a-tireless-advocate\/article_06af579c-83a7-50c1-b515-7fa2f31e5893.html"},{"ID":800032589,"Actor1":"BEIJING","Actor1_Country":"CHN","Actor2":"TOKYO","Actor2_Country":"JPN","Code":110,"Class":3,"Action_Location":"Beijing, Beijing, China","Lat":39.9289,"Long":116.388,"Timestamp":20181105014500,"Source":"https:\/\/ktelegram.com\/japan-and-the-united-states-are-preparing-a-plan-to-respond-to-the-threat-of-china-near-the-senkaku-islands-media-24-channel\/52774\/"},{"ID":800032590,"Actor1":"CHINA","Actor1_Country":"CHN","Actor2":"JAPAN","Actor2_Country":"JPN","Code":110,"Class":3,"Action_Location":"Beijing, Beijing, China","Lat":39.9289,"Long":116.388,"Timestamp":20181105014500,"Source":"https:\/\/ktelegram.com\/japan-and-the-united-states-are-preparing-a-plan-to-respond-to-the-threat-of-china-near-the-senkaku-islands-media-24-channel\/52774\/"},{"ID":800032591,"Actor1":"CHINESE","Actor1_Country":"CHN","Actor2":"SUPREME COURT","Actor2_Country":null,"Code":20,"Class":1,"Action_Location":"Washington, District of Columbia, United States","Lat":38.8951,"Long":-77.0364,"Timestamp":20181105014500,"Source":"https:\/\/www.dailymail.co.uk\/wires\/ap\/article-6349291\/AP-FACT-CHECK-Trumps-distortions-immigration.html"},{"ID":800032592,"Actor1":"CHINESE","Actor1_Country":"CHN","Actor2":"SUPREME COURT","Actor2_Country":null,"Code":20,"Class":1,"Action_Location":"China","Lat":35.0,"Long":105.0,"Timestamp":20181105014500,"Source":"https:\/\/www.dailymail.co.uk\/wires\/ap\/article-6349291\/AP-FACT-CHECK-Trumps-distortions-immigration.html"},{"ID":800032593,"Actor1":"CHINESE","Actor1_Country":"CHN","Actor2":"SUPREME COURT","Actor2_Country":null,"Code":110,"Class":3,"Action_Location":"Washington, District of Columbia, United States","Lat":38.8951,"Long":-77.0364,"Timestamp":20181105014500,"Source":"https:\/\/www.dailymail.co.uk\/wires\/ap\/article-6349291\/AP-FACT-CHECK-Trumps-distortions-immigration.html"},{"ID":800032594,"Actor1":"CHINESE","Actor1_Country":"CHN","Actor2":"SUPREME COURT","Actor2_Country":null,"Code":110,"Class":3,"Action_Location":"Washington, District of Columbia, United States","Lat":38.8951,"Long":-77.0364,"Timestamp":20181105014500,"Source":"https:\/\/www.dailymail.co.uk\/wires\/ap\/article-6349291\/AP-FACT-CHECK-Trumps-distortions-immigration.html"},{"ID":800032595,"Actor1":"CHINESE","Actor1_Country":"CHN","Actor2":"SUPREME COURT","Actor2_Country":null,"Code":173,"Class":4,"Action_Location":"Washington, District of Columbia, United States","Lat":38.8951,"Long":-77.0364,"Timestamp":20181105014500,"Source":"https:\/\/www.dailymail.co.uk\/wires\/ap\/article-6349291\/AP-FACT-CHECK-Trumps-distortions-immigration.html"},{"ID":800032596,"Actor1":"CHINESE","Actor1_Country":"CHN","Actor2":"SUPREME COURT","Actor2_Country":null,"Code":173,"Class":4,"Action_Location":"China","Lat":35.0,"Long":105.0,"Timestamp":20181105014500,"Source":"https:\/\/www.dailymail.co.uk\/wires\/ap\/article-6349291\/AP-FACT-CHECK-Trumps-distortions-immigration.html"},{"ID":800032597,"Actor1":"CHINA","Actor1_Country":"CHN","Actor2":"REPRESENTATIVES","Actor2_Country":null,"Code":26,"Class":1,"Action_Location":"Tibet, Xizang, China","Lat":32.0,"Long":90.0,"Timestamp":20181105014500,"Source":"https:\/\/www.fredericknewspost.com\/public\/ap\/lodi-gyari-dalai-lama-s-emissary-and-a-tireless-advocate\/article_06af579c-83a7-50c1-b515-7fa2f31e5893.html"},{"ID":800032598,"Actor1":"CHINA","Actor1_Country":"CHN","Actor2":"BORDER SECURITY","Actor2_Country":null,"Code":110,"Class":3,"Action_Location":"China","Lat":35.0,"Long":105.0,"Timestamp":20181105014500,"Source":"https:\/\/www.dailymail.co.uk\/wires\/ap\/article-6349379\/Democrat-McCaskill-reaches-right-GOP-leaning-Missouri.html"},{"ID":800032599,"Actor1":"CHINA","Actor1_Country":"CHN","Actor2":"GOVERNMENT IN EXILE","Actor2_Country":null,"Code":80,"Class":2,"Action_Location":"Tibet, Xizang, China","Lat":32.0,"Long":90.0,"Timestamp":20181105014500,"Source":"https:\/\/www.fredericknewspost.com\/public\/ap\/lodi-gyari-dalai-lama-s-emissary-and-a-tireless-advocate\/article_06af579c-83a7-50c1-b515-7fa2f31e5893.html"},{"ID":800032600,"Actor1":"CHINA","Actor1_Country":"CHN","Actor2":"PAKISTANI","Actor2_Country":"PAK","Code":43,"Class":1,"Action_Location":"Beijing, Beijing, China","Lat":39.9289,"Long":116.388,"Timestamp":20181105014500,"Source":"https:\/\/nationalinterest.org\/feature\/pakistan%E2%80%99s-imran-khan-heads-china-major-implications-belt-and-road-initiative-34897"},{"ID":800032601,"Actor1":"CHINA","Actor1_Country":"CHN","Actor2":"PAKISTAN","Actor2_Country":"PAK","Code":43,"Class":1,"Action_Location":"Fujian, Fujian, China","Lat":26.545,"Long":117.843,"Timestamp":20181105014500,"Source":"http:\/\/usa.chinadaily.com.cn\/a\/201811\/05\/WS5bdf98eca310eff3032867aa.html"},{"ID":800032602,"Actor1":"CHINA","Actor1_Country":"CHN","Actor2":"PAKISTANI","Actor2_Country":"PAK","Code":43,"Class":1,"Action_Location":"Islamabad, Islamabad, Pakistan","Lat":33.7,"Long":73.1667,"Timestamp":20181105014500,"Source":"https:\/\/nationalinterest.org\/feature\/pakistan%E2%80%99s-imran-khan-heads-china-major-implications-belt-and-road-initiative-34897"},{"ID":800032603,"Actor1":"CHINA","Actor1_Country":"CHN","Actor2":"PAKISTAN","Actor2_Country":"PAK","Code":43,"Class":1,"Action_Location":"Pakistan","Lat":30.0,"Long":70.0,"Timestamp":20181105014500,"Source":"http:\/\/usa.chinadaily.com.cn\/a\/201811\/05\/WS5bdf98eca310eff3032867aa.html"},{"ID":800032604,"Actor1":"CHINA","Actor1_Country":"CHN","Actor2":"PAKISTANI","Actor2_Country":"PAK","Code":43,"Class":1,"Action_Location":"Beijing, Beijing, China","Lat":39.9289,"Long":116.388,"Timestamp":20181105014500,"Source":"https:\/\/nationalinterest.org\/feature\/pakistan%E2%80%99s-imran-khan-heads-china-major-implications-belt-and-road-initiative-34897"},{"ID":800032605,"Actor1":"CHINA","Actor1_Country":"CHN","Actor2":"CLERIC","Actor2_Country":null,"Code":43,"Class":1,"Action_Location":"China","Lat":35.0,"Long":105.0,"Timestamp":20181105014500,"Source":"https:\/\/www.sofmag.com\/who-assassinated-pakistani-cleric-known-as-father-of-afghan-taliban\/"},{"ID":800032606,"Actor1":"CHINA","Actor1_Country":"CHN","Actor2":"MONASTERY","Actor2_Country":null,"Code":874,"Class":2,"Action_Location":"Tibet, Xizang, China","Lat":32.0,"Long":90.0,"Timestamp":20181105014500,"Source":"https:\/\/www.fredericknewspost.com\/public\/ap\/lodi-gyari-dalai-lama-s-emissary-and-a-tireless-advocate\/article_06af579c-83a7-50c1-b515-7fa2f31e5893.html"},{"ID":800032607,"Actor1":"CHINA","Actor1_Country":"CHN","Actor2":"UNITED STATES","Actor2_Country":"USA","Code":42,"Class":1,"Action_Location":"Tibet, Xizang, China","Lat":32.0,"Long":90.0,"Timestamp":20181105014500,"Source":"https:\/\/www.fredericknewspost.com\/public\/ap\/lodi-gyari-dalai-lama-s-emissary-and-a-tireless-advocate\/article_06af579c-83a7-50c1-b515-7fa2f31e5893.html"},{"ID":800032608,"Actor1":"CHINA","Actor1_Country":"CHN","Actor2":"UNITED STATES","Actor2_Country":"USA","Code":42,"Class":1,"Action_Location":"Washington, District of Columbia, United States","Lat":38.8951,"Long":-77.0364,"Timestamp":20181105014500,"Source":"https:\/\/www.fredericknewspost.com\/public\/ap\/lodi-gyari-dalai-lama-s-emissary-and-a-tireless-advocate\/article_06af579c-83a7-50c1-b515-7fa2f31e5893.html"},{"ID":800032609,"Actor1":"CHINA","Actor1_Country":"CHN","Actor2":"UNITED STATES","Actor2_Country":"USA","Code":172,"Class":4,"Action_Location":"Tibet, Xizang, China","Lat":32.0,"Long":90.0,"Timestamp":20181105014500,"Source":"https:\/\/www.fredericknewspost.com\/public\/ap\/lodi-gyari-dalai-lama-s-emissary-and-a-tireless-advocate\/article_06af579c-83a7-50c1-b515-7fa2f31e5893.html"},{"ID":800032610,"Actor1":"CHINA","Actor1_Country":"CHN","Actor2":"UNITED STATES","Actor2_Country":"USA","Code":172,"Class":4,"Action_Location":"Tibet, Xizang, China","Lat":32.0,"Long":90.0,"Timestamp":20181105014500,"Source":"https:\/\/www.fredericknewspost.com\/public\/ap\/lodi-gyari-dalai-lama-s-emissary-and-a-tireless-advocate\/article_06af579c-83a7-50c1-b515-7fa2f31e5893.html"},{"ID":800032611,"Actor1":"BEIJING","Actor1_Country":"CHN","Actor2":"US OFFICIAL","Actor2_Country":"USA","Code":190,"Class":4,"Action_Location":"Beijing, Beijing, China","Lat":39.9289,"Long":116.388,"Timestamp":20181105014500,"Source":"https:\/\/www.abc.net.au\/news\/2018-11-05\/china-claims-free-trade-push-amid-us-trade-war-pressure\/10464848"},{"ID":800032612,"Actor1":"CHINA","Actor1_Country":"CHN","Actor2":"US OFFICIAL","Actor2_Country":"USA","Code":190,"Class":4,"Action_Location":"Beijing, Beijing, China","Lat":39.9289,"Long":116.388,"Timestamp":20181105014500,"Source":"https:\/\/www.abc.net.au\/news\/2018-11-05\/china-claims-free-trade-push-amid-us-trade-war-pressure\/10464848"},{"ID":800032613,"Actor1":"SHANGHAI","Actor1_Country":"CHN","Actor2":"VIETNAM","Actor2_Country":"VNM","Code":43,"Class":1,"Action_Location":"Quang Ngai, Qu?ng Ng\u00e3VM, Vietnam, Republic Of","Lat":15.1167,"Long":108.8,"Timestamp":20181105014500,"Source":"https:\/\/www.vir.com.vn\/pm-phuc-to-attend-china-trade-expo-63548.html"},{"ID":800032614,"Actor1":"SHANGHAI","Actor1_Country":"CHN","Actor2":"NGUYEN XUAN PHUC","Actor2_Country":"VNM","Code":43,"Class":1,"Action_Location":"Shanghai, Shanghai, China","Lat":31.2222,"Long":121.458,"Timestamp":20181105014500,"Source":"https:\/\/www.vir.com.vn\/pm-phuc-to-attend-china-trade-expo-63548.html"},{"ID":800032615,"Actor1":"SHANGHAI","Actor1_Country":"CHN","Actor2":"VIETNAM","Actor2_Country":"VNM","Code":43,"Class":1,"Action_Location":"Quang Ngai, Qu?ng Ng\u00e3VM, Vietnam, Republic Of","Lat":15.1167,"Long":108.8,"Timestamp":20181105014500,"Source":"https:\/\/www.vir.com.vn\/pm-phuc-to-attend-china-trade-expo-63548.html"},{"ID":800032616,"Actor1":"CHINESE","Actor1_Country":"CHN","Actor2":"TIBETAN","Actor2_Country":null,"Code":43,"Class":1,"Action_Location":"Tibet, Xizang, China","Lat":32.0,"Long":90.0,"Timestamp":20181105014500,"Source":"https:\/\/www.fredericknewspost.com\/public\/ap\/lodi-gyari-dalai-lama-s-emissary-and-a-tireless-advocate\/article_06af579c-83a7-50c1-b515-7fa2f31e5893.html"},{"ID":800032617,"Actor1":"CHINA","Actor1_Country":"CHN","Actor2":"TIBETAN","Actor2_Country":null,"Code":170,"Class":4,"Action_Location":"Tibet, Xizang, China","Lat":32.0,"Long":90.0,"Timestamp":20181105014500,"Source":"https:\/\/www.fredericknewspost.com\/public\/ap\/lodi-gyari-dalai-lama-s-emissary-and-a-tireless-advocate\/article_06af579c-83a7-50c1-b515-7fa2f31e5893.html"},{"ID":800032618,"Actor1":"CHINESE","Actor1_Country":"CHN","Actor2":"SUPREME COURT","Actor2_Country":null,"Code":20,"Class":1,"Action_Location":"China","Lat":35.0,"Long":105.0,"Timestamp":20181105014500,"Source":"https:\/\/www.dailymail.co.uk\/wires\/ap\/article-6349291\/AP-FACT-CHECK-Trumps-distortions-immigration.html"},{"ID":800032619,"Actor1":"CHINESE","Actor1_Country":"CHN","Actor2":"SUPREME COURT","Actor2_Country":null,"Code":110,"Class":3,"Action_Location":"China","Lat":35.0,"Long":105.0,"Timestamp":20181105014500,"Source":"https:\/\/www.dailymail.co.uk\/wires\/ap\/article-6349291\/AP-FACT-CHECK-Trumps-distortions-immigration.html"},{"ID":800032620,"Actor1":"CHINESE","Actor1_Country":"CHN","Actor2":"SUPREME COURT","Actor2_Country":null,"Code":173,"Class":4,"Action_Location":"China","Lat":35.0,"Long":105.0,"Timestamp":20181105014500,"Source":"https:\/\/www.dailymail.co.uk\/wires\/ap\/article-6349291\/AP-FACT-CHECK-Trumps-distortions-immigration.html"},{"ID":800032621,"Actor1":"CHINA","Actor1_Country":"CHN","Actor2":"SHANGHAI","Actor2_Country":"CHN","Code":26,"Class":1,"Action_Location":"Shanghai, Shanghai, China","Lat":31.2222,"Long":121.458,"Timestamp":20181105014500,"Source":"https:\/\/www.vir.com.vn\/pm-phuc-to-attend-china-trade-expo-63548.html"},{"ID":800032622,"Actor1":"CHINA","Actor1_Country":"CHN","Actor2":"EMISSARY","Actor2_Country":null,"Code":50,"Class":1,"Action_Location":"Tibet, Xizang, China","Lat":32.0,"Long":90.0,"Timestamp":20181105014500,"Source":"https:\/\/www.fredericknewspost.com\/public\/ap\/lodi-gyari-dalai-lama-s-emissary-and-a-tireless-advocate\/article_06af579c-83a7-50c1-b515-7fa2f31e5893.html"},{"ID":800032623,"Actor1":"CHINA","Actor1_Country":"CHN","Actor2":"AUTHORITIES","Actor2_Country":null,"Code":1014,"Class":3,"Action_Location":"China","Lat":35.0,"Long":105.0,"Timestamp":20181105014500,"Source":"https:\/\/www.sofmag.com\/who-assassinated-pakistani-cleric-known-as-father-of-afghan-taliban\/"},{"ID":800032624,"Actor1":"CHINA","Actor1_Country":"CHN","Actor2":"CLERIC","Actor2_Country":null,"Code":18,"Class":1,"Action_Location":"China","Lat":35.0,"Long":105.0,"Timestamp":20181105014500,"Source":"https:\/\/www.sofmag.com\/who-assassinated-pakistani-cleric-known-as-father-of-afghan-taliban\/"},{"ID":800032625,"Actor1":"CHRISTIAN","Actor1_Country":null,"Actor2":"HOLY SEE","Actor2_Country":"VAT","Code":40,"Class":1,"Action_Location":"Echmiatsin, Armavir, Armenia","Lat":40.1656,"Long":44.2946,"Timestamp":20181105014500,"Source":"http:\/\/setasarmenian.blogspot.com\/2018\/11\/armenian-newsjohn-bolton-remarks-in.html"},{"ID":800032626,"Actor1":"PRESBYTERIAN","Actor1_Country":null,"Actor2":"UNITED STATES","Actor2_Country":"USA","Code":51,"Class":1,"Action_Location":"Illinois, United States","Lat":40.3363,"Long":-89.0022,"Timestamp":20181105014500,"Source":"https:\/\/www.beaumontenterprise.com\/news\/article\/8216-A-very-grand-gesture-8217-Elijah-P-13362320.php"},{"ID":800032627,"Actor1":"PRESBYTERIAN","Actor1_Country":null,"Actor2":"MAINE","Actor2_Country":"USA","Code":51,"Class":1,"Action_Location":"Maine, United States","Lat":44.6074,"Long":-69.3977,"Timestamp":20181105014500,"Source":"https:\/\/www.beaumontenterprise.com\/news\/article\/8216-A-very-grand-gesture-8217-Elijah-P-13362320.php"},{"ID":800032630,"Actor1":"CAMEROON","Actor1_Country":"CMR","Actor2":"AFRICA","Actor2_Country":"AFR","Code":42,"Class":1,"Action_Location":"Fujian, Fujian, China","Lat":26.545,"Long":117.843,"Timestamp":20181105014500,"Source":"http:\/\/usa.chinadaily.com.cn\/a\/201811\/05\/WS5bdf98eca310eff3032867aa.html"},{"ID":800032631,"Actor1":"CAMEROON","Actor1_Country":"CMR","Actor2":"AFRICA","Actor2_Country":"AFR","Code":42,"Class":1,"Action_Location":"Nkolo, Centre, Cameroon","Lat":4.41667,"Long":11.4167,"Timestamp":20181105014500,"Source":"http:\/\/usa.chinadaily.com.cn\/a\/201811\/05\/WS5bdf98eca310eff3032867aa.html"},{"ID":800032632,"Actor1":"CAMEROON","Actor1_Country":"CMR","Actor2":"CHINA","Actor2_Country":"CHN","Code":42,"Class":1,"Action_Location":"Lankao, Shaanxi, China","Lat":32.3003,"Long":108.893,"Timestamp":20181105014500,"Source":"http:\/\/usa.chinadaily.com.cn\/a\/201811\/05\/WS5bdf98eca310eff3032867aa.html"},{"ID":800032633,"Actor1":"CAMEROON","Actor1_Country":"CMR","Actor2":"CHINA","Actor2_Country":"CHN","Code":42,"Class":1,"Action_Location":"Nkolo, Centre, Cameroon","Lat":4.41667,"Long":11.4167,"Timestamp":20181105014500,"Source":"http:\/\/usa.chinadaily.com.cn\/a\/201811\/05\/WS5bdf98eca310eff3032867aa.html"},{"ID":800032634,"Actor1":"KINSHASA","Actor1_Country":"COD","Actor2":"DEPUTY","Actor2_Country":null,"Code":40,"Class":1,"Action_Location":"Kinshasa, Kinshasa, Democratic Republic Of The Congo","Lat":-4.32972,"Long":15.315,"Timestamp":20181105014500,"Source":"https:\/\/www.plenglish.com\/index.php?o=rn&id=35537&SEO=who-director-will-visit-congolese-areas-affected-by-ebola"},{"ID":800032655,"Actor1":"DEPUTY","Actor1_Country":null,"Actor2":"AFRICA","Actor2_Country":"AFR","Code":42,"Class":1,"Action_Location":"Nkolo, Centre, Cameroon","Lat":4.41667,"Long":11.4167,"Timestamp":20181105014500,"Source":"http:\/\/usa.chinadaily.com.cn\/a\/201811\/05\/WS5bdf98eca310eff3032867aa.html"},{"ID":800032656,"Actor1":"DEPUTY","Actor1_Country":null,"Actor2":"AFRICA","Actor2_Country":"AFR","Code":42,"Class":1,"Action_Location":"Nkolo, Centre, Cameroon","Lat":4.41667,"Long":11.4167,"Timestamp":20181105014500,"Source":"http:\/\/usa.chinadaily.com.cn\/a\/201811\/05\/WS5bdf98eca310eff3032867aa.html"},{"ID":800032658,"Actor1":"POLICE","Actor1_Country":null,"Actor2":"AUSTRALIA","Actor2_Country":"AUS","Code":190,"Class":4,"Action_Location":"Sydney, New South Wales, Australia","Lat":-33.8833,"Long":151.217,"Timestamp":20181105014500,"Source":"https:\/\/www.dailymail.co.uk\/wires\/aap\/article-6350083\/Police-travel-Brazil-Haddad-murder.html"},{"ID":800032660,"Actor1":"POLICE","Actor1_Country":null,"Actor2":"BRAZIL","Actor2_Country":"BRA","Code":42,"Class":1,"Action_Location":"Rio De Janeiro, Estado do Rio, Brazil","Lat":-22.9,"Long":-43.2333,"Timestamp":20181105014500,"Source":"https:\/\/www.dailymail.co.uk\/wires\/aap\/article-6350083\/Police-travel-Brazil-Haddad-murder.html"},{"ID":800032661,"Actor1":"POLICE","Actor1_Country":null,"Actor2":"BRAZIL","Actor2_Country":"BRA","Code":190,"Class":4,"Action_Location":"Rio De Janeiro, Estado do Rio, Brazil","Lat":-22.9,"Long":-43.2333,"Timestamp":20181105014500,"Source":"https:\/\/www.dailymail.co.uk\/wires\/aap\/article-6350083\/Police-travel-Brazil-Haddad-murder.html"},{"ID":800032662,"Actor1":"POLICE","Actor1_Country":null,"Actor2":"BANK","Actor2_Country":null,"Code":42,"Class":1,"Action_Location":"Ariaria, Abia, Nigeria","Lat":5.10636,"Long":7.33232,"Timestamp":20181105014500,"Source":"https:\/\/www.newtelegraphng.com\/2018\/11\/idps-attack-action-aid-officials\/"},{"ID":800032663,"Actor1":"POLICE","Actor1_Country":null,"Actor2":"OTTAWA","Actor2_Country":"CAN","Code":190,"Class":4,"Action_Location":"Ottawa, Ontario, Canada","Lat":45.4167,"Long":-75.7,"Timestamp":20181105014500,"Source":"https:\/\/www.siasat.com\/news\/plane-crashes-after-mid-air-collision-canada-1428062\/"},{"ID":800032664,"Actor1":"DEPUTY","Actor1_Country":null,"Actor2":"CANTON","Actor2_Country":"CHN","Code":42,"Class":1,"Action_Location":"Shanghai, Shanghai, China","Lat":31.2222,"Long":121.458,"Timestamp":20181105014500,"Source":"http:\/\/en.ce.cn\/main\/latest\/201811\/05\/t20181105_30703062.shtml"},{"ID":800032665,"Actor1":"DEPUTY","Actor1_Country":null,"Actor2":"CHINA","Actor2_Country":"CHN","Code":43,"Class":1,"Action_Location":"Shanghai, Shanghai, China","Lat":31.2222,"Long":121.458,"Timestamp":20181105014500,"Source":"http:\/\/en.ce.cn\/main\/latest\/201811\/05\/t20181105_30703062.shtml"},{"ID":800032666,"Actor1":"DEPUTY","Actor1_Country":null,"Actor2":"KINSHASA","Actor2_Country":"COD","Code":40,"Class":1,"Action_Location":"Kinshasa, Kinshasa, Democratic Republic Of The Congo","Lat":-4.32972,"Long":15.315,"Timestamp":20181105014500,"Source":"https:\/\/www.plenglish.com\/index.php?o=rn&id=35537&SEO=who-director-will-visit-congolese-areas-affected-by-ebola"},{"ID":800032667,"Actor1":"DEPUTY","Actor1_Country":null,"Actor2":"KINSHASA","Actor2_Country":"COD","Code":40,"Class":1,"Action_Location":"Kivu, Congo, Democratic Republic of The (general), Democratic Republic Of The Congo","Lat":-2.5,"Long":28.0,"Timestamp":20181105014500,"Source":"https:\/\/www.plenglish.com\/index.php?o=rn&id=35537&SEO=who-director-will-visit-congolese-areas-affected-by-ebola"},{"ID":800032668,"Actor1":"POLICE","Actor1_Country":null,"Actor2":"ROBBER","Actor2_Country":null,"Code":173,"Class":4,"Action_Location":"Lagos, Lagos, Nigeria","Lat":6.45306,"Long":3.39583,"Timestamp":20181105014500,"Source":"http:\/\/thenationonlineng.net\/police-arrest-suspected-traffic-robbers\/"},{"ID":800032670,"Actor1":"POLICE","Actor1_Country":null,"Actor2":"STUDENT","Actor2_Country":null,"Code":43,"Class":1,"Action_Location":"Abohar, Punjab, India","Lat":30.15,"Long":74.1833,"Timestamp":20181105014500,"Source":"https:\/\/www.nyoooz.com\/news\/ludhiana\/1248408\/strip-search-row-fresh-complaint-filed-girls-parents-demand-suspension-of-teachers\/"},{"ID":800032671,"Actor1":"SECURITY FORCE","Actor1_Country":null,"Actor2":"SINAI","Actor2_Country":"EGY","Code":138,"Class":3,"Action_Location":"Minya, Al Minya, Egypt","Lat":28.1099,"Long":30.7503,"Timestamp":20181105014500,"Source":"https:\/\/www.dailymail.co.uk\/wires\/afp\/article-6349565\/Despite-pressure-Egypt-IS-able-strike.html"},{"ID":800032673,"Actor1":"POLICE","Actor1_Country":null,"Actor2":"ATHENS","Actor2_Country":"GRC","Code":190,"Class":4,"Action_Location":"Athens, Attik\u00edR, Greece","Lat":37.9833,"Long":23.7333,"Timestamp":20181105014500,"Source":"https:\/\/www.dailymail.co.uk\/wires\/ap\/article-6349847\/Greek-police-arrest-man-ancient-column.html"},{"ID":800032674,"Actor1":"POLICE","Actor1_Country":null,"Actor2":"MALE","Actor2_Country":"MDV","Code":190,"Class":4,"Action_Location":"Junagadh, Gujarat, India","Lat":21.5167,"Long":70.4667,"Timestamp":20181105014500,"Source":"https:\/\/www.nyoooz.com\/news\/rajkot\/1248389\/threeyearold-leopard-run-over-in-vanthali-taluka\/"},{"ID":800032675,"Actor1":"POLICE OFFICER","Actor1_Country":null,"Actor2":"ACTIVIST","Actor2_Country":null,"Code":173,"Class":4,"Action_Location":"Mukendi, Congo, Democratic Republic of The (general), Democratic Republic Of The Congo","Lat":-6.7,"Long":23.6833,"Timestamp":20181105014500,"Source":"https:\/\/www.africaleader.com\/news\/258239921\/lawyers-for-slain-drc-activist-file-complaint-against-police-chief"},{"ID":800032676,"Actor1":"POLICE","Actor1_Country":null,"Actor2":"SINGAPORE","Actor2_Country":"SGP","Code":10,"Class":1,"Action_Location":"Jurong, Singapore (general), Singapore","Lat":1.33417,"Long":103.723,"Timestamp":20181105014500,"Source":"https:\/\/www.thestar.com.my\/news\/regional\/2018\/11\/05\/security-guard-arrested-for-aggravated-outrage-of-modesty-against-resident\/"},{"ID":800032677,"Actor1":"POLICE","Actor1_Country":null,"Actor2":"UNITED STATES","Actor2_Country":"USA","Code":173,"Class":4,"Action_Location":"New York, United States","Lat":42.1497,"Long":-74.9384,"Timestamp":20181105014500,"Source":"https:\/\/fox5sandiego.com\/2018\/11\/04\/brother-shares-legacy-of-sailor-shot-by-driver-he-stopped-to-help\/"},{"ID":800032678,"Actor1":"POLICE","Actor1_Country":null,"Actor2":"FLORIDA","Actor2_Country":"USA","Code":180,"Class":4,"Action_Location":"Volusia County, Florida, United States","Lat":29.0836,"Long":-81.2081,"Timestamp":20181105014500,"Source":"https:\/\/www.dailymail.co.uk\/wires\/ap\/article-6349343\/Florida-teenager-charged-strangling-burying-mother.html"},{"ID":800032679,"Actor1":"POLICE","Actor1_Country":null,"Actor2":"PENNSYLVANIA","Actor2_Country":"USA","Code":193,"Class":4,"Action_Location":"Pennsylvania, United States","Lat":40.5773,"Long":-77.264,"Timestamp":20181105014500,"Source":"https:\/\/www.nbcphiladelphia.com\/news\/local\/New-Hope-Pennsylvania-Police-Ferry-Street-Possible-Shooting-499578271.html"},{"ID":800032683,"Actor1":"CRIMINAL","Actor1_Country":null,"Actor2":"ARMENIA","Actor2_Country":"ARM","Code":190,"Class":4,"Action_Location":"Azeri, Vayots' Dzor, Armenia","Lat":39.7195,"Long":45.6474,"Timestamp":20181105014500,"Source":"http:\/\/setasarmenian.blogspot.com\/2018\/11\/armenian-newsjohn-bolton-remarks-in.html"},{"ID":800032684,"Actor1":"CRIMINAL","Actor1_Country":null,"Actor2":"GUNMAN","Actor2_Country":null,"Code":114,"Class":3,"Action_Location":"Sutherland Springs, Texas, United States","Lat":29.2733,"Long":-98.0567,"Timestamp":20181105014500,"Source":"https:\/\/www.houstonchronicle.com\/news\/local\/article\/Sutherland-Springs-church-congregants-say-Not-13343667.php"},{"ID":800032685,"Actor1":"CRIMINAL","Actor1_Country":null,"Actor2":"GUNMAN","Actor2_Country":null,"Code":114,"Class":3,"Action_Location":"Sutherland Springs, Texas, United States","Lat":29.2733,"Long":-98.0567,"Timestamp":20181105014500,"Source":"https:\/\/www.houstonchronicle.com\/news\/local\/article\/Sutherland-Springs-church-congregants-say-Not-13343667.php"},{"ID":800032686,"Actor1":"CRIMINAL","Actor1_Country":null,"Actor2":"GUNMAN","Actor2_Country":null,"Code":114,"Class":3,"Action_Location":"Temple Beth-El, Texas, United States","Lat":32.0896,"Long":-96.4686,"Timestamp":20181105014500,"Source":"https:\/\/www.houstonchronicle.com\/news\/local\/article\/Sutherland-Springs-church-congregants-say-Not-13343667.php"},{"ID":800032687,"Actor1":"CRIMINAL","Actor1_Country":null,"Actor2":"GUNMAN","Actor2_Country":null,"Code":114,"Class":3,"Action_Location":"Temple Beth-El, Texas, United States","Lat":32.0896,"Long":-96.4686,"Timestamp":20181105014500,"Source":"https:\/\/www.houstonchronicle.com\/news\/local\/article\/Sutherland-Springs-church-congregants-say-Not-13343667.php"},{"ID":800032688,"Actor1":"CRIMINAL","Actor1_Country":null,"Actor2":"GUNMAN","Actor2_Country":null,"Code":173,"Class":4,"Action_Location":"Sutherland Springs, Texas, United States","Lat":29.2733,"Long":-98.0567,"Timestamp":20181105014500,"Source":"https:\/\/www.houstonchronicle.com\/news\/local\/article\/Sutherland-Springs-church-congregants-say-Not-13343667.php"},{"ID":800032689,"Actor1":"CRIMINAL","Actor1_Country":null,"Actor2":"GUNMAN","Actor2_Country":null,"Code":173,"Class":4,"Action_Location":"Sutherland Springs, Texas, United States","Lat":29.2733,"Long":-98.0567,"Timestamp":20181105014500,"Source":"https:\/\/www.houstonchronicle.com\/news\/local\/article\/Sutherland-Springs-church-congregants-say-Not-13343667.php"},{"ID":800032690,"Actor1":"CRIMINAL","Actor1_Country":null,"Actor2":"GUNMAN","Actor2_Country":null,"Code":173,"Class":4,"Action_Location":"Temple Beth-El, Texas, United States","Lat":32.0896,"Long":-96.4686,"Timestamp":20181105014500,"Source":"https:\/\/www.houstonchronicle.com\/news\/local\/article\/Sutherland-Springs-church-congregants-say-Not-13343667.php"},{"ID":800032691,"Actor1":"CRIMINAL","Actor1_Country":null,"Actor2":"MASSACHUSETTS","Actor2_Country":"USA","Code":112,"Class":3,"Action_Location":"Massachusetts, United States","Lat":42.2373,"Long":-71.5314,"Timestamp":20181105014500,"Source":"https:\/\/www.dailymail.co.uk\/wires\/aap\/article-6349271\/Todays-Birthday-4-11.html"},{"ID":800032692,"Actor1":"CRIMINAL","Actor1_Country":null,"Actor2":"AZERI","Actor2_Country":null,"Code":190,"Class":4,"Action_Location":"Azeri, Vayots' Dzor, Armenia","Lat":39.7195,"Long":45.6474,"Timestamp":20181105014500,"Source":"http:\/\/setasarmenian.blogspot.com\/2018\/11\/armenian-newsjohn-bolton-remarks-in.html"},{"ID":800032693,"Actor1":"CRIMINAL","Actor1_Country":null,"Actor2":"AZERI","Actor2_Country":null,"Code":190,"Class":4,"Action_Location":"Azeri, Vayots' Dzor, Armenia","Lat":39.7195,"Long":45.6474,"Timestamp":20181105014500,"Source":"http:\/\/setasarmenian.blogspot.com\/2018\/11\/armenian-newsjohn-bolton-remarks-in.html"},{"ID":800032694,"Actor1":"CRIMINAL","Actor1_Country":null,"Actor2":"AZERI","Actor2_Country":null,"Code":190,"Class":4,"Action_Location":"Stepanakert, Xank?ndi*, Azerbaijan","Lat":39.8173,"Long":46.7557,"Timestamp":20181105014500,"Source":"http:\/\/setasarmenian.blogspot.com\/2018\/11\/armenian-newsjohn-bolton-remarks-in.html"},{"ID":800032719,"Actor1":"SETTLEMENT","Actor1_Country":null,"Actor2":"ARMENIA","Actor2_Country":"ARM","Code":10,"Class":1,"Action_Location":"Holy Church, Georgia, United States","Lat":32.1591,"Long":-81.6346,"Timestamp":20181105014500,"Source":"http:\/\/setasarmenian.blogspot.com\/2018\/11\/armenian-newsjohn-bolton-remarks-in.html"},{"ID":800032720,"Actor1":"CITIZEN","Actor1_Country":null,"Actor2":"ARMENIA","Actor2_Country":"ARM","Code":43,"Class":1,"Action_Location":"Azeri, Vayots' Dzor, Armenia","Lat":39.7195,"Long":45.6474,"Timestamp":20181105014500,"Source":"http:\/\/setasarmenian.blogspot.com\/2018\/11\/armenian-newsjohn-bolton-remarks-in.html"},{"ID":800032721,"Actor1":"RESIDENTS","Actor1_Country":null,"Actor2":"TANKER","Actor2_Country":null,"Code":50,"Class":1,"Action_Location":"Mumbai, Maharashtra, India","Lat":18.975,"Long":72.8258,"Timestamp":20181105014500,"Source":"https:\/\/timesofindia.indiatimes.com\/city\/navi-mumbai\/power-failure-hits-ops-at-water-treatment-unit\/articleshow\/66502766.cms"},{"ID":800032722,"Actor1":"HUNTER","Actor1_Country":null,"Actor2":"COMPANY","Actor2_Country":null,"Code":173,"Class":4,"Action_Location":"Toronto, Ontario, Canada","Lat":43.6667,"Long":-79.4167,"Timestamp":20181105014500,"Source":"https:\/\/www.theherald.com.au\/story\/5738441\/tax-agent-jailed-to-appeal\/"},{"ID":800032723,"Actor1":"HUNTER","Actor1_Country":null,"Actor2":"COMPANY","Actor2_Country":null,"Code":190,"Class":4,"Action_Location":"Toronto, Ontario, Canada","Lat":43.6667,"Long":-79.4167,"Timestamp":20181105014500,"Source":"https:\/\/www.theherald.com.au\/story\/5738441\/tax-agent-jailed-to-appeal\/"},{"ID":800032725,"Actor1":"VOTER","Actor1_Country":null,"Actor2":"SCHOOL","Actor2_Country":null,"Code":43,"Class":1,"Action_Location":"Florida, United States","Lat":27.8333,"Long":-81.717,"Timestamp":20181105014500,"Source":"https:\/\/www.weisradio.com\/through-their-eyes-18-year-old-first-time-voters-weigh-in-on-key-issues-facing-the-nation\/"},{"ID":800032726,"Actor1":"VOTER","Actor1_Country":null,"Actor2":"SCHOOL","Actor2_Country":null,"Code":43,"Class":1,"Action_Location":"Florida, United States","Lat":27.8333,"Long":-81.717,"Timestamp":20181105014500,"Source":"https:\/\/www.weisradio.com\/through-their-eyes-18-year-old-first-time-voters-weigh-in-on-key-issues-facing-the-nation\/"},{"ID":800032727,"Actor1":"VOTER","Actor1_Country":null,"Actor2":"PROFESSOR","Actor2_Country":null,"Code":841,"Class":2,"Action_Location":"Bob Jones University, South Carolina, United States","Lat":34.874,"Long":-82.364,"Timestamp":20181105014500,"Source":"https:\/\/www.greenvilleonline.com\/story\/news\/politics\/elections\/2018\/11\/04\/religion-and-politics-sc-voters-want-have-faith-candidates\/1685675002\/"},{"ID":800032728,"Actor1":"VOTER","Actor1_Country":null,"Actor2":"NEW CALEDONIA","Actor2_Country":"FRA","Code":20,"Class":1,"Action_Location":"Ouvea, New Caledonia (general), New Caledonia","Lat":-20.5833,"Long":166.583,"Timestamp":20181105014500,"Source":"http:\/\/news.trust.org\/item\/20181104132042-81myp\/"},{"ID":800032729,"Actor1":"VOTER","Actor1_Country":null,"Actor2":"NEW CALEDONIA","Actor2_Country":"FRA","Code":20,"Class":1,"Action_Location":"Djibouti","Lat":11.5,"Long":42.5,"Timestamp":20181105014500,"Source":"http:\/\/news.trust.org\/item\/20181104132042-81myp\/"},{"ID":800032730,"Actor1":"MIGRANT","Actor1_Country":null,"Actor2":"PRESIDENT","Actor2_Country":null,"Code":30,"Class":1,"Action_Location":"Missouri, United States","Lat":38.4623,"Long":-92.302,"Timestamp":20181105014500,"Source":"https:\/\/www.dailymail.co.uk\/wires\/ap\/article-6349379\/Democrat-McCaskill-reaches-right-GOP-leaning-Missouri.html"},{"ID":800032731,"Actor1":"MIGRANT","Actor1_Country":null,"Actor2":"PRESIDENT","Actor2_Country":null,"Code":32,"Class":1,"Action_Location":"Missouri, United States","Lat":38.4623,"Long":-92.302,"Timestamp":20181105014500,"Source":"https:\/\/www.dailymail.co.uk\/wires\/ap\/article-6349379\/Democrat-McCaskill-reaches-right-GOP-leaning-Missouri.html"},{"ID":800032732,"Actor1":"RESIDENTS","Actor1_Country":null,"Actor2":"BUREAUCRAT","Actor2_Country":null,"Code":112,"Class":3,"Action_Location":"Williamtown, New South Wales, Australia","Lat":-32.8167,"Long":151.85,"Timestamp":20181105014500,"Source":"https:\/\/www.theherald.com.au\/story\/5738902\/human-error-blamed-for-disparate-williamtown-blood-tests-on-same-day\/"},{"ID":800032733,"Actor1":"VOTER","Actor1_Country":null,"Actor2":"PRESIDENT","Actor2_Country":null,"Code":190,"Class":4,"Action_Location":"Edwardsville, Illinois, United States","Lat":38.8114,"Long":-89.9532,"Timestamp":20181105014500,"Source":"http:\/\/focus-fen.net\/.\/news\/2018\/11\/05\/435540\/afp-trumps-trade-war-edgy-for-republicans-in-us-midterms.html"},{"ID":800032734,"Actor1":"VOTER","Actor1_Country":null,"Actor2":"PRESIDENT","Actor2_Country":null,"Code":190,"Class":4,"Action_Location":"Illinois, United States","Lat":40.3363,"Long":-89.0022,"Timestamp":20181105014500,"Source":"http:\/\/focus-fen.net\/.\/news\/2018\/11\/05\/435540\/afp-trumps-trade-war-edgy-for-republicans-in-us-midterms.html"},{"ID":800032735,"Actor1":"MIGRANT","Actor1_Country":null,"Actor2":"GUATEMALA","Actor2_Country":"GTM","Code":182,"Class":4,"Action_Location":"Guatemala","Lat":15.5,"Long":-90.25,"Timestamp":20181105014500,"Source":"https:\/\/www.dailymail.co.uk\/wires\/ap\/article-6349291\/AP-FACT-CHECK-Trumps-distortions-immigration.html"},{"ID":800032736,"Actor1":"MIGRANT","Actor1_Country":null,"Actor2":"GUATEMALA","Actor2_Country":"GTM","Code":182,"Class":4,"Action_Location":"Washington, District of Columbia, United States","Lat":38.8951,"Long":-77.0364,"Timestamp":20181105014500,"Source":"https:\/\/www.dailymail.co.uk\/wires\/ap\/article-6349291\/AP-FACT-CHECK-Trumps-distortions-immigration.html"},{"ID":800032737,"Actor1":"MIGRANT","Actor1_Country":null,"Actor2":"GUATEMALA","Actor2_Country":"GTM","Code":182,"Class":4,"Action_Location":"Guatemala","Lat":15.5,"Long":-90.25,"Timestamp":20181105014500,"Source":"https:\/\/www.dailymail.co.uk\/wires\/ap\/article-6349291\/AP-FACT-CHECK-Trumps-distortions-immigration.html"},{"ID":800032738,"Actor1":"MIGRANT","Actor1_Country":null,"Actor2":"GUATEMALA","Actor2_Country":"GTM","Code":182,"Class":4,"Action_Location":"Washington, District of Columbia, United States","Lat":38.8951,"Long":-77.0364,"Timestamp":20181105014500,"Source":"https:\/\/www.dailymail.co.uk\/wires\/ap\/article-6349291\/AP-FACT-CHECK-Trumps-distortions-immigration.html"},{"ID":800032740,"Actor1":"MIGRANT","Actor1_Country":null,"Actor2":"MEXICAN","Actor2_Country":"MEX","Code":182,"Class":4,"Action_Location":"Washington, District of Columbia, United States","Lat":38.8951,"Long":-77.0364,"Timestamp":20181105014500,"Source":"https:\/\/www.dailymail.co.uk\/wires\/ap\/article-6349291\/AP-FACT-CHECK-Trumps-distortions-immigration.html"},{"ID":800032741,"Actor1":"MIGRANT","Actor1_Country":null,"Actor2":"MEXICAN","Actor2_Country":"MEX","Code":182,"Class":4,"Action_Location":"Washington, District of Columbia, United States","Lat":38.8951,"Long":-77.0364,"Timestamp":20181105014500,"Source":"https:\/\/www.dailymail.co.uk\/wires\/ap\/article-6349291\/AP-FACT-CHECK-Trumps-distortions-immigration.html"},{"ID":800032742,"Actor1":"MIGRANT","Actor1_Country":null,"Actor2":"MEXICAN","Actor2_Country":"MEX","Code":190,"Class":4,"Action_Location":"Sayula, Sonora, Mexico","Lat":29.3667,"Long":-111.55,"Timestamp":20181105014500,"Source":"https:\/\/www.dailymail.co.uk\/wires\/ap\/article-6349291\/AP-FACT-CHECK-Trumps-distortions-immigration.html"},{"ID":800032743,"Actor1":"MIGRANT","Actor1_Country":null,"Actor2":"MEXICAN","Actor2_Country":"MEX","Code":190,"Class":4,"Action_Location":"Washington, District of Columbia, United States","Lat":38.8951,"Long":-77.0364,"Timestamp":20181105014500,"Source":"https:\/\/www.dailymail.co.uk\/wires\/ap\/article-6349291\/AP-FACT-CHECK-Trumps-distortions-immigration.html"},{"ID":800032744,"Actor1":"MIGRANT","Actor1_Country":null,"Actor2":"MEXICAN","Actor2_Country":"MEX","Code":190,"Class":4,"Action_Location":"Sayula, Sonora, Mexico","Lat":29.3667,"Long":-111.55,"Timestamp":20181105014500,"Source":"https:\/\/www.dailymail.co.uk\/wires\/ap\/article-6349291\/AP-FACT-CHECK-Trumps-distortions-immigration.html"},{"ID":800032745,"Actor1":"MIGRANT","Actor1_Country":null,"Actor2":"MILITARY","Actor2_Country":null,"Code":30,"Class":1,"Action_Location":"Sayula, Sonora, Mexico","Lat":29.3667,"Long":-111.55,"Timestamp":20181105014500,"Source":"https:\/\/www.dailymail.co.uk\/wires\/ap\/article-6349291\/AP-FACT-CHECK-Trumps-distortions-immigration.html"},{"ID":800032746,"Actor1":"ETHNIC GROUP","Actor1_Country":null,"Actor2":"MILITARY","Actor2_Country":null,"Code":40,"Class":1,"Action_Location":"Yangon, Yangon, Myanmar","Lat":16.8053,"Long":96.1561,"Timestamp":20181105014500,"Source":"https:\/\/www.thestar.com.my\/news\/regional\/2018\/11\/05\/suu-kyis-party-loses-six-constituencies-in-byelection\/"},{"ID":800032747,"Actor1":"ETHNIC GROUP","Actor1_Country":null,"Actor2":"MILITARY","Actor2_Country":null,"Code":40,"Class":1,"Action_Location":"Yathedaung, Mandalay, Myanmar","Lat":20.8,"Long":95.35,"Timestamp":20181105014500,"Source":"https:\/\/www.thestar.com.my\/news\/regional\/2018\/11\/05\/suu-kyis-party-loses-six-constituencies-in-byelection\/"},{"ID":800032748,"Actor1":"SCIENTIST","Actor1_Country":null,"Actor2":"GOOGLE","Actor2_Country":"USA","Code":10,"Class":1,"Action_Location":"New York, United States","Lat":42.1497,"Long":-74.9384,"Timestamp":20181105014500,"Source":"https:\/\/www.beaumontenterprise.com\/business\/technology\/article\/Google-employees-to-walk-out-to-protest-treatment-13353391.php"},{"ID":800032749,"Actor1":"VILLAGE","Actor1_Country":null,"Actor2":"NIGERIEN","Actor2_Country":"NER","Code":43,"Class":1,"Action_Location":"Niger","Lat":16.0,"Long":8.0,"Timestamp":20181105014500,"Source":"https:\/\/www.africaleader.com\/news\/258246831\/us-army-punishes-six-over-roles-in-fatal-niger-ambush-report"},{"ID":800032750,"Actor1":"COMMUNITY","Actor1_Country":null,"Actor2":"NIGERIA","Actor2_Country":"NGA","Code":43,"Class":1,"Action_Location":"Nigeria","Lat":10.0,"Long":8.0,"Timestamp":20181105014500,"Source":"https:\/\/www.africaleader.com\/news\/258236941\/prince-charles-camilla-land-in-ghana-on-second-africa-stop"},{"ID":800032751,"Actor1":"VOTER","Actor1_Country":null,"Actor2":"POLITICIAN","Actor2_Country":null,"Code":51,"Class":1,"Action_Location":"Yathedaung, Mandalay, Myanmar","Lat":20.8,"Long":95.35,"Timestamp":20181105014500,"Source":"https:\/\/www.thestar.com.my\/news\/regional\/2018\/11\/05\/suu-kyis-party-loses-six-constituencies-in-byelection\/"},{"ID":800032752,"Actor1":"SETTLEMENT","Actor1_Country":null,"Actor2":"RUSSIA","Actor2_Country":"RUS","Code":10,"Class":1,"Action_Location":"Yerevan, Yerevan*, Armenia","Lat":40.1811,"Long":44.5136,"Timestamp":20181105014500,"Source":"http:\/\/setasarmenian.blogspot.com\/2018\/11\/armenian-newsjohn-bolton-remarks-in.html"},{"ID":800032753,"Actor1":"SETTLEMENT","Actor1_Country":null,"Actor2":"RUSSIA","Actor2_Country":"RUS","Code":10,"Class":1,"Action_Location":"Holy Church, Georgia, United States","Lat":32.1591,"Long":-81.6346,"Timestamp":20181105014500,"Source":"http:\/\/setasarmenian.blogspot.com\/2018\/11\/armenian-newsjohn-bolton-remarks-in.html"},{"ID":800032754,"Actor1":"CIVILIAN","Actor1_Country":null,"Actor2":"RUSSIAN","Actor2_Country":"RUS","Code":183,"Class":4,"Action_Location":"Syria","Lat":35.0,"Long":38.0,"Timestamp":20181105014500,"Source":"https:\/\/www.dailymail.co.uk\/wires\/afp\/article-6349565\/Despite-pressure-Egypt-IS-able-strike.html"},{"ID":800032755,"Actor1":"CIVILIAN","Actor1_Country":null,"Actor2":"RUSSIAN","Actor2_Country":"RUS","Code":183,"Class":4,"Action_Location":"Russia","Lat":60.0,"Long":100.0,"Timestamp":20181105014500,"Source":"https:\/\/www.dailymail.co.uk\/wires\/afp\/article-6349565\/Despite-pressure-Egypt-IS-able-strike.html"},{"ID":800032756,"Actor1":"CIVILIAN","Actor1_Country":null,"Actor2":"RUSSIA","Actor2_Country":"RUS","Code":183,"Class":4,"Action_Location":"Russia","Lat":60.0,"Long":100.0,"Timestamp":20181105014500,"Source":"https:\/\/www.dailymail.co.uk\/wires\/afp\/article-6349565\/Despite-pressure-Egypt-IS-able-strike.html"},{"ID":800032757,"Actor1":"CIVILIAN","Actor1_Country":null,"Actor2":"RUSSIA","Actor2_Country":"RUS","Code":190,"Class":4,"Action_Location":"Iraq","Lat":33.0,"Long":44.0,"Timestamp":20181105014500,"Source":"https:\/\/www.dailymail.co.uk\/wires\/afp\/article-6349565\/Despite-pressure-Egypt-IS-able-strike.html"},{"ID":800032758,"Actor1":"CIVILIAN","Actor1_Country":null,"Actor2":"RUSSIAN","Actor2_Country":"RUS","Code":190,"Class":4,"Action_Location":"Syria","Lat":35.0,"Long":38.0,"Timestamp":20181105014500,"Source":"https:\/\/www.dailymail.co.uk\/wires\/afp\/article-6349565\/Despite-pressure-Egypt-IS-able-strike.html"},{"ID":800032759,"Actor1":"CIVILIAN","Actor1_Country":null,"Actor2":"RUSSIA","Actor2_Country":"RUS","Code":190,"Class":4,"Action_Location":"Syria","Lat":35.0,"Long":38.0,"Timestamp":20181105014500,"Source":"https:\/\/www.dailymail.co.uk\/wires\/afp\/article-6349565\/Despite-pressure-Egypt-IS-able-strike.html"},{"ID":800032761,"Actor1":"VOTER","Actor1_Country":null,"Actor2":"DENVER","Actor2_Country":"USA","Code":14,"Class":1,"Action_Location":"Denver, Colorado, United States","Lat":39.7392,"Long":-104.985,"Timestamp":20181105014500,"Source":"https:\/\/www.dailymail.co.uk\/wires\/ap\/article-6349689\/Health-care-Trump-diverse-stands-Colorado-hopefuls.html"},{"ID":800032762,"Actor1":"VOTER","Actor1_Country":null,"Actor2":"DENVER","Actor2_Country":"USA","Code":14,"Class":1,"Action_Location":"Colorado, United States","Lat":39.0646,"Long":-105.327,"Timestamp":20181105014500,"Source":"https:\/\/www.dailymail.co.uk\/wires\/ap\/article-6349689\/Health-care-Trump-diverse-stands-Colorado-hopefuls.html"},