[{"ID": 800045058, "Actor1": "SRI LANKA", "Actor1_Country": "LKA", "Actor2": "PREMIER", "Actor2_Country": null, "Code": 192, "Class": 4, "Action_Location": "Temple Trees, Western, Sri Lanka", "Lat": 6.9149, "Long": 79.8477, "Timestamp": 20181105031500, "Source": "https://www.dawn.com/news/1443656/ousted-lankan-pm-says-us-japan-have-frozen-aid-after-political-crisis"}, {"ID": 800045059, "Actor1": "BANGLADESH", "Actor1_Country": "BGD", "Actor2": "MYANMAR", "Actor2_Country": "MMR", "Code": 841, "Class": 2, "Action_Location": "Balukhali, Chittagong, Bangladesh", "Lat": 21.1345, "Long": 92.1833, "Timestamp": 20181105031500, "Source": "http://www.mizzima.com/article/refugee-teen-injured-firing-bangladesh-myanmar-border"}, {"ID": 800045061, "Actor1": "PRESIDENT", "Actor1_Country": null, "Actor2": "PAPUA NEW GUINEA", "Actor2_Country": "PNG", "Code": 36, "Class": 1, "Action_Location": "Singapore", "Lat": 1.366667, "Long": 103.8, "Timestamp": 20181105031500, "Source": "http://world.kbs.co.kr/english/./news/news_Po_detail.htm?No=140540&id=Po"}, {"ID": 800045063, "Actor1": "MYANMAR", "Actor1_Country": "MMR", "Actor2": "BANGLADESH", "Actor2_Country": "BGD", "Code": 10, "Class": 1, "Action_Location": "Balukhali, Chittagong, Bangladesh", "Lat": 21.1345, "Long": 92.1833, "Timestamp": 20181105031500, "Source": "http://www.mizzima.com/article/refugee-teen-injured-firing-bangladesh-myanmar-border"}, {"ID": 800045179, "Actor1": "ABU DHABI", "Actor1_Country": "ARE", "Actor2": "COMPANY", "Actor2_Country": null, "Code": 61, "Class": 2, "Action_Location": "Singapore", "Lat": 1.366667, "Long": 103.8, "Timestamp": 20181105031500, "Source": "https://whbl.com/news/articles/2018/nov/05/oil-falls-as-us-grants-iran-sanction-waivers-to-eight-importers/"}, {"ID": 800045180, "Actor1": "DUBAI", "Actor1_Country": "ARE", "Actor2": "UNITED STATES", "Actor2_Country": "USA", "Code": 111, "Class": 3, "Action_Location": "Tehran, Tehran, Iran", "Lat": 35.75, "Long": 51.5148, "Timestamp": 20181105031500, "Source": "https://www.dawn.com/news/1443707"}, {"ID": 800045181, "Actor1": "DUBAI", "Actor1_Country": "ARE", "Actor2": "UNITED STATES", "Actor2_Country": "USA", "Code": 111, "Class": 3, "Action_Location": "United Kingdom", "Lat": 54.0, "Long": -4.0, "Timestamp": 20181105031500, "Source": "https://www.dawn.com/news/1443707"}, {"ID": 800045182, "Actor1": "UNITED ARAB EMIRATES", "Actor1_Country": "ARE", "Actor2": "UNITED STATES", "Actor2_Country": "USA", "Code": 111, "Class": 3, "Action_Location": "United Kingdom", "Lat": 54.0, "Long": -4.0, "Timestamp": 20181105031500, "Source": "https://www.dawn.com/news/1443707"}, {"ID": 800045183, "Actor1": "DUBAI", "Actor1_Country": "ARE", "Actor2": "THE US", "Actor2_Country": "USA", "Code": 17, "Class": 1, "Action_Location": "United States", "Lat": 39.828175, "Long": -98.5795, "Timestamp": 20181105031500, "Source": "https://www.dawn.com/news/1443707"}, {"ID": 800045184, "Actor1": "DUBAI", "Actor1_Country": "ARE", "Actor2": "THE US", "Actor2_Country": "USA", "Code": 17, "Class": 1, "Action_Location": "United States", "Lat": 39.828175, "Long": -98.5795, "Timestamp": 20181105031500, "Source": "https://www.dawn.com/news/1443707"}, {"ID": 800045185, "Actor1": "DUBAI", "Actor1_Country": "ARE", "Actor2": "THE US", "Actor2_Country": "USA", "Code": 17, "Class": 1, "Action_Location": "Russia", "Lat": 60.0, "Long": 100.0, "Timestamp": 20181105031500, "Source": "https://www.dawn.com/news/1443707"}, {"ID": 800045186, "Actor1": "DUBAI", "Actor1_Country": "ARE", "Actor2": "THE US", "Actor2_Country": "USA", "Code": 17, "Class": 1, "Action_Location": "United Kingdom", "Lat": 54.0, "Long": -4.0, "Timestamp": 20181105031500, "Source": "https://www.dawn.com/news/1443707"}, {"ID": 800045187, "Actor1": "DUBAI", "Actor1_Country": "ARE", "Actor2": "THE US", "Actor2_Country": "USA", "Code": 111, "Class": 3, "Action_Location": "United Kingdom", "Lat": 54.0, "Long": -4.0, "Timestamp": 20181105031500, "Source": "https://www.dawn.com/news/1443707"}, {"ID": 800045198, "Actor1": "QUEENSLAND", "Actor1_Country": "AUS", "Actor2": "PRIME MINISTER", "Actor2_Country": null, "Code": 43, "Class": 1, "Action_Location": "Ghana", "Lat": 8.0, "Long": -2.0, "Timestamp": 20181105031500, "Source": "https://www.9news.com.au/2018/11/05/13/11/scott-morrison-queensland-visiting-marginal-seats-bus"}, {"ID": 800045203, "Actor1": "MELBOURNE", "Actor1_Country": "AUS", "Actor2": "PHILIPPINE", "Actor2_Country": "PHL", "Code": 80, "Class": 2, "Action_Location": "Manila, Manila, Philippines", "Lat": 14.6042, "Long": 120.982, "Timestamp": 20181105031500, "Source": "https://www.dawn.com/news/1443653/nun-who-lost-philippines-deportation-battle-returns-to-australia"}, {"ID": 800045205, "Actor1": "BANGLADESH", "Actor1_Country": "BGD", "Actor2": "BANGLADESH", "Actor2_Country": "BGD", "Code": 13, "Class": 1, "Action_Location": "Balukhali, Chittagong, Bangladesh", "Lat": 21.1345, "Long": 92.1833, "Timestamp": 20181105031500, "Source": "http://www.mizzima.com/article/refugee-teen-injured-firing-bangladesh-myanmar-border"}, {"ID": 800045206, "Actor1": "BANGLADESH", "Actor1_Country": "BGD", "Actor2": "MYANMAR", "Actor2_Country": "MMR", "Code": 32, "Class": 1, "Action_Location": "Balukhali, Chittagong, Bangladesh", "Lat": 21.1345, "Long": 92.1833, "Timestamp": 20181105031500, "Source": "http://www.mizzima.com/article/refugee-teen-injured-firing-bangladesh-myanmar-border"}, {"ID": 800045207, "Actor1": "BANGLADESH", "Actor1_Country": "BGD", "Actor2": "REFUGEE", "Actor2_Country": null, "Code": 182, "Class": 4, "Action_Location": "Balukhali, Chittagong, Bangladesh", "Lat": 21.1345, "Long": 92.1833, "Timestamp": 20181105031500, "Source": "http://www.mizzima.com/article/refugee-teen-injured-firing-bangladesh-myanmar-border"}, {"ID": 800045208, "Actor1": "BANGLADESH", "Actor1_Country": "BGD", "Actor2": "REFUGEE", "Actor2_Country": null, "Code": 193, "Class": 4, "Action_Location": "Balukhali, Chittagong, Bangladesh", "Lat": 21.1345, "Long": 92.1833, "Timestamp": 20181105031500, "Source": "http://www.mizzima.com/article/refugee-teen-injured-firing-bangladesh-myanmar-border"}, {"ID": 800045231, "Actor1": "COMPANY", "Actor1_Country": null, "Actor2": "DAVOS", "Actor2_Country": "CHE", "Code": 36, "Class": 1, "Action_Location": "Crystal City, Texas, United States", "Lat": 28.6775, "Long": -99.8281, "Timestamp": 20181105031500, "Source": "https://www.bloombergquint.com/politics/amazon-exec-rips-leaking-to-bezos-post-on-headquarters"}, {"ID": 800045232, "Actor1": "COMPANY", "Actor1_Country": null, "Actor2": "DAVOS", "Actor2_Country": "CHE", "Code": 36, "Class": 1, "Action_Location": "Crystal City, Texas, United States", "Lat": 28.6775, "Long": -99.8281, "Timestamp": 20181105031500, "Source": "https://www.bloombergquint.com/politics/amazon-exec-rips-leaking-to-bezos-post-on-headquarters"}, {"ID": 800045234, "Actor1": "COMPANY", "Actor1_Country": null, "Actor2": "DAVOS", "Actor2_Country": "CHE", "Code": 36, "Class": 1, "Action_Location": "Washington, District of Columbia, United States", "Lat": 38.8951, "Long": -77.0364, "Timestamp": 20181105031500, "Source": "https://www.bloombergquint.com/politics/amazon-exec-rips-leaking-to-bezos-post-on-headquarters"}, {"ID": 800045235, "Actor1": "INDUSTRY", "Actor1_Country": null, "Actor2": "CHINESE", "Actor2_Country": "CHN", "Code": 43, "Class": 1, "Action_Location": "Beijing, Beijing, China", "Lat": 39.9289, "Long": 116.388, "Timestamp": 20181105031500, "Source": "https://www.nytimes.com/reuters/2018/11/04/technology/04reuters-usa-justice-china-fujianjinhua.html"}, {"ID": 800045237, "Actor1": "INDUSTRY", "Actor1_Country": null, "Actor2": "RULING PARTY", "Actor2_Country": null, "Code": 231, "Class": 1, "Action_Location": "Bhawan, Uttar Pradesh, India", "Lat": 27.6154, "Long": 79.6429, "Timestamp": 20181105031500, "Source": "https://economictimes.indiatimes.com/news/politics-and-nation/party-funding-richest-electoral-trust-sends-bjp-its-biggest-cheque/articleshow/66504649.cms"}, {"ID": 800045238, "Actor1": "INDUSTRY", "Actor1_Country": null, "Actor2": "RULING PARTY", "Actor2_Country": null, "Code": 70, "Class": 2, "Action_Location": "Delhi, Delhi, India", "Lat": 28.6667, "Long": 77.2167, "Timestamp": 20181105031500, "Source": "https://economictimes.indiatimes.com/news/politics-and-nation/party-funding-richest-electoral-trust-sends-bjp-its-biggest-cheque/articleshow/66504649.cms"}, {"ID": 800045239, "Actor1": "BANK", "Actor1_Country": null, "Actor2": "NIGERIA", "Actor2_Country": "NGA", "Code": 112, "Class": 3, "Action_Location": "Nigeria", "Lat": 10.0, "Long": 8.0, "Timestamp": 20181105031500, "Source": "https://economictimes.indiatimes.com/news/company/corporate-trends/sandesaras-money-laundering-case-sterling-shell-companies-addresses-house-chawl-rehab-camp/articleshow/66504730.cms"}, {"ID": 800045241, "Actor1": "PRODUCER", "Actor1_Country": null, "Actor2": "THE US", "Actor2_Country": "USA", "Code": 36, "Class": 1, "Action_Location": "Iraq", "Lat": 33.0, "Long": 44.0, "Timestamp": 20181105031500, "Source": "https://www.dawn.com/news/1443662/oil-market-on-alert-as-iran-sanctions-loom"}, {"ID": 800045244, "Actor1": "AIRLINE", "Actor1_Country": null, "Actor2": "AIRLINE", "Actor2_Country": null, "Code": 16, "Class": 1, "Action_Location": "United Kingdom", "Lat": 54.0, "Long": -4.0, "Timestamp": 20181105031500, "Source": "https://www.theepochtimes.com/emirates-seeks-rolls-royce-a380-engine-deal-nothing-finalized_2707892.html"}, {"ID": 800045245, "Actor1": "AIRLINE", "Actor1_Country": null, "Actor2": "AIRLINE", "Actor2_Country": null, "Code": 20, "Class": 1, "Action_Location": "United Kingdom", "Lat": 54.0, "Long": -4.0, "Timestamp": 20181105031500, "Source": "https://www.theepochtimes.com/emirates-seeks-rolls-royce-a380-engine-deal-nothing-finalized_2707892.html"}, {"ID": 800045246, "Actor1": "BANK", "Actor1_Country": null, "Actor2": "NEW ZEALAND", "Actor2_Country": "NZL", "Code": 51, "Class": 1, "Action_Location": "New Zealand", "Lat": -42.0, "Long": 174.0, "Timestamp": 20181105031500, "Source": "http://www.scoop.co.nz/stories/PO1811/S00051/new-regulations-welcomed-by-finance-union.htm"}, {"ID": 800045254, "Actor1": "CANADA", "Actor1_Country": "CAN", "Actor2": "MEXICO", "Actor2_Country": "MEX", "Code": 61, "Class": 2, "Action_Location": "Canada", "Lat": 60.0, "Long": -96.0, "Timestamp": 20181105031500, "Source": "https://billingsgazette.com/news/state-and-regional/study-net-loss-to-us-ag-from-nafta/article_85accf87-6362-5272-9e17-1a809fe12c93.html"}, {"ID": 800045255, "Actor1": "CANADA", "Actor1_Country": "CAN", "Actor2": "MEXICO", "Actor2_Country": "MEX", "Code": 61, "Class": 2, "Action_Location": "Canada", "Lat": 60.0, "Long": -96.0, "Timestamp": 20181105031500, "Source": "https://billingsgazette.com/news/state-and-regional/study-net-loss-to-us-ag-from-nafta/article_85accf87-6362-5272-9e17-1a809fe12c93.html"}, {"ID": 800045256, "Actor1": "CANADA", "Actor1_Country": "CAN", "Actor2": "MEXICO", "Actor2_Country": "MEX", "Code": 61, "Class": 2, "Action_Location": "United States", "Lat": 39.828175, "Long": -98.5795, "Timestamp": 20181105031500, "Source": "https://billingsgazette.com/news/state-and-regional/study-net-loss-to-us-ag-from-nafta/article_85accf87-6362-5272-9e17-1a809fe12c93.html"}, {"ID": 800045270, "Actor1": "CHINESE", "Actor1_Country": "CHN", "Actor2": "INDUSTRY", "Actor2_Country": null, "Code": 42, "Class": 1, "Action_Location": "Shanghai, Shanghai, China", "Lat": 31.2222, "Long": 121.458, "Timestamp": 20181105031500, "Source": "https://www.nytimes.com/reuters/2018/11/04/technology/04reuters-usa-justice-china-fujianjinhua.html"}, {"ID": 800045271, "Actor1": "CHINESE", "Actor1_Country": "CHN", "Actor2": "CHINA", "Actor2_Country": "CHN", "Code": 40, "Class": 1, "Action_Location": "Xinjiang, Jiangxi, China", "Lat": 27.7481, "Long": 116.274, "Timestamp": 20181105031500, "Source": "https://www.dawn.com/news/1443645/activists-urge-scrutiny-of-chinas-rights-record-at-un-meeting-this-week"}, {"ID": 800045272, "Actor1": "CHINA", "Actor1_Country": "CHN", "Actor2": "FUJIAN", "Actor2_Country": "CHN", "Code": 71, "Class": 2, "Action_Location": "Jinjiang, Hunan, China", "Lat": 25.4167, "Long": 112.719, "Timestamp": 20181105031500, "Source": "https://www.nytimes.com/reuters/2018/11/04/technology/04reuters-usa-justice-china-fujianjinhua.html"}, {"ID": 800045276, "Actor1": "CHINA", "Actor1_Country": "CHN", "Actor2": "THE UN", "Actor2_Country": null, "Code": 90, "Class": 2, "Action_Location": "Xinjiang, Jiangxi, China", "Lat": 27.7481, "Long": 116.274, "Timestamp": 20181105031500, "Source": "https://www.dawn.com/news/1443645/activists-urge-scrutiny-of-chinas-rights-record-at-un-meeting-this-week"}, {"ID": 800045278, "Actor1": "CHINA", "Actor1_Country": "CHN", "Actor2": "SEPARATIST", "Actor2_Country": null, "Code": 12, "Class": 1, "Action_Location": "Xinjiang, Jiangxi, China", "Lat": 27.7481, "Long": 116.274, "Timestamp": 20181105031500, "Source": "https://www.dawn.com/news/1443645/activists-urge-scrutiny-of-chinas-rights-record-at-un-meeting-this-week"}, {"ID": 800045279, "Actor1": "CHINA", "Actor1_Country": "CHN", "Actor2": "MILITANT", "Actor2_Country": null, "Code": 12, "Class": 1, "Action_Location": "Xinjiang, Jiangxi, China", "Lat": 27.7481, "Long": 116.274, "Timestamp": 20181105031500, "Source": "https://www.dawn.com/news/1443645/activists-urge-scrutiny-of-chinas-rights-record-at-un-meeting-this-week"}, {"ID": 800045284, "Actor1": "CHINA", "Actor1_Country": "CHN", "Actor2": "TIBETAN", "Actor2_Country": null, "Code": 42, "Class": 1, "Action_Location": "Xinjiang, Jiangxi, China", "Lat": 27.7481, "Long": 116.274, "Timestamp": 20181105031500, "Source": "https://www.dawn.com/news/1443645/activists-urge-scrutiny-of-chinas-rights-record-at-un-meeting-this-week"}, {"ID": 800045285, "Actor1": "CHINESE", "Actor1_Country": "CHN", "Actor2": "CHINESE", "Actor2_Country": "CHN", "Code": 40, "Class": 1, "Action_Location": "Xinjiang, Jiangxi, China", "Lat": 27.7481, "Long": 116.274, "Timestamp": 20181105031500, "Source": "https://www.dawn.com/news/1443645/activists-urge-scrutiny-of-chinas-rights-record-at-un-meeting-this-week"}, {"ID": 800045311, "Actor1": "POLICE", "Actor1_Country": null, "Actor2": "AUSTRALIA", "Actor2_Country": "AUS", "Code": 10, "Class": 1, "Action_Location": "Strathmore, Victoria, Australia", "Lat": -37.6333, "Long": 142.483, "Timestamp": 20181105031500, "Source": "https://www.heraldsun.com.au/news/breaking-news/vic-man-accused-of-serious-toddler-injury/news-story/7af7237f16b7f5be41d2fdb99cbb71bd?nk=e908f386f85f9c1b95894ce397a926fd-1541386981"}, {"ID": 800045312, "Actor1": "POLICE", "Actor1_Country": null, "Actor2": "AUSTRALIA", "Actor2_Country": "AUS", "Code": 173, "Class": 4, "Action_Location": "Keilor, Victoria, Australia", "Lat": -37.7167, "Long": 144.833, "Timestamp": 20181105031500, "Source": "https://www.heraldsun.com.au/news/breaking-news/vic-man-accused-of-serious-toddler-injury/news-story/7af7237f16b7f5be41d2fdb99cbb71bd?nk=e908f386f85f9c1b95894ce397a926fd-1541386981"}, {"ID": 800045313, "Actor1": "POLICE", "Actor1_Country": null, "Actor2": "AUSTRALIA", "Actor2_Country": "AUS", "Code": 173, "Class": 4, "Action_Location": "Strathmore, Victoria, Australia", "Lat": -37.6333, "Long": 142.483, "Timestamp": 20181105031500, "Source": "https://www.heraldsun.com.au/news/breaking-news/vic-man-accused-of-serious-toddler-injury/news-story/7af7237f16b7f5be41d2fdb99cbb71bd?nk=e908f386f85f9c1b95894ce397a926fd-1541386981"}, {"ID": 800045317, "Actor1": "DEPUTY", "Actor1_Country": null, "Actor2": "VILLAGE", "Actor2_Country": null, "Code": 10, "Class": 1, "Action_Location": "Killarney, Kerry, Ireland", "Lat": 52.05, "Long": -9.51667, "Timestamp": 20181105031500, "Source": "https://www.independent.ie/irish-news/womans-body-is-recovered-from-river-after-kayak-tragedy-37492093.html"}, {"ID": 800045323, "Actor1": "DEPUTY", "Actor1_Country": null, "Actor2": "IRELAND", "Actor2_Country": "IRL", "Code": 18, "Class": 1, "Action_Location": "Kilgarvan, Mayo, Ireland", "Lat": 54.0919, "Long": -9.03861, "Timestamp": 20181105031500, "Source": "https://www.independent.ie/irish-news/womans-body-is-recovered-from-river-after-kayak-tragedy-37492093.html"}, {"ID": 800045324, "Actor1": "DEPUTY", "Actor1_Country": null, "Actor2": "IRELAND", "Actor2_Country": "IRL", "Code": 18, "Class": 1, "Action_Location": "Kilgarvan, Mayo, Ireland", "Lat": 54.0919, "Long": -9.03861, "Timestamp": 20181105031500, "Source": "https://www.independent.ie/irish-news/womans-body-is-recovered-from-river-after-kayak-tragedy-37492093.html"}, {"ID": 800045342, "Actor1": "CUBA", "Actor1_Country": "CUB", "Actor2": "PYONGYANG", "Actor2_Country": "PRK", "Code": 42, "Class": 1, "Action_Location": "Laos", "Lat": 18.0, "Long": 105.0, "Timestamp": 20181105031500, "Source": "https://www.washingtonpost.com/world/the_americas/cuban-president-meets-north-koreas-kim-jong-un-in-pyongyang/2018/11/04/ea5cc39e-e09f-11e8-ba30-a7ded04d8fac_story.html"}, {"ID": 800045343, "Actor1": "CUBA", "Actor1_Country": "CUB", "Actor2": "PYONGYANG", "Actor2_Country": "PRK", "Code": 42, "Class": 1, "Action_Location": "Ukraine", "Lat": 49.0, "Long": 32.0, "Timestamp": 20181105031500, "Source": "https://www.informnny.com/news/world-news/cuban-president-meets-north-koreas-kim-jong-un-in-pyongyang/1573222622"}, {"ID": 800045344, "Actor1": "CUBA", "Actor1_Country": "CUB", "Actor2": "PYONGYANG", "Actor2_Country": "PRK", "Code": 42, "Class": 1, "Action_Location": "Moscow, Moskva, Russia", "Lat": 55.7522, "Long": 37.6156, "Timestamp": 20181105031500, "Source": "https://www.informnny.com/news/world-news/cuban-president-meets-north-koreas-kim-jong-un-in-pyongyang/1573222622"}, {"ID": 800045346, "Actor1": "CUBA", "Actor1_Country": "CUB", "Actor2": "NORTH KOREA", "Actor2_Country": "PRK", "Code": 40, "Class": 1, "Action_Location": "China", "Lat": 35.0, "Long": 105.0, "Timestamp": 20181105031500, "Source": "https://www.washingtonpost.com/world/the_americas/cuban-president-meets-north-koreas-kim-jong-un-in-pyongyang/2018/11/04/ea5cc39e-e09f-11e8-ba30-a7ded04d8fac_story.html"}, {"ID": 800045347, "Actor1": "CUBAN", "Actor1_Country": "CUB", "Actor2": "NORTH KOREA", "Actor2_Country": "PRK", "Code": 40, "Class": 1, "Action_Location": "Moscow, Moskva, Russia", "Lat": 55.7522, "Long": 37.6156, "Timestamp": 20181105031500, "Source": "https://www.informnny.com/news/world-news/cuban-president-meets-north-koreas-kim-jong-un-in-pyongyang/1573222622"}, {"ID": 800045367, "Actor1": "CITIZEN", "Actor1_Country": null, "Actor2": "SECURITY OFFICIAL", "Actor2_Country": null, "Code": 10, "Class": 1, "Action_Location": "Washington, District of Columbia, United States", "Lat": 38.8951, "Long": -77.0364, "Timestamp": 20181105031500, "Source": "https://www.wral.com/kemp-cites-voter-database-hacking-attempt-gives-no-evidence/17969938/"}, {"ID": 800045368, "Actor1": "CITIZEN", "Actor1_Country": null, "Actor2": "SECURITY OFFICIAL", "Actor2_Country": null, "Code": 10, "Class": 1, "Action_Location": "Washington, District of Columbia, United States", "Lat": 38.8951, "Long": -77.0364, "Timestamp": 20181105031500, "Source": "https://www.chieftain.com/news/in-georgia-th-hour-daggers-over-voting-system/article_45ea58d6-8993-50b0-a2c5-442489d1ac23.html"}, {"ID": 800045369, "Actor1": "CITIZEN", "Actor1_Country": null, "Actor2": "SECURITY OFFICIAL", "Actor2_Country": null, "Code": 10, "Class": 1, "Action_Location": "Washington, District of Columbia, United States", "Lat": 38.8951, "Long": -77.0364, "Timestamp": 20181105031500, "Source": "https://www.wral.com/kemp-cites-voter-database-hacking-attempt-gives-no-evidence/17969938/"}, {"ID": 800045370, "Actor1": "CITIZEN", "Actor1_Country": null, "Actor2": "SECURITY OFFICIAL", "Actor2_Country": null, "Code": 10, "Class": 1, "Action_Location": "Georgia, United States", "Lat": 32.9866, "Long": -83.6487, "Timestamp": 20181105031500, "Source": "https://www.stl.news/atlanta-in-georgia-11th-hour-daggers-over-voting-system/203801/"}, {"ID": 800045371, "Actor1": "CITIZEN", "Actor1_Country": null, "Actor2": "SECURITY OFFICIAL", "Actor2_Country": null, "Code": 70, "Class": 2, "Action_Location": "Georgia, United States", "Lat": 32.9866, "Long": -83.6487, "Timestamp": 20181105031500, "Source": "https://www.wral.com/kemp-cites-voter-database-hacking-attempt-gives-no-evidence/17969938/"}, {"ID": 800045374, "Actor1": "VOTER", "Actor1_Country": null, "Actor2": "GOVERNMENT", "Actor2_Country": null, "Code": 22, "Class": 1, "Action_Location": "Massachusetts, United States", "Lat": 42.2373, "Long": -71.5314, "Timestamp": 20181105031500, "Source": "https://www.bostonglobe.com/metro/2018/11/04/massachusetts-island-voters-debate-role-trump-race-for-governor/bTCk5FIBaS5MhMesueHREK/story.html"}, {"ID": 800045375, "Actor1": "VOTER", "Actor1_Country": null, "Actor2": "GOVERNOR", "Actor2_Country": null, "Code": 40, "Class": 1, "Action_Location": "Andover, Massachusetts, United States", "Lat": 42.6584, "Long": -71.137, "Timestamp": 20181105031500, "Source": "https://www.bostonglobe.com/metro/2018/11/04/massachusetts-island-voters-debate-role-trump-race-for-governor/bTCk5FIBaS5MhMesueHREK/story.html"}, {"ID": 800045376, "Actor1": "VOTER", "Actor1_Country": null, "Actor2": "GOVERNOR", "Actor2_Country": null, "Code": 40, "Class": 1, "Action_Location": "Massachusetts, United States", "Lat": 42.2373, "Long": -71.5314, "Timestamp": 20181105031500, "Source": "https://www.bostonglobe.com/metro/2018/11/04/massachusetts-island-voters-debate-role-trump-race-for-governor/bTCk5FIBaS5MhMesueHREK/story.html"}, {"ID": 800045378, "Actor1": "VOTER", "Actor1_Country": null, "Actor2": "GOVERNMENT", "Actor2_Country": null, "Code": 120, "Class": 3, "Action_Location": "Massachusetts, United States", "Lat": 42.2373, "Long": -71.5314, "Timestamp": 20181105031500, "Source": "https://www.bostonglobe.com/metro/2018/11/04/massachusetts-island-voters-debate-role-trump-race-for-governor/bTCk5FIBaS5MhMesueHREK/story.html"}, {"ID": 800045382, "Actor1": "ETHNIC GROUP", "Actor1_Country": null, "Actor2": "MILITARY", "Actor2_Country": null, "Code": 40, "Class": 1, "Action_Location": "Kachin, Kachin State, Myanmar", "Lat": 26.0, "Long": 97.5, "Timestamp": 20181105031500, "Source": "https://www.dawn.com/news/1443646/suu-kyis-party-slapped-down-in-by-election"}, {"ID": 800045383, "Actor1": "ETHNIC GROUP", "Actor1_Country": null, "Actor2": "MILITARY", "Actor2_Country": null, "Code": 40, "Class": 1, "Action_Location": "Bangladesh", "Lat": 24.0, "Long": 90.0, "Timestamp": 20181105031500, "Source": "http://www.mizzima.com/article/aung-san-suu-kyis-party-slapped-down-elections"}, {"ID": 800045384, "Actor1": "CIVILIAN", "Actor1_Country": null, "Actor2": "ARMED FORCES", "Actor2_Country": null, "Code": 112, "Class": 3, "Action_Location": "Washington, District of Columbia, United States", "Lat": 38.8951, "Long": -77.0364, "Timestamp": 20181105031500, "Source": "https://www.zerohedge.com/news/2018-11-04/army-major-exposes-us-militarys-empire-secrecy"}, {"ID": 800045386, "Actor1": "CITIZEN", "Actor1_Country": null, "Actor2": "DEMOCRATIC PARTY", "Actor2_Country": null, "Code": 10, "Class": 1, "Action_Location": "Kennesaw State University, Georgia, United States", "Lat": 34.0382, "Long": -84.5841, "Timestamp": 20181105031500, "Source": "https://www.stl.news/atlanta-in-georgia-11th-hour-daggers-over-voting-system/203801/"}, {"ID": 800045387, "Actor1": "CITIZEN", "Actor1_Country": null, "Actor2": "DEMOCRATIC PARTY", "Actor2_Country": null, "Code": 10, "Class": 1, "Action_Location": "Washington, District of Columbia, United States", "Lat": 38.8951, "Long": -77.0364, "Timestamp": 20181105031500, "Source": "https://www.wral.com/kemp-cites-voter-database-hacking-attempt-gives-no-evidence/17969938/"}, {"ID": 800045388, "Actor1": "VOTER", "Actor1_Country": null, "Actor2": "POLITICIAN", "Actor2_Country": null, "Code": 51, "Class": 1, "Action_Location": "Bangladesh", "Lat": 24.0, "Long": 90.0, "Timestamp": 20181105031500, "Source": "http://www.mizzima.com/article/aung-san-suu-kyis-party-slapped-down-elections"}, {"ID": 800045392, "Actor1": "VOTER", "Actor1_Country": null, "Actor2": "UNITED STATES", "Actor2_Country": "USA", "Code": 30, "Class": 1, "Action_Location": "Massachusetts, United States", "Lat": 42.2373, "Long": -71.5314, "Timestamp": 20181105031500, "Source": "https://www.bostonglobe.com/metro/2018/11/04/massachusetts-island-voters-debate-role-trump-race-for-governor/bTCk5FIBaS5MhMesueHREK/story.html"}, {"ID": 800045396, "Actor1": "MIGRANT", "Actor1_Country": null, "Actor2": "UNITED STATES", "Actor2_Country": "USA", "Code": 86, "Class": 2, "Action_Location": "Indiana, United States", "Lat": 39.8647, "Long": -86.2604, "Timestamp": 20181105031500, "Source": "https://www.kansas.com/news/business/article221112820.html"}, {"ID": 800045397, "Actor1": "CITIZEN", "Actor1_Country": null, "Actor2": "MASSACHUSETTS", "Actor2_Country": "USA", "Code": 112, "Class": 3, "Action_Location": "Boston, Massachusetts, United States", "Lat": 42.3584, "Long": -71.0598, "Timestamp": 20181105031500, "Source": "https://www.vosizneias.com/309172/2018/11/04/cambridge-ma-massachusetts-man-faces-hate-crimes-charges-for-assaulting-jewish-woman-66/"}, {"ID": 800045399, "Actor1": "COMMUNITY", "Actor1_Country": null, "Actor2": "UNITED STATES", "Actor2_Country": "USA", "Code": 190, "Class": 4, "Action_Location": "Wisconsin, United States", "Lat": 44.2563, "Long": -89.6385, "Timestamp": 20181105031500, "Source": "https://kstp.com/national/the-latest-girl-scouts-ceo-says-hearts-broken-over-crash/5133385/?cat=162"}, {"ID": 800045401, "Actor1": "COMMUNITY", "Actor1_Country": null, "Actor2": "WISCONSIN", "Actor2_Country": "USA", "Code": 42, "Class": 1, "Action_Location": "Chippewa Falls, Wisconsin, United States", "Lat": 44.9369, "Long": -91.3929, "Timestamp": 20181105031500, "Source": "https://kstp.com/national/the-latest-girl-scouts-ceo-says-hearts-broken-over-crash/5133385/?cat=162"}, {"ID": 800045402, "Actor1": "COMMUNITY", "Actor1_Country": null, "Actor2": "WISCONSIN", "Actor2_Country": "USA", "Code": 190, "Class": 4, "Action_Location": "Wisconsin, United States", "Lat": 44.2563, "Long": -89.6385, "Timestamp": 20181105031500, "Source": "https://kstp.com/national/the-latest-girl-scouts-ceo-says-hearts-broken-over-crash/5133385/?cat=162"}, {"ID": 800045406, "Actor1": "CITIZEN", "Actor1_Country": null, "Actor2": "UNITED STATES", "Actor2_Country": "USA", "Code": 10, "Class": 1, "Action_Location": "Kennesaw State University, Georgia, United States", "Lat": 34.0382, "Long": -84.5841, "Timestamp": 20181105031500, "Source": "https://www.stl.news/atlanta-in-georgia-11th-hour-daggers-over-voting-system/203801/"}, {"ID": 800045407, "Actor1": "CITIZEN", "Actor1_Country": null, "Actor2": "UNITED STATES", "Actor2_Country": "USA", "Code": 10, "Class": 1, "Action_Location": "Washington, District of Columbia, United States", "Lat": 38.8951, "Long": -77.0364, "Timestamp": 20181105031500, "Source": "https://www.wral.com/kemp-cites-voter-database-hacking-attempt-gives-no-evidence/17969938/"}, {"ID": 800045408, "Actor1": "CITIZEN", "Actor1_Country": null, "Actor2": "UNITED STATES", "Actor2_Country": "USA", "Code": 10, "Class": 1, "Action_Location": "Georgia, United States", "Lat": 32.9866, "Long": -83.6487, "Timestamp": 20181105031500, "Source": "https://www.stl.news/atlanta-in-georgia-11th-hour-daggers-over-voting-system/203801/"}, {"ID": 800045423, "Actor1": "GERMANY", "Actor1_Country": "DEU", "Actor2": "CHINA", "Actor2_Country": "CHN", "Code": 51, "Class": 1, "Action_Location": "United Kingdom", "Lat": 54.0, "Long": -4.0, "Timestamp": 20181105031500, "Source": "https://www.dawn.com/news/1443707"}, {"ID": 800045425, "Actor1": "DJIBOUTI", "Actor1_Country": "DJI", "Actor2": "YEMEN", "Actor2_Country": "YEM", "Code": 190, "Class": 4, "Action_Location": "Hodeida, Al ?udaydah, Yemen", "Lat": 14.7978, "Long": 42.9545, "Timestamp": 20181105031500, "Source": "https://www.dailymail.co.uk/wires/afp/article-6351121/Dozens-Yemeni-rebels-killed-Red-Sea-port-city-medics.html"}, {"ID": 800045428, "Actor1": "SANGAY", "Actor1_Country": "ECU", "Actor2": "TIBETAN", "Actor2_Country": null, "Code": 42, "Class": 1, "Action_Location": "Xinjiang, Jiangxi, China", "Lat": 27.7481, "Long": 116.274, "Timestamp": 20181105031500, "Source": "https://www.dawn.com/news/1443645/activists-urge-scrutiny-of-chinas-rights-record-at-un-meeting-this-week"}, {"ID": 800045456, "Actor1": "UNIVERSITY", "Actor1_Country": null, "Actor2": "NIGERIA", "Actor2_Country": "NGA", "Code": 46, "Class": 1, "Action_Location": "Akure, Ondo, Nigeria", "Lat": 7.25256, "Long": 5.19312, "Timestamp": 20181105031500, "Source": "http://sunnewsonline.com/asuu-embarks-on-indefinite-strike/"}, {"ID": 800045457, "Actor1": "PUPIL", "Actor1_Country": null, "Actor2": "NIGERIA", "Actor2_Country": "NGA", "Code": 51, "Class": 1, "Action_Location": "Sokoto, Sokoto, Nigeria", "Lat": 13.0609, "Long": 5.23902, "Timestamp": 20181105031500, "Source": "http://thenationonlineng.net/wamakko-donates-2-m-books-to-sokoto-pupils/"}, {"ID": 800045461, "Actor1": "SCHOOL", "Actor1_Country": null, "Actor2": "UNITED STATES", "Actor2_Country": "USA", "Code": 42, "Class": 1, "Action_Location": "Halmstad Elementary School, Wisconsin, United States", "Lat": 44.9144, "Long": -91.3793, "Timestamp": 20181105031500, "Source": "https://kstp.com/national/the-latest-girl-scouts-ceo-says-hearts-broken-over-crash/5133385/?cat=162"}, {"ID": 800045466, "Actor1": "EGYPTIAN", "Actor1_Country": "EGY", "Actor2": "CHRISTIAN", "Actor2_Country": null, "Code": 193, "Class": 4, "Action_Location": "Cairo, Al Qahirah, Egypt", "Lat": 30.05, "Long": 31.25, "Timestamp": 20181105031500, "Source": "http://currenthollywood.com/2018/11/egypt-kills-isis-militants-suspected-in-attack-on-christians/"}, {"ID": 800045468, "Actor1": "EGYPT", "Actor1_Country": "EGY", "Actor2": "MILITANT", "Actor2_Country": null, "Code": 190, "Class": 4, "Action_Location": "Cairo, Al Qahirah, Egypt", "Lat": 30.05, "Long": 31.25, "Timestamp": 20181105031500, "Source": "http://currenthollywood.com/2018/11/egypt-kills-isis-militants-suspected-in-attack-on-christians/"}, {"ID": 800045469, "Actor1": "EGYPTIAN", "Actor1_Country": "EGY", "Actor2": "MILITANT", "Actor2_Country": null, "Code": 193, "Class": 4, "Action_Location": "Cairo, Al Qahirah, Egypt", "Lat": 30.05, "Long": 31.25, "Timestamp": 20181105031500, "Source": "http://currenthollywood.com/2018/11/egypt-kills-isis-militants-suspected-in-attack-on-christians/"}, {"ID": 800045471, "Actor1": "EGYPTIAN", "Actor1_Country": "EGY", "Actor2": "GUNMEN", "Actor2_Country": null, "Code": 190, "Class": 4, "Action_Location": "Cairo, Al Qahirah, Egypt", "Lat": 30.05, "Long": 31.25, "Timestamp": 20181105031500, "Source": "http://currenthollywood.com/2018/11/egypt-kills-isis-militants-suspected-in-attack-on-christians/"}, {"ID": 800045472, "Actor1": "EGYPTIAN", "Actor1_Country": "EGY", "Actor2": "MILITANT", "Actor2_Country": null, "Code": 193, "Class": 4, "Action_Location": "Cairo, Al Qahirah, Egypt", "Lat": 30.05, "Long": 31.25, "Timestamp": 20181105031500, "Source": "http://currenthollywood.com/2018/11/egypt-kills-isis-militants-suspected-in-attack-on-christians/"}, {"ID": 800045473, "Actor1": "CONSERVATIONIST", "Actor1_Country": null, "Actor2": "MYANMAR", "Actor2_Country": "MMR", "Code": 51, "Class": 1, "Action_Location": "Yangon, Yangon, Myanmar", "Lat": 16.8053, "Long": 96.1561, "Timestamp": 20181105031500, "Source": "http://www.mizzima.com/article/myanmar-holds-art-festival-raise-wildlife-conservation-awareness"}, {"ID": 800045480, "Actor1": "FRANCE", "Actor1_Country": "FRA", "Actor2": "CHINA", "Actor2_Country": "CHN", "Code": 51, "Class": 1, "Action_Location": "United Kingdom", "Lat": 54.0, "Long": -4.0, "Timestamp": 20181105031500, "Source": "https://www.dawn.com/news/1443707"}, {"ID": 800045493, "Actor1": "BRITAIN", "Actor1_Country": "GBR", "Actor2": "CHINA", "Actor2_Country": "CHN", "Code": 51, "Class": 1, "Action_Location": "United Kingdom", "Lat": 54.0, "Long": -4.0, "Timestamp": 20181105031500, "Source": "https://www.dawn.com/news/1443707"}, {"ID": 800045496, "Actor1": "BRITAIN", "Actor1_Country": "GBR", "Actor2": "UNITED STATES", "Actor2_Country": "USA", "Code": 60, "Class": 2, "Action_Location": "United Kingdom", "Lat": 54.0, "Long": -4.0, "Timestamp": 20181105031500, "Source": "https://en.trend.az/world/europe/2975430.html"}, {"ID": 800045497, "Actor1": "BRITAIN", "Actor1_Country": "GBR", "Actor2": "UNITED STATES", "Actor2_Country": "USA", "Code": 60, "Class": 2, "Action_Location": "United Kingdom", "Lat": 54.0, "Long": -4.0, "Timestamp": 20181105031500, "Source": "https://en.trend.az/world/europe/2975430.html"}, {"ID": 800045500, "Actor1": "BRITAIN", "Actor1_Country": "GBR", "Actor2": "YEMEN", "Actor2_Country": "YEM", "Code": 160, "Class": 4, "Action_Location": "United States", "Lat": 39.828175, "Long": -98.5795, "Timestamp": 20181105031500, "Source": "https://en.trend.az/world/europe/2975430.html"}, {"ID": 800045501, "Actor1": "BRITAIN", "Actor1_Country": "GBR", "Actor2": "YEMEN", "Actor2_Country": "YEM", "Code": 160, "Class": 4, "Action_Location": "Yemen", "Lat": 15.5, "Long": 47.5, "Timestamp": 20181105031500, "Source": "https://en.trend.az/world/europe/2975430.html"}, {"ID": 800045505, "Actor1": "GHANA", "Actor1_Country": "GHA", "Actor2": "GHANA", "Actor2_Country": "GHA", "Code": 20, "Class": 1, "Action_Location": "Ghana", "Lat": 8.0, "Long": -2.0, "Timestamp": 20181105031500, "Source": "https://www.ghanaweb.com/GhanaHomePage/business/Forex-Bureau-directives-must-be-properly-implemented-Audio-report-697935"}, {"ID": 800045530, "Actor1": "SPECIAL ENVOY", "Actor1_Country": null, "Actor2": "UNITED ARAB EMIRATES", "Actor2_Country": "ARE", "Code": 173, "Class": 4, "Action_Location": "Istanbul, Istanbul, Turkey", "Lat": 41.0186, "Long": 28.9647, "Timestamp": 20181105031500, "Source": "https://en.trend.az/world/europe/2975430.html"}, {"ID": 800045532, "Actor1": "CHIEF EXECUTIVE", "Actor1_Country": null, "Actor2": "INDUSTRY", "Actor2_Country": null, "Code": 10, "Class": 1, "Action_Location": "Oakland, California, United States", "Lat": 37.8044, "Long": -122.271, "Timestamp": 20181105031500, "Source": "https://indianexpress.com/article/business/companies/why-do-you-fire-so-many-americans-tcs-faces-us-jury-5434196/"}, {"ID": 800045533, "Actor1": "CHIEF EXECUTIVE", "Actor1_Country": null, "Actor2": "INDUSTRY", "Actor2_Country": null, "Code": 10, "Class": 1, "Action_Location": "California, United States", "Lat": 36.17, "Long": -119.746, "Timestamp": 20181105031500, "Source": "https://indianexpress.com/article/business/companies/why-do-you-fire-so-many-americans-tcs-faces-us-jury-5434196/"}, {"ID": 800045535, "Actor1": "CHIEF EXECUTIVE", "Actor1_Country": null, "Actor2": "INDUSTRY", "Actor2_Country": null, "Code": 20, "Class": 1, "Action_Location": "Oakland, California, United States", "Lat": 37.8044, "Long": -122.271, "Timestamp": 20181105031500, "Source": "https://indianexpress.com/article/business/companies/why-do-you-fire-so-many-americans-tcs-faces-us-jury-5434196/"}, {"ID": 800045536, "Actor1": "CHIEF EXECUTIVE", "Actor1_Country": null, "Actor2": "INDUSTRY", "Actor2_Country": null, "Code": 20, "Class": 1, "Action_Location": "Oakland, California, United States", "Lat": 37.8044, "Long": -122.271, "Timestamp": 20181105031500, "Source": "https://indianexpress.com/article/business/companies/why-do-you-fire-so-many-americans-tcs-faces-us-jury-5434196/"}, {"ID": 800045537, "Actor1": "COMMERCE DEPARTMENT", "Actor1_Country": null, "Actor2": "COMPANIES", "Actor2_Country": null, "Code": 172, "Class": 4, "Action_Location": "Shanghai, Shanghai, China", "Lat": 31.2222, "Long": 121.458, "Timestamp": 20181105031500, "Source": "https://www.nytimes.com/reuters/2018/11/04/technology/04reuters-usa-justice-china-fujianjinhua.html"}, {"ID": 800045538, "Actor1": "COMMERCE DEPARTMENT", "Actor1_Country": null, "Actor2": "CHINESE", "Actor2_Country": "CHN", "Code": 12, "Class": 1, "Action_Location": "Beijing, Beijing, China", "Lat": 39.9289, "Long": 116.388, "Timestamp": 20181105031500, "Source": "https://www.nytimes.com/reuters/2018/11/04/technology/04reuters-usa-justice-china-fujianjinhua.html"}, {"ID": 800045540, "Actor1": "GOVERNANCE", "Actor1_Country": null, "Actor2": "VOTER", "Actor2_Country": null, "Code": 10, "Class": 1, "Action_Location": "Georgia, United States", "Lat": 32.9866, "Long": -83.6487, "Timestamp": 20181105031500, "Source": "https://www.wral.com/kemp-cites-voter-database-hacking-attempt-gives-no-evidence/17969938/"}, {"ID": 800045545, "Actor1": "GOVERNANCE", "Actor1_Country": null, "Actor2": "VOTER", "Actor2_Country": null, "Code": 111, "Class": 3, "Action_Location": "Georgia, United States", "Lat": 32.9866, "Long": -83.6487, "Timestamp": 20181105031500, "Source": "https://www.wral.com/kemp-cites-voter-database-hacking-attempt-gives-no-evidence/17969938/"}, {"ID": 800045549, "Actor1": "GOVERNANCE", "Actor1_Country": null, "Actor2": "RESERVE BANK", "Actor2_Country": null, "Code": 36, "Class": 1, "Action_Location": "New Delhi, Delhi, India", "Lat": 28.6, "Long": 77.2, "Timestamp": 20181105031500, "Source": "https://economictimes.indiatimes.com/news/economy/policy/governance-issues-may-hog-limelight-at-rbi-board-meet/articleshow/66504677.cms"}, {"ID": 800045559, "Actor1": "MINIST", "Actor1_Country": null, "Actor2": "IRELAND", "Actor2_Country": "IRL", "Code": 120, "Class": 3, "Action_Location": "Whitehall, Kilkenny, Ireland", "Lat": 52.6811, "Long": -7.02222, "Timestamp": 20181105031500, "Source": "https://www.independent.ie/business/brexit/british-want-soft-border-deal-to-last-just-12-weeks-37492130.html"}, {"ID": 800045561, "Actor1": "PRESIDENT", "Actor1_Country": null, "Actor2": "IRAN", "Actor2_Country": "IRN", "Code": 874, "Class": 2, "Action_Location": "United States", "Lat": 39.828175, "Long": -98.5795, "Timestamp": 20181105031500, "Source": "https://www.dawn.com/news/1443707"}, {"ID": 800045562, "Actor1": "MINIST", "Actor1_Country": null, "Actor2": "JERUSALEM", "Actor2_Country": "ISR", "Code": 172, "Class": 4, "Action_Location": "Jerusalem, Israel (general), Israel", "Lat": 31.7667, "Long": 35.2333, "Timestamp": 20181105031500, "Source": "https://www.dawn.com/news/1443666/israel-raids-office-of-jerusalems-palestinian-governor"}, {"ID": 800045563, "Actor1": "MINISTRY", "Actor1_Country": null, "Actor2": "ISRAELI", "Actor2_Country": "ISR", "Code": 190, "Class": 4, "Action_Location": "Jerusalem, Israel (general), Israel", "Lat": 31.7667, "Long": 35.2333, "Timestamp": 20181105031500, "Source": "https://www.dawn.com/news/1443666/israel-raids-office-of-jerusalems-palestinian-governor"}, {"ID": 800045566, "Actor1": "AUTHORITIES", "Actor1_Country": null, "Actor2": "MYANMAR", "Actor2_Country": "MMR", "Code": 46, "Class": 1, "Action_Location": "Yangon, Yangon, Myanmar", "Lat": 16.8053, "Long": 96.1561, "Timestamp": 20181105031500, "Source": "http://www.mizzima.com/article/myanmar-holds-art-festival-raise-wildlife-conservation-awareness"}, {"ID": 800045567, "Actor1": "AUTHORITIES", "Actor1_Country": null, "Actor2": "KYAW MYINT", "Actor2_Country": "MMR", "Code": 46, "Class": 1, "Action_Location": "Yangon, Yangon, Myanmar", "Lat": 16.8053, "Long": 96.1561, "Timestamp": 20181105031500, "Source": "http://www.mizzima.com/article/myanmar-holds-art-festival-raise-wildlife-conservation-awareness"}, {"ID": 800045571, "Actor1": "GOVERNMENT", "Actor1_Country": null, "Actor2": "NIGERIAN", "Actor2_Country": "NGA", "Code": 100, "Class": 3, "Action_Location": "Sokoto, Sokoto, Nigeria", "Lat": 13.0609, "Long": 5.23902, "Timestamp": 20181105031500, "Source": "http://thenationonlineng.net/buhari-reviving-abandoned-projects-says-minister/"}, {"ID": 800045577, "Actor1": "PRESIDENT", "Actor1_Country": null, "Actor2": "SUDAN", "Actor2_Country": "SDN", "Code": 46, "Class": 1, "Action_Location": "Darfur, Gharb Darfur, Sudan", "Lat": 13.5, "Long": 23.5, "Timestamp": 20181105031500, "Source": "https://www.dawn.com/news/1443665/khartoum-accepts-south-sudans-mediation"}, {"ID": 800045578, "Actor1": "MINISTRY", "Actor1_Country": null, "Actor2": "MILITANT", "Actor2_Country": null, "Code": 180, "Class": 4, "Action_Location": "Cairo, Al Qahirah, Egypt", "Lat": 30.05, "Long": 31.25, "Timestamp": 20181105031500, "Source": "http://currenthollywood.com/2018/11/egypt-kills-isis-militants-suspected-in-attack-on-christians/"}, {"ID": 800045580, "Actor1": "PRESIDENT", "Actor1_Country": null, "Actor2": "UNITED STATES", "Actor2_Country": "USA", "Code": 10, "Class": 1, "Action_Location": "Pyongyang, P'yongyang-si, North Korea", "Lat": 39.0194, "Long": 125.755, "Timestamp": 20181105031500, "Source": "https://www.dawn.com/news/1443667/pompeo-to-meet-n-korea-number-two-in-new-york"}, {"ID": 800045581, "Actor1": "GOVERNOR", "Actor1_Country": null, "Actor2": "UNITED STATES", "Actor2_Country": "USA", "Code": 14, "Class": 1, "Action_Location": "Anchorage, Alaska, United States", "Lat": 61.2181, "Long": -149.9, "Timestamp": 20181105031500, "Source": "https://www.charlotteobserver.com/news/politics-government/national-politics/article221116125.html"}, {"ID": 800045582, "Actor1": "ADMINISTRATION", "Actor1_Country": null, "Actor2": "UNITED STATES", "Actor2_Country": "USA", "Code": 36, "Class": 1, "Action_Location": "Terre Haute, Ohio, United States", "Lat": 40.0495, "Long": -83.878, "Timestamp": 20181105031500, "Source": "https://www.tribstar.com/news/local_news/vcsc-board-continues-police-review-work-tonight/article_6a7ac0e2-df5d-5a48-a8fa-381b38f5a40c.html"}, {"ID": 800045585, "Actor1": "ADMINISTRATION", "Actor1_Country": null, "Actor2": "OBAMA", "Actor2_Country": "USA", "Code": 43, "Class": 1, "Action_Location": "Illinois, United States", "Lat": 40.3363, "Long": -89.0022, "Timestamp": 20181105031500, "Source": "https://www.themonitor.com/news/elections/article_96cc4833-8e4b-5b7e-ba66-78d7c71dca48.html"}, {"ID": 800045586, "Actor1": "DIPLOMAT", "Actor1_Country": null, "Actor2": "YEMEN", "Actor2_Country": "YEM", "Code": 46, "Class": 1, "Action_Location": "Istanbul, Istanbul, Turkey", "Lat": 41.0186, "Long": 28.9647, "Timestamp": 20181105031500, "Source": "https://en.trend.az/world/europe/2975430.html"}, {"ID": 800045590, "Actor1": "RESERVE BANK", "Actor1_Country": null, "Actor2": "GOVERNANCE", "Actor2_Country": null, "Code": 36, "Class": 1, "Action_Location": "Mumbai, Maharashtra, India", "Lat": 18.975, "Long": 72.8258, "Timestamp": 20181105031500, "Source": "https://economictimes.indiatimes.com/news/economy/policy/governance-issues-may-hog-limelight-at-rbi-board-meet/articleshow/66504677.cms"}, {"ID": 800045591, "Actor1": "RESERVE BANK", "Actor1_Country": null, "Actor2": "MUMBAI", "Actor2_Country": "IND", "Code": 36, "Class": 1, "Action_Location": "Mumbai, Maharashtra, India", "Lat": 18.975, "Long": 72.8258, "Timestamp": 20181105031500, "Source": "https://economictimes.indiatimes.com/news/economy/policy/governance-issues-may-hog-limelight-at-rbi-board-meet/articleshow/66504677.cms"}, {"ID": 800045617, "Actor1": "THE UN", "Actor1_Country": null, "Actor2": "UNICEF", "Actor2_Country": null, "Code": 71, "Class": 2, "Action_Location": "Hodeida, Al ?udaydah, Yemen", "Lat": 14.7978, "Long": 42.9545, "Timestamp": 20181105031500, "Source": "https://www.dawn.com/news/1443652/battles-rock-yemens-port-city-as-un-speaks-of-living-hell-for-children"}, {"ID": 800045618, "Actor1": "THE UN", "Actor1_Country": null, "Actor2": "YEMEN", "Actor2_Country": "YEM", "Code": 130, "Class": 3, "Action_Location": "Hodeida, Al ?udaydah, Yemen", "Lat": 14.7978, "Long": 42.9545, "Timestamp": 20181105031500, "Source": "https://www.dawn.com/news/1443652/battles-rock-yemens-port-city-as-un-speaks-of-living-hell-for-children"}, {"ID": 800045628, "Actor1": "NEW DELHI", "Actor1_Country": "IND", "Actor2": "INDUSTRY", "Actor2_Country": null, "Code": 231, "Class": 1, "Action_Location": "Bhawan, Uttar Pradesh, India", "Lat": 27.6154, "Long": 79.6429, "Timestamp": 20181105031500, "Source": "https://economictimes.indiatimes.com/news/politics-and-nation/party-funding-richest-electoral-trust-sends-bjp-its-biggest-cheque/articleshow/66504649.cms"}, {"ID": 800045629, "Actor1": "MUMBAI", "Actor1_Country": "IND", "Actor2": "RESERVE BANK", "Actor2_Country": null, "Code": 36, "Class": 1, "Action_Location": "New Delhi, Delhi, India", "Lat": 28.6, "Long": 77.2, "Timestamp": 20181105031500, "Source": "https://economictimes.indiatimes.com/news/economy/policy/governance-issues-may-hog-limelight-at-rbi-board-meet/articleshow/66504677.cms"}, {"ID": 800045630, "Actor1": "NEW DELHI", "Actor1_Country": "IND", "Actor2": "RULING PARTY", "Actor2_Country": null, "Code": 70, "Class": 2, "Action_Location": "Delhi, Delhi, India", "Lat": 28.6667, "Long": 77.2167, "Timestamp": 20181105031500, "Source": "https://economictimes.indiatimes.com/news/politics-and-nation/party-funding-richest-electoral-trust-sends-bjp-its-biggest-cheque/articleshow/66504649.cms"}, {"ID": 800045631, "Actor1": "GUJARAT", "Actor1_Country": "IND", "Actor2": "ZOROASTRIAN", "Actor2_Country": null, "Code": 73, "Class": 2, "Action_Location": "India", "Lat": 20.0, "Long": 77.0, "Timestamp": 20181105031500, "Source": "http://econintersect.com/pages/contributors/contributor.php?post=201811042056"}, {"ID": 800045638, "Actor1": "IRELAND", "Actor1_Country": "IRL", "Actor2": "VILLAGE", "Actor2_Country": null, "Code": 10, "Class": 1, "Action_Location": "Killarney, Kerry, Ireland", "Lat": 52.05, "Long": -9.51667, "Timestamp": 20181105031500, "Source": "https://www.independent.ie/irish-news/womans-body-is-recovered-from-river-after-kayak-tragedy-37492093.html"}, {"ID": 800045639, "Actor1": "IRELAND", "Actor1_Country": "IRL", "Actor2": "SCHOOL", "Actor2_Country": null, "Code": 36, "Class": 1, "Action_Location": "Ireland", "Lat": 53.0, "Long": -8.0, "Timestamp": 20181105031500, "Source": "https://www.independent.ie/irish-news/education/six-autistic-pupils-start-late-due-to-build-delay-37492153.html"}, {"ID": 800045640, "Actor1": "IRELAND", "Actor1_Country": "IRL", "Actor2": "BRITISH", "Actor2_Country": "GBR", "Code": 20, "Class": 1, "Action_Location": "United Kingdom", "Lat": 54.0, "Long": -4.0, "Timestamp": 20181105031500, "Source": "https://www.theaustralian.com.au/news/latest-news/uk-to-scrap-residency-rule-for-troops/news-story/9b3cd5ebd73f4641bdae026edafce090?nk=7f08bfb2d3b8da72298a3391c0f05e69-1541386936"}, {"ID": 800045644, "Actor1": "IRELAND", "Actor1_Country": "IRL", "Actor2": "IRELAND", "Actor2_Country": "IRL", "Code": 120, "Class": 3, "Action_Location": "Whitehall, Kilkenny, Ireland", "Lat": 52.6811, "Long": -7.02222, "Timestamp": 20181105031500, "Source": "https://www.independent.ie/business/brexit/british-want-soft-border-deal-to-last-just-12-weeks-37492130.html"}, {"ID": 800045647, "Actor1": "IRAN", "Actor1_Country": "IRN", "Actor2": "PRODUCER", "Actor2_Country": null, "Code": 61, "Class": 2, "Action_Location": "Tehran, Tehran, Iran", "Lat": 35.75, "Long": 51.5148, "Timestamp": 20181105031500, "Source": "https://www.realclearpolitics.com/articles/2018/11/05/trumps_iran_policies_are_proving_effective_138554.html"}, {"ID": 800045653, "Actor1": "IRAN", "Actor1_Country": "IRN", "Actor2": "IRAN", "Actor2_Country": "IRN", "Code": 874, "Class": 2, "Action_Location": "Tehran, Tehran, Iran", "Lat": 35.75, "Long": 51.5148, "Timestamp": 20181105031500, "Source": "https://www.dawn.com/news/1443707"}, {"ID": 800045654, "Actor1": "IRAN", "Actor1_Country": "IRN", "Actor2": "TEHRAN", "Actor2_Country": "IRN", "Code": 163, "Class": 4, "Action_Location": "United States", "Lat": 39.828175, "Long": -98.5795, "Timestamp": 20181105031500, "Source": "https://www.dawn.com/news/1443707"}, {"ID": 800045667, "Actor1": "ISRAEL", "Actor1_Country": "ISR", "Actor2": "POLICE", "Actor2_Country": null, "Code": 112, "Class": 3, "Action_Location": "Jerusalem, Israel (general), Israel", "Lat": 31.7667, "Long": 35.2333, "Timestamp": 20181105031500, "Source": "https://www.dawn.com/news/1443666/israel-raids-office-of-jerusalems-palestinian-governor"}, {"ID": 800045668, "Actor1": "ISRAEL", "Actor1_Country": "ISR", "Actor2": "POLICE", "Actor2_Country": null, "Code": 190, "Class": 4, "Action_Location": "Jerusalem, Israel (general), Israel", "Lat": 31.7667, "Long": 35.2333, "Timestamp": 20181105031500, "Source": "https://www.dawn.com/news/1443666/israel-raids-office-of-jerusalems-palestinian-governor"}, {"ID": 800045673, "Actor1": "ISRAELI", "Actor1_Country": "ISR", "Actor2": "AUTHORITIES", "Actor2_Country": null, "Code": 90, "Class": 2, "Action_Location": "Jerusalem, Israel (general), Israel", "Lat": 31.7667, "Long": 35.2333, "Timestamp": 20181105031500, "Source": "https://www.dawn.com/news/1443666/israel-raids-office-of-jerusalems-palestinian-governor"}, {"ID": 800045674, "Actor1": "ISRAEL", "Actor1_Country": "ISR", "Actor2": "MINIST", "Actor2_Country": null, "Code": 1711, "Class": 4, "Action_Location": "Jerusalem, Israel (general), Israel", "Lat": 31.7667, "Long": 35.2333, "Timestamp": 20181105031500, "Source": "https://www.dawn.com/news/1443666/israel-raids-office-of-jerusalems-palestinian-governor"}, {"ID": 800045679, "Actor1": "ISRAEL", "Actor1_Country": "ISR", "Actor2": "ISRAEL", "Actor2_Country": "ISR", "Code": 111, "Class": 3, "Action_Location": "Jerusalem, Israel (general), Israel", "Lat": 31.7667, "Long": 35.2333, "Timestamp": 20181105031500, "Source": "https://www.dawn.com/news/1443666/israel-raids-office-of-jerusalems-palestinian-governor"}, {"ID": 800045682, "Actor1": "ISRAELI", "Actor1_Country": "ISR", "Actor2": "ISRAELI", "Actor2_Country": "ISR", "Code": 173, "Class": 4, "Action_Location": "Jerusalem, Israel (general), Israel", "Lat": 31.7667, "Long": 35.2333, "Timestamp": 20181105031500, "Source": "https://www.dawn.com/news/1443666/israel-raids-office-of-jerusalems-palestinian-governor"}, {"ID": 800045684, "Actor1": "ISRAEL", "Actor1_Country": "ISR", "Actor2": "ARMY", "Actor2_Country": null, "Code": 112, "Class": 3, "Action_Location": "Jerusalem, Israel (general), Israel", "Lat": 31.7667, "Long": 35.2333, "Timestamp": 20181105031500, "Source": "https://www.dawn.com/news/1443666/israel-raids-office-of-jerusalems-palestinian-governor"}, {"ID": 800045685, "Actor1": "ISRAEL", "Actor1_Country": "ISR", "Actor2": "ARMY", "Actor2_Country": null, "Code": 190, "Class": 4, "Action_Location": "Jerusalem, Israel (general), Israel", "Lat": 31.7667, "Long": 35.2333, "Timestamp": 20181105031500, "Source": "https://www.dawn.com/news/1443666/israel-raids-office-of-jerusalems-palestinian-governor"}, {"ID": 800045692, "Actor1": "JERUSALEM", "Actor1_Country": "ISR", "Actor2": "PALESTINIAN", "Actor2_Country": "PSE", "Code": 172, "Class": 4, "Action_Location": "Jerusalem, Israel (general), Israel", "Lat": 31.7667, "Long": 35.2333, "Timestamp": 20181105031500, "Source": "https://www.dawn.com/news/1443666/israel-raids-office-of-jerusalems-palestinian-governor"}, {"ID": 800045697, "Actor1": "ISRAELI", "Actor1_Country": "ISR", "Actor2": "PALESTINIAN", "Actor2_Country": "PSE", "Code": 190, "Class": 4, "Action_Location": "Jerusalem, Israel (general), Israel", "Lat": 31.7667, "Long": 35.2333, "Timestamp": 20181105031500, "Source": "https://www.dawn.com/news/1443666/israel-raids-office-of-jerusalems-palestinian-governor"}, {"ID": 800045701, "Actor1": "JERUSALEM", "Actor1_Country": "ISR", "Actor2": "JERUSALEM", "Actor2_Country": "ISR", "Code": 172, "Class": 4, "Action_Location": "Jerusalem, Israel (general), Israel", "Lat": 31.7667, "Long": 35.2333, "Timestamp": 20181105031500, "Source": "https://www.dawn.com/news/1443666/israel-raids-office-of-jerusalems-palestinian-governor"}, {"ID": 800045702, "Actor1": "ISRAEL", "Actor1_Country": "ISR", "Actor2": "PALESTINIAN", "Actor2_Country": "PSE", "Code": 111, "Class": 3, "Action_Location": "Jerusalem, Israel (general), Israel", "Lat": 31.7667, "Long": 35.2333, "Timestamp": 20181105031500, "Source": "https://www.dawn.com/news/1443666/israel-raids-office-of-jerusalems-palestinian-governor"}, {"ID": 800045761, "Actor1": "SENATOR", "Actor1_Country": null, "Actor2": "SCHOOL", "Actor2_Country": null, "Code": 70, "Class": 2, "Action_Location": "Sokoto, Sokoto, Nigeria", "Lat": 13.0609, "Long": 5.23902, "Timestamp": 20181105031500, "Source": "http://thenationonlineng.net/wamakko-donates-2-m-books-to-sokoto-pupils/"}, {"ID": 800045771, "Actor1": "SRI LANKA", "Actor1_Country": "LKA", "Actor2": "LAWMAKER", "Actor2_Country": null, "Code": 20, "Class": 1, "Action_Location": "Colombo, Western, Sri Lanka", "Lat": 6.93194, "Long": 79.8478, "Timestamp": 20181105031500, "Source": "https://www.dawn.com/news/1443660/sacked-sri-lankan-pms-residence-becomes-symbol-of-power-struggle"}, {"ID": 800045772, "Actor1": "SRI LANKA", "Actor1_Country": "LKA", "Actor2": "TAMIL", "Actor2_Country": null, "Code": 42, "Class": 1, "Action_Location": "Temple Trees, Western, Sri Lanka", "Lat": 6.9149, "Long": 79.8477, "Timestamp": 20181105031500, "Source": "https://www.dawn.com/news/1443660/sacked-sri-lankan-pms-residence-becomes-symbol-of-power-struggle"}, {"ID": 800045773, "Actor1": "SRI LANKA", "Actor1_Country": "LKA", "Actor2": "UNITED STATES", "Actor2_Country": "USA", "Code": 10, "Class": 1, "Action_Location": "Washington, District of Columbia, United States", "Lat": 38.8951, "Long": -77.0364, "Timestamp": 20181105031500, "Source": "https://www.dawn.com/news/1443656/ousted-lankan-pm-says-us-japan-have-frozen-aid-after-political-crisis"}, {"ID": 800045774, "Actor1": "SRI LANKAN", "Actor1_Country": "LKA", "Actor2": "WASHINGTON", "Actor2_Country": "USA", "Code": 10, "Class": 1, "Action_Location": "Washington, District of Columbia, United States", "Lat": 38.8951, "Long": -77.0364, "Timestamp": 20181105031500, "Source": "https://www.dawn.com/news/1443656/ousted-lankan-pm-says-us-japan-have-frozen-aid-after-political-crisis"}, {"ID": 800045779, "Actor1": "SPOKESMAN", "Actor1_Country": null, "Actor2": "BANGLADESH", "Actor2_Country": "BGD", "Code": 10, "Class": 1, "Action_Location": "Bangladesh", "Lat": 24.0, "Long": 90.0, "Timestamp": 20181105031500, "Source": "http://www.mizzima.com/article/aung-san-suu-kyis-party-slapped-down-elections"}, {"ID": 800045789, "Actor1": "MEDIA", "Actor1_Country": null, "Actor2": "RUSSIA", "Actor2_Country": "RUS", "Code": 10, "Class": 1, "Action_Location": "Petersburg, Sankt-Peterburg, Russia", "Lat": 59.8944, "Long": 30.2642, "Timestamp": 20181105031500, "Source": "https://www.tbo.com/news/politics/Transgender-community-and-supporters-announce-they-will-not-be-erased_173261396"}, {"ID": 800045799, "Actor1": "MILITARY", "Actor1_Country": null, "Actor2": "UNITED STATES", "Actor2_Country": "USA", "Code": 72, "Class": 2, "Action_Location": "Illinois, United States", "Lat": 40.3363, "Long": -89.0022, "Timestamp": 20181105031500, "Source": "https://www.themonitor.com/news/elections/article_96cc4833-8e4b-5b7e-ba66-78d7c71dca48.html"}, {"ID": 800045802, "Actor1": "MYANMAR", "Actor1_Country": "MMR", "Actor2": "BANGLADESH", "Actor2_Country": "BGD", "Code": 32, "Class": 1, "Action_Location": "Balukhali, Chittagong, Bangladesh", "Lat": 21.1345, "Long": 92.1833, "Timestamp": 20181105031500, "Source": "http://www.mizzima.com/article/refugee-teen-injured-firing-bangladesh-myanmar-border"}, {"ID": 800045803, "Actor1": "MYANMAR", "Actor1_Country": "MMR", "Actor2": "AUTHORITIES", "Actor2_Country": null, "Code": 46, "Class": 1, "Action_Location": "Yangon, Yangon, Myanmar", "Lat": 16.8053, "Long": 96.1561, "Timestamp": 20181105031500, "Source": "http://www.mizzima.com/article/myanmar-holds-art-festival-raise-wildlife-conservation-awareness"}, {"ID": 800045804, "Actor1": "MANDALAY", "Actor1_Country": "MMR", "Actor2": "TRADE UNION", "Actor2_Country": null, "Code": 20, "Class": 1, "Action_Location": "Mandalay, Mandalay, Myanmar", "Lat": 22.0, "Long": 96.0833, "Timestamp": 20181105031500, "Source": "http://www.mizzima.com/article/sacked-workers-bagan-tharapa-hotel-stage-demonstration"}, {"ID": 800045805, "Actor1": "MYANMAR", "Actor1_Country": "MMR", "Actor2": "MILITARY", "Actor2_Country": null, "Code": 16, "Class": 1, "Action_Location": "Bangladesh", "Lat": 24.0, "Long": 90.0, "Timestamp": 20181105031500, "Source": "http://www.mizzima.com/article/aung-san-suu-kyis-party-slapped-down-elections"}, {"ID": 800045806, "Actor1": "MYANMAR", "Actor1_Country": "MMR", "Actor2": "MILITARY", "Actor2_Country": null, "Code": 190, "Class": 4, "Action_Location": "Bangladesh", "Lat": 24.0, "Long": 90.0, "Timestamp": 20181105031500, "Source": "http://www.mizzima.com/article/aung-san-suu-kyis-party-slapped-down-elections"}, {"ID": 800045807, "Actor1": "MYANMAR", "Actor1_Country": "MMR", "Actor2": "BORDER GUARD", "Actor2_Country": null, "Code": 40, "Class": 1, "Action_Location": "Balukhali, Chittagong, Bangladesh", "Lat": 21.1345, "Long": 92.1833, "Timestamp": 20181105031500, "Source": "http://www.mizzima.com/article/refugee-teen-injured-firing-bangladesh-myanmar-border"}, {"ID": 800045808, "Actor1": "KYAW MYINT", "Actor1_Country": "MMR", "Actor2": "AUTHORITIES", "Actor2_Country": null, "Code": 46, "Class": 1, "Action_Location": "Yangon, Yangon, Myanmar", "Lat": 16.8053, "Long": 96.1561, "Timestamp": 20181105031500, "Source": "http://www.mizzima.com/article/myanmar-holds-art-festival-raise-wildlife-conservation-awareness"}, {"ID": 800045816, "Actor1": "ISLAM", "Actor1_Country": null, "Actor2": "BANGLADESH", "Actor2_Country": "BGD", "Code": 13, "Class": 1, "Action_Location": "Balukhali, Chittagong, Bangladesh", "Lat": 21.1345, "Long": 92.1833, "Timestamp": 20181105031500, "Source": "http://www.mizzima.com/article/refugee-teen-injured-firing-bangladesh-myanmar-border"}, {"ID": 800045817, "Actor1": "MUSLIM", "Actor1_Country": null, "Actor2": "CHINA", "Actor2_Country": "CHN", "Code": 112, "Class": 3, "Action_Location": "Xinjiang, Jiangxi, China", "Lat": 27.7481, "Long": 116.274, "Timestamp": 20181105031500, "Source": "https://www.dawn.com/news/1443645/activists-urge-scrutiny-of-chinas-rights-record-at-un-meeting-this-week"}, {"ID": 800045818, "Actor1": "ISLAM", "Actor1_Country": null, "Actor2": "REFUGEE", "Actor2_Country": null, "Code": 13, "Class": 1, "Action_Location": "Balukhali, Chittagong, Bangladesh", "Lat": 21.1345, "Long": 92.1833, "Timestamp": 20181105031500, "Source": "http://www.mizzima.com/article/refugee-teen-injured-firing-bangladesh-myanmar-border"}, {"ID": 800045830, "Actor1": "NIGERIA", "Actor1_Country": "NGA", "Actor2": "UNIVERSITY", "Actor2_Country": null, "Code": 46, "Class": 1, "Action_Location": "Akure, Ondo, Nigeria", "Lat": 7.25256, "Long": 5.19312, "Timestamp": 20181105031500, "Source": "http://sunnewsonline.com/asuu-embarks-on-indefinite-strike/"}, {"ID": 800045853, "Actor1": "ACTIVIST", "Actor1_Country": null, "Actor2": "CHINA", "Actor2_Country": "CHN", "Code": 10, "Class": 1, "Action_Location": "Xinjiang, Jiangxi, China", "Lat": 27.7481, "Long": 116.274, "Timestamp": 20181105031500, "Source": "https://www.dawn.com/news/1443645/activists-urge-scrutiny-of-chinas-rights-record-at-un-meeting-this-week"}, {"ID": 800045861, "Actor1": "PAKISTAN", "Actor1_Country": "PAK", "Actor2": "STUDENT", "Actor2_Country": null, "Code": 51, "Class": 1, "Action_Location": "Nasrullah Khan, Sindh, Pakistan", "Lat": 27.448, "Long": 68.504, "Timestamp": 20181105031500, "Source": "https://www.thenews.com.pk/print/389777-blood-camps"}, {"ID": 800045864, "Actor1": "NORTH KOREA", "Actor1_Country": "PRK", "Actor2": "UNITED STATES", "Actor2_Country": "USA", "Code": 10, "Class": 1, "Action_Location": "Pyongyang, P'yongyang-si, North Korea", "Lat": 39.0194, "Long": 125.755, "Timestamp": 20181105031500, "Source": "https://www.dawn.com/news/1443667/pompeo-to-meet-n-korea-number-two-in-new-york"}, {"ID": 800045868, "Actor1": "WEST BANK", "Actor1_Country": "PSE", "Actor2": "AUTHORITIES", "Actor2_Country": null, "Code": 90, "Class": 2, "Action_Location": "Jerusalem, Israel (general), Israel", "Lat": 31.7667, "Long": 35.2333, "Timestamp": 20181105031500, "Source": "https://www.dawn.com/news/1443666/israel-raids-office-of-jerusalems-palestinian-governor"}, {"ID": 800045869, "Actor1": "PALESTINIAN", "Actor1_Country": "PSE", "Actor2": "ISRAELI", "Actor2_Country": "ISR", "Code": 12, "Class": 1, "Action_Location": "Jerusalem, Israel (general), Israel", "Lat": 31.7667, "Long": 35.2333, "Timestamp": 20181105031500, "Source": "https://www.dawn.com/news/1443666/israel-raids-office-of-jerusalems-palestinian-governor"}, {"ID": 800045878, "Actor1": "PALESTINIAN", "Actor1_Country": "PSE", "Actor2": "ISRAELI", "Actor2_Country": "ISR", "Code": 1711, "Class": 4, "Action_Location": "Jerusalem, Israel (general), Israel", "Lat": 31.7667, "Long": 35.2333, "Timestamp": 20181105031500, "Source": "https://www.dawn.com/news/1443666/israel-raids-office-of-jerusalems-palestinian-governor"}, {"ID": 800045881, "Actor1": "WEST BANK", "Actor1_Country": "PSE", "Actor2": "ISRAEL", "Actor2_Country": "ISR", "Code": 190, "Class": 4, "Action_Location": "Jerusalem, Israel (general), Israel", "Lat": 31.7667, "Long": 35.2333, "Timestamp": 20181105031500, "Source": "https://www.dawn.com/news/1443666/israel-raids-office-of-jerusalems-palestinian-governor"}, {"ID": 800045885, "Actor1": "PALESTINIAN", "Actor1_Country": "PSE", "Actor2": "ISRAELI", "Actor2_Country": "ISR", "Code": 12, "Class": 1, "Action_Location": "Jerusalem, Israel (general), Israel", "Lat": 31.7667, "Long": 35.2333, "Timestamp": 20181105031500, "Source": "https://www.dawn.com/news/1443666/israel-raids-office-of-jerusalems-palestinian-governor"}, {"ID": 800045887, "Actor1": "PALESTINIAN", "Actor1_Country": "PSE", "Actor2": "PALESTINIAN", "Actor2_Country": "PSE", "Code": 111, "Class": 3, "Action_Location": "Jerusalem, Israel (general), Israel", "Lat": 31.7667, "Long": 35.2333, "Timestamp": 20181105031500, "Source": "https://www.dawn.com/news/1443666/israel-raids-office-of-jerusalems-palestinian-governor"}, {"ID": 800045897, "Actor1": "POLITICIAN", "Actor1_Country": null, "Actor2": "NIGERIAN", "Actor2_Country": "NGA", "Code": 110, "Class": 3, "Action_Location": "Buhari, Kano, Nigeria", "Lat": 11.4148, "Long": 8.25082, "Timestamp": 20181105031500, "Source": "http://thenationonlineng.net/olawepo-hashim-to-do-better-with-economy/"}, {"ID": 800045898, "Actor1": "POLITICIAN", "Actor1_Country": null, "Actor2": "NIGERIAN", "Actor2_Country": "NGA", "Code": 192, "Class": 4, "Action_Location": "Buhari, Kano, Nigeria", "Lat": 11.4148, "Long": 8.25082, "Timestamp": 20181105031500, "Source": "http://thenationonlineng.net/olawepo-hashim-to-do-better-with-economy/"}, {"ID": 800045906, "Actor1": "PILGRIM", "Actor1_Country": null, "Actor2": "EGYPT", "Actor2_Country": "EGY", "Code": 190, "Class": 4, "Action_Location": "Minya, Al Minya, Egypt", "Lat": 28.1099, "Long": 30.7503, "Timestamp": 20181105031500, "Source": "http://currenthollywood.com/2018/11/egypt-kills-isis-militants-suspected-in-attack-on-christians/"}, {"ID": 800045909, "Actor1": "PILGRIM", "Actor1_Country": null, "Actor2": "ARMED MEN", "Actor2_Country": null, "Code": 190, "Class": 4, "Action_Location": "Minya, Al Minya, Egypt", "Lat": 28.1099, "Long": 30.7503, "Timestamp": 20181105031500, "Source": "http://currenthollywood.com/2018/11/egypt-kills-isis-militants-suspected-in-attack-on-christians/"}, {"ID": 800045911, "Actor1": "RELIGION", "Actor1_Country": null, "Actor2": "ZOROASTRIANISM", "Actor2_Country": null, "Code": 40, "Class": 1, "Action_Location": "India", "Lat": 20.0, "Long": 77.0, "Timestamp": 20181105031500, "Source": "http://econintersect.com/pages/contributors/contributor.php?post=201811042056"}, {"ID": 800045914, "Actor1": "RUSSIA", "Actor1_Country": "RUS", "Actor2": "CHINA", "Actor2_Country": "CHN", "Code": 57, "Class": 1, "Action_Location": "Tehran, Tehran, Iran", "Lat": 35.75, "Long": 51.5148, "Timestamp": 20181105031500, "Source": "https://www.dawn.com/news/1443707"}, {"ID": 800045915, "Actor1": "RUSSIA", "Actor1_Country": "RUS", "Actor2": "CHINA", "Actor2_Country": "CHN", "Code": 57, "Class": 1, "Action_Location": "Tehran, Tehran, Iran", "Lat": 35.75, "Long": 51.5148, "Timestamp": 20181105031500, "Source": "https://www.dawn.com/news/1443707"}, {"ID": 800045927, "Actor1": "RUSSIA", "Actor1_Country": "RUS", "Actor2": "UNITED STATES", "Actor2_Country": "USA", "Code": 10, "Class": 1, "Action_Location": "Russia", "Lat": 60.0, "Long": 100.0, "Timestamp": 20181105031500, "Source": "https://economictimes.indiatimes.com/news/science/russian-billionaire-yuri-milner-eyes-a-breakthrough-age-for-science/articleshow/66504659.cms"}, {"ID": 800045928, "Actor1": "RUSSIA", "Actor1_Country": "RUS", "Actor2": "UNITED STATES", "Actor2_Country": "USA", "Code": 10, "Class": 1, "Action_Location": "Russia", "Lat": 60.0, "Long": 100.0, "Timestamp": 20181105031500, "Source": "https://economictimes.indiatimes.com/news/science/russian-billionaire-yuri-milner-eyes-a-breakthrough-age-for-science/articleshow/66504659.cms"}, {"ID": 800045937, "Actor1": "SUDAN", "Actor1_Country": "SDN", "Actor2": "PRESIDENT", "Actor2_Country": null, "Code": 46, "Class": 1, "Action_Location": "Darfur, Gharb Darfur, Sudan", "Lat": 13.5, "Long": 23.5, "Timestamp": 20181105031500, "Source": "https://www.dawn.com/news/1443665/khartoum-accepts-south-sudans-mediation"}, {"ID": 800045938, "Actor1": "KHARTOUM", "Actor1_Country": "SDN", "Actor2": "SOUTH SUDAN", "Actor2_Country": "SSD", "Code": 38, "Class": 1, "Action_Location": "Darfur, Gharb Darfur, Sudan", "Lat": 13.5, "Long": 23.5, "Timestamp": 20181105031500, "Source": "https://www.dawn.com/news/1443665/khartoum-accepts-south-sudans-mediation"}, {"ID": 800045939, "Actor1": "SEPARATIST", "Actor1_Country": null, "Actor2": "XINJIANG", "Actor2_Country": "CHN", "Code": 130, "Class": 3, "Action_Location": "Xinjiang, Jiangxi, China", "Lat": 27.7481, "Long": 116.274, "Timestamp": 20181105031500, "Source": "https://www.dawn.com/news/1443645/activists-urge-scrutiny-of-chinas-rights-record-at-un-meeting-this-week"}, {"ID": 800045941, "Actor1": "SOUTH SUDAN", "Actor1_Country": "SSD", "Actor2": "SUDAN", "Actor2_Country": "SDN", "Code": 112, "Class": 3, "Action_Location": "Blue Nile, An Nil al Azraq, Sudan", "Lat": 11.15, "Long": 34.1, "Timestamp": 20181105031500, "Source": "https://www.dawn.com/news/1443665/khartoum-accepts-south-sudans-mediation"}, {"ID": 800045968, "Actor1": "MILITANT", "Actor1_Country": null, "Actor2": "XINJIANG", "Actor2_Country": "CHN", "Code": 130, "Class": 3, "Action_Location": "Xinjiang, Jiangxi, China", "Lat": 27.7481, "Long": 116.274, "Timestamp": 20181105031500, "Source": "https://www.dawn.com/news/1443645/activists-urge-scrutiny-of-chinas-rights-record-at-un-meeting-this-week"}, {"ID": 800045969, "Actor1": "TERRORIST", "Actor1_Country": null, "Actor2": "SECURITY FORCE", "Actor2_Country": null, "Code": 193, "Class": 4, "Action_Location": "Minya, Al Minya, Egypt", "Lat": 28.1099, "Long": 30.7503, "Timestamp": 20181105031500, "Source": "http://currenthollywood.com/2018/11/egypt-kills-isis-militants-suspected-in-attack-on-christians/"}, {"ID": 800045970, "Actor1": "MILITIA", "Actor1_Country": null, "Actor2": "MEXICO", "Actor2_Country": "MEX", "Code": 42, "Class": 1, "Action_Location": "Mexico", "Lat": 23.0, "Long": -102.0, "Timestamp": 20181105031500, "Source": "https://www.dallasnews.com/news/immigration/2018/11/04/armed-militia-groups-including-one-texas-headto-us-mexico-border"}, {"ID": 800045972, "Actor1": "UKRAINE", "Actor1_Country": "UKR", "Actor2": "SEPARATIST REBEL", "Actor2_Country": null, "Code": 51, "Class": 1, "Action_Location": "Moscow, Moskva, Russia", "Lat": 55.7522, "Long": 37.6156, "Timestamp": 20181105031500, "Source": "https://www.washingtonpost.com/world/the_americas/cuban-president-meets-north-koreas-kim-jong-un-in-pyongyang/2018/11/04/ea5cc39e-e09f-11e8-ba30-a7ded04d8fac_story.html"}, {"ID": 800045973, "Actor1": "UKRAINE", "Actor1_Country": "UKR", "Actor2": "SEPARATIST REBEL", "Actor2_Country": null, "Code": 51, "Class": 1, "Action_Location": "Ukraine", "Lat": 49.0, "Long": 32.0, "Timestamp": 20181105031500, "Source": "https://www.washingtonpost.com/world/the_americas/cuban-president-meets-north-koreas-kim-jong-un-in-pyongyang/2018/11/04/ea5cc39e-e09f-11e8-ba30-a7ded04d8fac_story.html"}, {"ID": 800046033, "Actor1": "THE US", "Actor1_Country": "USA", "Actor2": "PRODUCER", "Actor2_Country": null, "Code": 36, "Class": 1, "Action_Location": "Iraq", "Lat": 33.0, "Long": 44.0, "Timestamp": 20181105031500, "Source": "https://www.dawn.com/news/1443662/oil-market-on-alert-as-iran-sanctions-loom"}, {"ID": 800046036, "Actor1": "THE US", "Actor1_Country": "USA", "Actor2": "PRODUCER", "Actor2_Country": null, "Code": 51, "Class": 1, "Action_Location": "Iraq", "Lat": 33.0, "Long": 44.0, "Timestamp": 20181105031500, "Source": "https://www.dawn.com/news/1443662/oil-market-on-alert-as-iran-sanctions-loom"}, {"ID": 800046037, "Actor1": "CALIFORNIA", "Actor1_Country": "USA", "Actor2": "COMPANY", "Actor2_Country": null, "Code": 173, "Class": 4, "Action_Location": "Oakland, California, United States", "Lat": 37.8044, "Long": -122.271, "Timestamp": 20181105031500, "Source": "https://indianexpress.com/article/business/companies/why-do-you-fire-so-many-americans-tcs-faces-us-jury-5434196/"}, {"ID": 800046038, "Actor1": "CALIFORNIA", "Actor1_Country": "USA", "Actor2": "COMPANY", "Actor2_Country": null, "Code": 173, "Class": 4, "Action_Location": "California, United States", "Lat": 36.17, "Long": -119.746, "Timestamp": 20181105031500, "Source": "https://indianexpress.com/article/business/companies/why-do-you-fire-so-many-americans-tcs-faces-us-jury-5434196/"}, {"ID": 800046045, "Actor1": "UNITED STATES", "Actor1_Country": "USA", "Actor2": "VOTER", "Actor2_Country": null, "Code": 10, "Class": 1, "Action_Location": "Michigan, United States", "Lat": 43.3504, "Long": -84.5603, "Timestamp": 20181105031500, "Source": "https://www.wral.com/kemp-cites-voter-database-hacking-attempt-gives-no-evidence/17969938/"}, {"ID": 800046047, "Actor1": "ILLINOIS", "Actor1_Country": "USA", "Actor2": "RESIDENTS", "Actor2_Country": null, "Code": 13, "Class": 1, "Action_Location": "Illinois, United States", "Lat": 40.3363, "Long": -89.0022, "Timestamp": 20181105031500, "Source": "https://www.themonitor.com/news/elections/article_96cc4833-8e4b-5b7e-ba66-78d7c71dca48.html"}, {"ID": 800046048, "Actor1": "UNITED STATES", "Actor1_Country": "USA", "Actor2": "SCIENTIST", "Actor2_Country": null, "Code": 13, "Class": 1, "Action_Location": "Massachusetts, United States", "Lat": 42.2373, "Long": -71.5314, "Timestamp": 20181105031500, "Source": "https://www.bostonglobe.com/metro/2018/11/04/massachusetts-island-voters-debate-role-trump-race-for-governor/bTCk5FIBaS5MhMesueHREK/story.html"}, {"ID": 800046049, "Actor1": "UNITED STATES", "Actor1_Country": "USA", "Actor2": "VOTER", "Actor2_Country": null, "Code": 13, "Class": 1, "Action_Location": "Michigan, United States", "Lat": 43.3504, "Long": -84.5603, "Timestamp": 20181105031500, "Source": "https://www.wral.com/kemp-cites-voter-database-hacking-attempt-gives-no-evidence/17969938/"}, {"ID": 800046050, "Actor1": "TEXAS", "Actor1_Country": "USA", "Actor2": "VOTER", "Actor2_Country": null, "Code": 14, "Class": 1, "Action_Location": "Georgia, United States", "Lat": 32.9866, "Long": -83.6487, "Timestamp": 20181105031500, "Source": "https://therightscoop.com/theres-a-massive-increase-in-early-voting-from-young-people-heres-why-it-doesnt-matter/"}, {"ID": 800046052, "Actor1": "UNITED STATES", "Actor1_Country": "USA", "Actor2": "VOTER", "Actor2_Country": null, "Code": 22, "Class": 1, "Action_Location": "Massachusetts, United States", "Lat": 42.2373, "Long": -71.5314, "Timestamp": 20181105031500, "Source": "https://www.bostonglobe.com/metro/2018/11/04/massachusetts-island-voters-debate-role-trump-race-for-governor/bTCk5FIBaS5MhMesueHREK/story.html"}, {"ID": 800046058, "Actor1": "UNITED STATES", "Actor1_Country": "USA", "Actor2": "MIGRANT", "Actor2_Country": null, "Code": 72, "Class": 2, "Action_Location": "Indiana, United States", "Lat": 39.8647, "Long": -86.2604, "Timestamp": 20181105031500, "Source": "https://www.kansas.com/news/business/article221112820.html"}, {"ID": 800046062, "Actor1": "MASSACHUSETTS", "Actor1_Country": "USA", "Actor2": "PROFESSOR", "Actor2_Country": null, "Code": 10, "Class": 1, "Action_Location": "Georgia, United States", "Lat": 32.9866, "Long": -83.6487, "Timestamp": 20181105031500, "Source": "https://www.business-standard.com/article/companies/dominant-companies-can-reduce-competition-leave-many-behind-explained-118110500083_1.html"}, {"ID": 800046063, "Actor1": "UNITED STATES", "Actor1_Country": "USA", "Actor2": "SCHOOL", "Actor2_Country": null, "Code": 13, "Class": 1, "Action_Location": "Terre Haute, Ohio, United States", "Lat": 40.0495, "Long": -83.878, "Timestamp": 20181105031500, "Source": "https://www.tribstar.com/news/local_news/vcsc-board-continues-police-review-work-tonight/article_6a7ac0e2-df5d-5a48-a8fa-381b38f5a40c.html"}, {"ID": 800046064, "Actor1": "UNITED STATES", "Actor1_Country": "USA", "Actor2": "SCHOOL", "Actor2_Country": null, "Code": 20, "Class": 1, "Action_Location": "Terre Haute, Ohio, United States", "Lat": 40.0495, "Long": -83.878, "Timestamp": 20181105031500, "Source": "https://www.tribstar.com/news/local_news/vcsc-board-continues-police-review-work-tonight/article_6a7ac0e2-df5d-5a48-a8fa-381b38f5a40c.html"}, {"ID": 800046065, "Actor1": "UNITED STATES", "Actor1_Country": "USA", "Actor2": "SCHOOL", "Actor2_Country": null, "Code": 20, "Class": 1, "Action_Location": "Ohio, United States", "Lat": 40.3736, "Long": -82.7755, "Timestamp": 20181105031500, "Source": "https://www.tribstar.com/news/local_news/vcsc-board-continues-police-review-work-tonight/article_6a7ac0e2-df5d-5a48-a8fa-381b38f5a40c.html"}, {"ID": 800046073, "Actor1": "UNITED STATES", "Actor1_Country": "USA", "Actor2": "BRITAIN", "Actor2_Country": "GBR", "Code": 60, "Class": 2, "Action_Location": "United Kingdom", "Lat": 54.0, "Long": -4.0, "Timestamp": 20181105031500, "Source": "https://en.trend.az/world/europe/2975430.html"}, {"ID": 800046076, "Actor1": "UNITED STATES", "Actor1_Country": "USA", "Actor2": "ADMINISTRATION", "Actor2_Country": null, "Code": 36, "Class": 1, "Action_Location": "Terre Haute, Ohio, United States", "Lat": 40.0495, "Long": -83.878, "Timestamp": 20181105031500, "Source": "https://www.tribstar.com/news/local_news/vcsc-board-continues-police-review-work-tonight/article_6a7ac0e2-df5d-5a48-a8fa-381b38f5a40c.html"}, {"ID": 800046077, "Actor1": "UNITED STATES", "Actor1_Country": "USA", "Actor2": "ADMINISTRATION", "Actor2_Country": null, "Code": 120, "Class": 3, "Action_Location": "White House, District of Columbia, United States", "Lat": 38.8951, "Long": -77.0364, "Timestamp": 20181105031500, "Source": "https://www.detroitnews.com/story/news/local/michigan/2018/11/04/kellyanne-conway-michigan-john-james/1884090002/"}, {"ID": 800046078, "Actor1": "UNITED STATES", "Actor1_Country": "USA", "Actor2": "GOVERNMENT", "Actor2_Country": null, "Code": 120, "Class": 3, "Action_Location": "Massachusetts, United States", "Lat": 42.2373, "Long": -71.5314, "Timestamp": 20181105031500, "Source": "https://www.bostonglobe.com/metro/2018/11/04/massachusetts-island-voters-debate-role-trump-race-for-governor/bTCk5FIBaS5MhMesueHREK/story.html"}, {"ID": 800046080, "Actor1": "UNITED STATES", "Actor1_Country": "USA", "Actor2": "REGISTERED NURSE", "Actor2_Country": null, "Code": 20, "Class": 1, "Action_Location": "Downers Grove, Illinois, United States", "Lat": 41.8089, "Long": -88.0112, "Timestamp": 20181105031500, "Source": "https://www.themonitor.com/news/elections/article_96cc4833-8e4b-5b7e-ba66-78d7c71dca48.html"}, {"ID": 800046081, "Actor1": "UNITED STATES", "Actor1_Country": "USA", "Actor2": "REGISTERED NURSE", "Actor2_Country": null, "Code": 20, "Class": 1, "Action_Location": "White House, District of Columbia, United States", "Lat": 38.8951, "Long": -77.0364, "Timestamp": 20181105031500, "Source": "https://www.themonitor.com/news/elections/article_96cc4833-8e4b-5b7e-ba66-78d7c71dca48.html"}, {"ID": 800046082, "Actor1": "UNITED STATES", "Actor1_Country": "USA", "Actor2": "HAITI", "Actor2_Country": "HTI", "Code": 10, "Class": 1, "Action_Location": "Illinois, United States", "Lat": 40.3363, "Long": -89.0022, "Timestamp": 20181105031500, "Source": "https://www.themonitor.com/news/elections/article_96cc4833-8e4b-5b7e-ba66-78d7c71dca48.html"}, {"ID": 800046083, "Actor1": "UNITED STATES", "Actor1_Country": "USA", "Actor2": "HAITI", "Actor2_Country": "HTI", "Code": 10, "Class": 1, "Action_Location": "Haiti", "Lat": 19.0, "Long": -72.416667, "Timestamp": 20181105031500, "Source": "https://www.themonitor.com/news/elections/article_96cc4833-8e4b-5b7e-ba66-78d7c71dca48.html"}, {"ID": 800046089, "Actor1": "THE US", "Actor1_Country": "USA", "Actor2": "IRAN", "Actor2_Country": "IRN", "Code": 163, "Class": 4, "Action_Location": "Iraq", "Lat": 33.0, "Long": 44.0, "Timestamp": 20181105031500, "Source": "https://www.dawn.com/news/1443662/oil-market-on-alert-as-iran-sanctions-loom"}, {"ID": 800046101, "Actor1": "UNITED STATES", "Actor1_Country": "USA", "Actor2": "CONGRESS", "Actor2_Country": null, "Code": 10, "Class": 1, "Action_Location": "New York, United States", "Lat": 42.1497, "Long": -74.9384, "Timestamp": 20181105031500, "Source": "https://heavy.com/news/2018/11/michael-bloomberg-running-president-2020/"}, {"ID": 800046124, "Actor1": "UNITED STATES", "Actor1_Country": "USA", "Actor2": "UNITED STATES", "Actor2_Country": "USA", "Code": 42, "Class": 1, "Action_Location": "Halmstad Elementary School, Wisconsin, United States", "Lat": 44.9144, "Long": -91.3793, "Timestamp": 20181105031500, "Source": "https://kstp.com/national/the-latest-girl-scouts-ceo-says-hearts-broken-over-crash/5133385/?cat=162"}, {"ID": 800046125, "Actor1": "UNITED STATES", "Actor1_Country": "USA", "Actor2": "UNITED STATES", "Actor2_Country": "USA", "Code": 42, "Class": 1, "Action_Location": "Halmstad Elementary School, Wisconsin, United States", "Lat": 44.9144, "Long": -91.3793, "Timestamp": 20181105031500, "Source": "https://kstp.com/national/the-latest-girl-scouts-ceo-says-hearts-broken-over-crash/5133385/?cat=162"}, {"ID": 800046127, "Actor1": "UNITED STATES", "Actor1_Country": "USA", "Actor2": "OBAMA", "Actor2_Country": "USA", "Code": 42, "Class": 1, "Action_Location": "Downers Grove, Illinois, United States", "Lat": 41.8089, "Long": -88.0112, "Timestamp": 20181105031500, "Source": "https://www.themonitor.com/news/elections/article_96cc4833-8e4b-5b7e-ba66-78d7c71dca48.html"}, {"ID": 800046128, "Actor1": "UNITED STATES", "Actor1_Country": "USA", "Actor2": "OBAMA", "Actor2_Country": "USA", "Code": 42, "Class": 1, "Action_Location": "Illinois, United States", "Lat": 40.3363, "Long": -89.0022, "Timestamp": 20181105031500, "Source": "https://www.themonitor.com/news/elections/article_96cc4833-8e4b-5b7e-ba66-78d7c71dca48.html"}, {"ID": 800046129, "Actor1": "UNITED STATES", "Actor1_Country": "USA", "Actor2": "OBAMA", "Actor2_Country": "USA", "Code": 42, "Class": 1, "Action_Location": "Downers Grove, Illinois, United States", "Lat": 41.8089, "Long": -88.0112, "Timestamp": 20181105031500, "Source": "https://www.themonitor.com/news/elections/article_96cc4833-8e4b-5b7e-ba66-78d7c71dca48.html"}, {"ID": 800046130, "Actor1": "ILLINOIS", "Actor1_Country": "USA", "Actor2": "OBAMA", "Actor2_Country": "USA", "Code": 42, "Class": 1, "Action_Location": "Illinois, United States", "Lat": 40.3363, "Long": -89.0022, "Timestamp": 20181105031500, "Source": "https://www.themonitor.com/news/elections/article_96cc4833-8e4b-5b7e-ba66-78d7c71dca48.html"}, {"ID": 800046131, "Actor1": "UNITED STATES", "Actor1_Country": "USA", "Actor2": "THE WHITE HOUSE", "Actor2_Country": "USA", "Code": 43, "Class": 1, "Action_Location": "Tehran, Tehran, Iran", "Lat": 35.75, "Long": 51.5148, "Timestamp": 20181105031500, "Source": "https://www.msn.com/en-ie/money/news/pompeo-insists-us-sanctions-will-not-hurt-the-iranian-people/ar-BBPlpmv"}, {"ID": 800046132, "Actor1": "UNITED STATES", "Actor1_Country": "USA", "Actor2": "OBAMA", "Actor2_Country": "USA", "Code": 111, "Class": 3, "Action_Location": "White House, District of Columbia, United States", "Lat": 38.8951, "Long": -77.0364, "Timestamp": 20181105031500, "Source": "https://www.themonitor.com/news/elections/article_96cc4833-8e4b-5b7e-ba66-78d7c71dca48.html"}, {"ID": 800046133, "Actor1": "UNITED STATES", "Actor1_Country": "USA", "Actor2": "OBAMA", "Actor2_Country": "USA", "Code": 111, "Class": 3, "Action_Location": "White House, District of Columbia, United States", "Lat": 38.8951, "Long": -77.0364, "Timestamp": 20181105031500, "Source": "https://www.themonitor.com/news/elections/article_96cc4833-8e4b-5b7e-ba66-78d7c71dca48.html"}, {"ID": 800046134, "Actor1": "UNITED STATES", "Actor1_Country": "USA", "Actor2": "OBAMA", "Actor2_Country": "USA", "Code": 111, "Class": 3, "Action_Location": "Illinois, United States", "Lat": 40.3363, "Long": -89.0022, "Timestamp": 20181105031500, "Source": "https://www.themonitor.com/news/elections/article_96cc4833-8e4b-5b7e-ba66-78d7c71dca48.html"}, {"ID": 800046135, "Actor1": "PENNSYLVANIA", "Actor1_Country": "USA", "Actor2": "UNITED STATES", "Actor2_Country": "USA", "Code": 112, "Class": 3, "Action_Location": "Indiana, United States", "Lat": 39.8647, "Long": -86.2604, "Timestamp": 20181105031500, "Source": "https://www.kansas.com/news/business/article221112820.html"}, {"ID": 800046140, "Actor1": "UNITED STATES", "Actor1_Country": "USA", "Actor2": "VOTER", "Actor2_Country": null, "Code": 13, "Class": 1, "Action_Location": "Michigan, United States", "Lat": 43.3504, "Long": -84.5603, "Timestamp": 20181105031500, "Source": "https://www.wral.com/kemp-cites-voter-database-hacking-attempt-gives-no-evidence/17969938/"}, {"ID": 800046141, "Actor1": "UNITED STATES", "Actor1_Country": "USA", "Actor2": "UNITED STATES", "Actor2_Country": "USA", "Code": 10, "Class": 1, "Action_Location": "California, United States", "Lat": 36.17, "Long": -119.746, "Timestamp": 20181105031500, "Source": "https://www.nbcnews.com/mach/science/kepler-planet-hunting-space-telescope-s-blockbuster-mission-comes-end-ncna920186?cid=public-rss_20181105"}, {"ID": 800046143, "Actor1": "MICHIGAN", "Actor1_Country": "USA", "Actor2": "VOTER", "Actor2_Country": null, "Code": 10, "Class": 1, "Action_Location": "Michigan, United States", "Lat": 43.3504, "Long": -84.5603, "Timestamp": 20181105031500, "Source": "https://www.wral.com/kemp-cites-voter-database-hacking-attempt-gives-no-evidence/17969938/"}, {"ID": 800046144, "Actor1": "WISCONSIN", "Actor1_Country": "USA", "Actor2": "COMMUNITY", "Actor2_Country": null, "Code": 43, "Class": 1, "Action_Location": "Wisconsin, United States", "Lat": 44.2563, "Long": -89.6385, "Timestamp": 20181105031500, "Source": "https://kstp.com/national/the-latest-girl-scouts-ceo-says-hearts-broken-over-crash/5133385/?cat=162"}, {"ID": 800046152, "Actor1": "OBAMA", "Actor1_Country": "USA", "Actor2": "VOTER", "Actor2_Country": null, "Code": 20, "Class": 1, "Action_Location": "White House, District of Columbia, United States", "Lat": 38.8951, "Long": -77.0364, "Timestamp": 20181105031500, "Source": "https://www.themonitor.com/news/elections/article_96cc4833-8e4b-5b7e-ba66-78d7c71dca48.html"}, {"ID": 800046153, "Actor1": "OBAMA", "Actor1_Country": "USA", "Actor2": "VOTER", "Actor2_Country": null, "Code": 20, "Class": 1, "Action_Location": "Illinois, United States", "Lat": 40.3363, "Long": -89.0022, "Timestamp": 20181105031500, "Source": "https://www.themonitor.com/news/elections/article_96cc4833-8e4b-5b7e-ba66-78d7c71dca48.html"}, {"ID": 800046154, "Actor1": "THE WHITE HOUSE", "Actor1_Country": "USA", "Actor2": "IRANIAN", "Actor2_Country": "IRN", "Code": 42, "Class": 1, "Action_Location": "India", "Lat": 20.0, "Long": 77.0, "Timestamp": 20181105031500, "Source": "https://www.msn.com/en-ie/money/news/pompeo-insists-us-sanctions-will-not-hurt-the-iranian-people/ar-BBPlpmv"}, {"ID": 800046159, "Actor1": "NASA", "Actor1_Country": "USA", "Actor2": "CALIFORNIA", "Actor2_Country": "USA", "Code": 10, "Class": 1, "Action_Location": "California, United States", "Lat": 36.17, "Long": -119.746, "Timestamp": 20181105031500, "Source": "https://www.nbcnews.com/mach/science/kepler-planet-hunting-space-telescope-s-blockbuster-mission-comes-end-ncna920186?cid=public-rss_20181105"}, {"ID": 800046160, "Actor1": "THE US", "Actor1_Country": "USA", "Actor2": "WASHINGTON", "Actor2_Country": "USA", "Code": 20, "Class": 1, "Action_Location": "Washington, District of Columbia, United States", "Lat": 38.8951, "Long": -77.0364, "Timestamp": 20181105031500, "Source": "https://www.dawn.com/news/1443656/ousted-lankan-pm-says-us-japan-have-frozen-aid-after-political-crisis"}, {"ID": 800046161, "Actor1": "THE US", "Actor1_Country": "USA", "Actor2": "WASHINGTON", "Actor2_Country": "USA", "Code": 20, "Class": 1, "Action_Location": "Japan", "Lat": 36.0, "Long": 138.0, "Timestamp": 20181105031500, "Source": "https://www.dawn.com/news/1443656/ousted-lankan-pm-says-us-japan-have-frozen-aid-after-political-crisis"}, {"ID": 800046162, "Actor1": "THE WHITE HOUSE", "Actor1_Country": "USA", "Actor2": "UNITED STATES", "Actor2_Country": "USA", "Code": 42, "Class": 1, "Action_Location": "Tehran, Tehran, Iran", "Lat": 35.75, "Long": 51.5148, "Timestamp": 20181105031500, "Source": "https://www.msn.com/en-ie/money/news/pompeo-insists-us-sanctions-will-not-hurt-the-iranian-people/ar-BBPlpmv"}, {"ID": 800046163, "Actor1": "THE WHITE HOUSE", "Actor1_Country": "USA", "Actor2": "UNITED STATES", "Actor2_Country": "USA", "Code": 42, "Class": 1, "Action_Location": "India", "Lat": 20.0, "Long": 77.0, "Timestamp": 20181105031500, "Source": "https://www.msn.com/en-ie/money/news/pompeo-insists-us-sanctions-will-not-hurt-the-iranian-people/ar-BBPlpmv"}, {"ID": 800046165, "Actor1": "OBAMA", "Actor1_Country": "USA", "Actor2": "UNITED STATES", "Actor2_Country": "USA", "Code": 43, "Class": 1, "Action_Location": "Downers Grove, Illinois, United States", "Lat": 41.8089, "Long": -88.0112, "Timestamp": 20181105031500, "Source": "https://www.themonitor.com/news/elections/article_96cc4833-8e4b-5b7e-ba66-78d7c71dca48.html"}, {"ID": 800046166, "Actor1": "OBAMA", "Actor1_Country": "USA", "Actor2": "UNITED STATES", "Actor2_Country": "USA", "Code": 43, "Class": 1, "Action_Location": "Illinois, United States", "Lat": 40.3363, "Long": -89.0022, "Timestamp": 20181105031500, "Source": "https://www.themonitor.com/news/elections/article_96cc4833-8e4b-5b7e-ba66-78d7c71dca48.html"}, {"ID": 800046167, "Actor1": "OBAMA", "Actor1_Country": "USA", "Actor2": "UNITED STATES", "Actor2_Country": "USA", "Code": 43, "Class": 1, "Action_Location": "Downers Grove, Illinois, United States", "Lat": 41.8089, "Long": -88.0112, "Timestamp": 20181105031500, "Source": "https://www.themonitor.com/news/elections/article_96cc4833-8e4b-5b7e-ba66-78d7c71dca48.html"}, {"ID": 800046168, "Actor1": "OBAMA", "Actor1_Country": "USA", "Actor2": "ILLINOIS", "Actor2_Country": "USA", "Code": 43, "Class": 1, "Action_Location": "Illinois, United States", "Lat": 40.3363, "Long": -89.0022, "Timestamp": 20181105031500, "Source": "https://www.themonitor.com/news/elections/article_96cc4833-8e4b-5b7e-ba66-78d7c71dca48.html"}, {"ID": 800046171, "Actor1": "UNITED STATES", "Actor1_Country": "USA", "Actor2": "OBAMA", "Actor2_Country": "USA", "Code": 43, "Class": 1, "Action_Location": "Illinois, United States", "Lat": 40.3363, "Long": -89.0022, "Timestamp": 20181105031500, "Source": "https://www.themonitor.com/news/elections/article_96cc4833-8e4b-5b7e-ba66-78d7c71dca48.html"}, {"ID": 800046172, "Actor1": "OBAMA", "Actor1_Country": "USA", "Actor2": "ADMINISTRATION", "Actor2_Country": null, "Code": 42, "Class": 1, "Action_Location": "Illinois, United States", "Lat": 40.3363, "Long": -89.0022, "Timestamp": 20181105031500, "Source": "https://www.themonitor.com/news/elections/article_96cc4833-8e4b-5b7e-ba66-78d7c71dca48.html"}, {"ID": 800046173, "Actor1": "OBAMA", "Actor1_Country": "USA", "Actor2": "UNITED STATES", "Actor2_Country": "USA", "Code": 42, "Class": 1, "Action_Location": "Illinois, United States", "Lat": 40.3363, "Long": -89.0022, "Timestamp": 20181105031500, "Source": "https://www.themonitor.com/news/elections/article_96cc4833-8e4b-5b7e-ba66-78d7c71dca48.html"}, {"ID": 800046178, "Actor1": "REUTERS", "Actor1_Country": "USA", "Actor2": "AFGHANISTAN", "Actor2_Country": "AFG", "Code": 190, "Class": 4, "Action_Location": "Utah, United States", "Lat": 40.1135, "Long": -111.854, "Timestamp": 20181105031500, "Source": "https://wibqam.com/news/articles/2018/nov/05/utah-mayor-deployed-to-afghanistan-is-killed-in-attack/"}, {"ID": 800046179, "Actor1": "REUTERS", "Actor1_Country": "USA", "Actor2": "AFGHAN", "Actor2_Country": "AFG", "Code": 190, "Class": 4, "Action_Location": "Herat, Herat, Afghanistan", "Lat": 34.3482, "Long": 62.1997, "Timestamp": 20181105031500, "Source": "https://wibqam.com/news/articles/2018/nov/05/utah-mayor-deployed-to-afghanistan-is-killed-in-attack/"}, {"ID": 800046180, "Actor1": "REUTERS", "Actor1_Country": "USA", "Actor2": "AFGHAN", "Actor2_Country": "AFG", "Code": 190, "Class": 4, "Action_Location": "North Ogden, Utah, United States", "Lat": 41.3072, "Long": -111.96, "Timestamp": 20181105031500, "Source": "https://wibqam.com/news/articles/2018/nov/05/utah-mayor-deployed-to-afghanistan-is-killed-in-attack/"}, {"ID": 800046181, "Actor1": "REUTERS", "Actor1_Country": "USA", "Actor2": "AFGHAN", "Actor2_Country": "AFG", "Code": 190, "Class": 4, "Action_Location": "Utah, United States", "Lat": 40.1135, "Long": -111.854, "Timestamp": 20181105031500, "Source": "https://wibqam.com/news/articles/2018/nov/05/utah-mayor-deployed-to-afghanistan-is-killed-in-attack/"}, {"ID": 800046190, "Actor1": "YEMEN", "Actor1_Country": "YEM", "Actor2": "DIPLOMAT", "Actor2_Country": null, "Code": 46, "Class": 1, "Action_Location": "United Kingdom", "Lat": 54.0, "Long": -4.0, "Timestamp": 20181105031500, "Source": "https://en.trend.az/world/europe/2975430.html"}, {"ID": 800046191, "Actor1": "YEMEN", "Actor1_Country": "YEM", "Actor2": "GOVERNMENT TROOPS", "Actor2_Country": null, "Code": 190, "Class": 4, "Action_Location": "Hodeida, Al ?udaydah, Yemen", "Lat": 14.7978, "Long": 42.9545, "Timestamp": 20181105031500, "Source": "https://www.dawn.com/news/1443652/battles-rock-yemens-port-city-as-un-speaks-of-living-hell-for-children"}, {"ID": 800046192, "Actor1": "ADEN", "Actor1_Country": "YEM", "Actor2": "GOVERNMENT TROOPS", "Actor2_Country": null, "Code": 190, "Class": 4, "Action_Location": "Hodeida, Al ?udaydah, Yemen", "Lat": 14.7978, "Long": 42.9545, "Timestamp": 20181105031500, "Source": "https://www.dawn.com/news/1443652/battles-rock-yemens-port-city-as-un-speaks-of-living-hell-for-children"}, {"ID": 800046200, "Actor1": "ZOROASTRIANISM", "Actor1_Country": null, "Actor2": "RELIGION", "Actor2_Country": null, "Code": 40, "Class": 1, "Action_Location": "Yasna, Esfahan, Iran", "Lat": 32.4161, "Long": 52.5925, "Timestamp": 20181105031500, "Source": "http://econintersect.com/pages/contributors/contributor.php?post=201811042056"}, {"ID": 800046201, "Actor1": "ZOROASTRIANISM", "Actor1_Country": null, "Actor2": "RELIGION", "Actor2_Country": null, "Code": 40, "Class": 1, "Action_Location": "India", "Lat": 20.0, "Long": 77.0, "Timestamp": 20181105031500, "Source": "http://econintersect.com/pages/contributors/contributor.php?post=201811042056"}, {"ID": 800046206, "Actor1": "RANA", "Actor1_Country": null, "Actor2": "KING", "Actor2_Country": null, "Code": 20, "Class": 1, "Action_Location": "India", "Lat": 20.0, "Long": 77.0, "Timestamp": 20181105031500, "Source": "http://econintersect.com/pages/contributors/contributor.php?post=201811042056"}, {"ID": 800046207, "Actor1": "TAMIL", "Actor1_Country": null, "Actor2": "SRI LANKA", "Actor2_Country": "LKA", "Code": 43, "Class": 1, "Action_Location": "Temple Trees, Western, Sri Lanka", "Lat": 6.9149, "Long": 79.8477, "Timestamp": 20181105031500, "Source": "https://www.dawn.com/news/1443660/sacked-sri-lankan-pms-residence-becomes-symbol-of-power-struggle"}, {"ID": 800046208, "Actor1": "TIBETAN", "Actor1_Country": null, "Actor2": "CHINA", "Actor2_Country": "CHN", "Code": 43, "Class": 1, "Action_Location": "Xinjiang, Jiangxi, China", "Lat": 27.7481, "Long": 116.274, "Timestamp": 20181105031500, "Source": "https://www.dawn.com/news/1443645/activists-urge-scrutiny-of-chinas-rights-record-at-un-meeting-this-week"}, {"ID": 800046209, "Actor1": "TIBETAN", "Actor1_Country": null, "Actor2": "SANGAY", "Actor2_Country": "ECU", "Code": 43, "Class": 1, "Action_Location": "Xinjiang, Jiangxi, China", "Lat": 27.7481, "Long": 116.274, "Timestamp": 20181105031500, "Source": "https://www.dawn.com/news/1443645/activists-urge-scrutiny-of-chinas-rights-record-at-un-meeting-this-week"}]