[{"ID": 800255797, "Actor1": "AUSTRALIA", "Actor1_Country": "AUS", "Actor2": "SHANGHAI", "Actor2_Country": "CHN", "Code": 13, "Class": 1, "Action_Location": "Melbourne, Victoria, Australia", "Lat": -37.8167, "Long": 144.967, "Timestamp": 20181105221500, "Source": "https://www.9news.com.au/2018/11/06/06/27/govt-mps-float-idea-for-2-polls-in-2019"}, {"ID": 800255798, "Actor1": "AUSTRALIA", "Actor1_Country": "AUS", "Actor2": "SHANGHAI", "Actor2_Country": "CHN", "Code": 10, "Class": 1, "Action_Location": "Melbourne, Victoria, Australia", "Lat": -37.8167, "Long": 144.967, "Timestamp": 20181105221500, "Source": "https://www.9news.com.au/2018/11/06/06/27/govt-mps-float-idea-for-2-polls-in-2019"}, {"ID": 800255801, "Actor1": "BIRMINGHAM", "Actor1_Country": "GBR", "Actor2": "SHANGHAI", "Actor2_Country": "CHN", "Code": 13, "Class": 1, "Action_Location": "Melbourne, Victoria, Australia", "Lat": -37.8167, "Long": 144.967, "Timestamp": 20181105221500, "Source": "https://www.9news.com.au/2018/11/06/06/27/govt-mps-float-idea-for-2-polls-in-2019"}, {"ID": 800255805, "Actor1": "GOVERNMENT", "Actor1_Country": null, "Actor2": "AUSTRALIAN", "Actor2_Country": "AUS", "Code": 20, "Class": 1, "Action_Location": "Melbourne, Victoria, Australia", "Lat": -37.8167, "Long": 144.967, "Timestamp": 20181105221500, "Source": "https://www.9news.com.au/2018/11/06/06/27/govt-mps-float-idea-for-2-polls-in-2019"}, {"ID": 800255839, "Actor1": "SCHOOL", "Actor1_Country": null, "Actor2": "UNITED STATES", "Actor2_Country": "USA", "Code": 10, "Class": 1, "Action_Location": "Lebanon", "Lat": 33.833333, "Long": 35.833333, "Timestamp": 20181105221500, "Source": "https://www.sfgate.com/news/article/Ambulances-make-house-calls-to-prevent-future-13364647.php"}, {"ID": 800255840, "Actor1": "SCHOOL", "Actor1_Country": null, "Actor2": "UNITED STATES", "Actor2_Country": "USA", "Code": 10, "Class": 1, "Action_Location": "Vermont, United States", "Lat": 44.0407, "Long": -72.7093, "Timestamp": 20181105221500, "Source": "https://www.sfgate.com/news/article/Ambulances-make-house-calls-to-prevent-future-13364647.php"}, {"ID": 800255854, "Actor1": "AUSTRALIA", "Actor1_Country": "AUS", "Actor2": "AUSTRALIA", "Actor2_Country": "AUS", "Code": 20, "Class": 1, "Action_Location": "Bundaberg, Queensland, Australia", "Lat": -24.8662, "Long": 152.348, "Timestamp": 20181105221500, "Source": "https://www.sunshinecoastdaily.com.au/news/man-accused-of-attempted-camp-fire-murder-torture-/3568181/"}, {"ID": 800255855, "Actor1": "BALE", "Actor1_Country": "CHE", "Actor2": "AUSTRALIA", "Actor2_Country": "AUS", "Code": 20, "Class": 1, "Action_Location": "Brisbane, Queensland, Australia", "Lat": -27.5, "Long": 153.017, "Timestamp": 20181105221500, "Source": "https://www.sunshinecoastdaily.com.au/news/man-accused-of-attempted-camp-fire-murder-torture-/3568181/"}, {"ID": 800255856, "Actor1": "BALE", "Actor1_Country": "CHE", "Actor2": "MAGISTRATE", "Actor2_Country": null, "Code": 20, "Class": 1, "Action_Location": "Brisbane, Queensland, Australia", "Lat": -27.5, "Long": 153.017, "Timestamp": 20181105221500, "Source": "https://www.sunshinecoastdaily.com.au/news/man-accused-of-attempted-camp-fire-murder-torture-/3568181/"}, {"ID": 800255861, "Actor1": "ACCRA", "Actor1_Country": "GHA", "Actor2": "BRITAIN", "Actor2_Country": "GBR", "Code": 15, "Class": 1, "Action_Location": "Gambia", "Lat": 13.5, "Long": -15.5, "Timestamp": 20181105221500, "Source": "https://www.chronicle.co.zw/prince-charles-admits-uk-role-in-horror-of-slave-trade/"}, {"ID": 800256141, "Actor1": "AUSTRALIA", "Actor1_Country": "AUS", "Actor2": "SHANGHAI", "Actor2_Country": "CHN", "Code": 13, "Class": 1, "Action_Location": "Melbourne, Victoria, Australia", "Lat": -37.8167, "Long": 144.967, "Timestamp": 20181105221500, "Source": "https://www.9news.com.au/2018/11/06/06/27/govt-mps-float-idea-for-2-polls-in-2019"}, {"ID": 800256152, "Actor1": "AUSTRALIA", "Actor1_Country": "AUS", "Actor2": "AUSTRALIA", "Actor2_Country": "AUS", "Code": 10, "Class": 1, "Action_Location": "Melbourne, Victoria, Australia", "Lat": -37.8167, "Long": 144.967, "Timestamp": 20181105221500, "Source": "https://www.9news.com.au/2018/11/06/06/27/govt-mps-float-idea-for-2-polls-in-2019"}, {"ID": 800256153, "Actor1": "AUSTRALIA", "Actor1_Country": "AUS", "Actor2": "SHANGHAI", "Actor2_Country": "CHN", "Code": 10, "Class": 1, "Action_Location": "Melbourne, Victoria, Australia", "Lat": -37.8167, "Long": 144.967, "Timestamp": 20181105221500, "Source": "https://www.9news.com.au/2018/11/06/06/27/govt-mps-float-idea-for-2-polls-in-2019"}, {"ID": 800256226, "Actor1": "OTTAWA", "Actor1_Country": "CAN", "Actor2": "GOVERNMENT", "Actor2_Country": null, "Code": 10, "Class": 1, "Action_Location": "Ottawa, Ontario, Canada", "Lat": 45.4167, "Long": -75.7, "Timestamp": 20181105221500, "Source": "https://www.timescolonist.com/news/national/liberals-detail-homelessness-program-set-to-unveil-anti-poverty-law-1.23486983"}, {"ID": 800256264, "Actor1": "COLOMBIAN", "Actor1_Country": "COL", "Actor2": "CUBAN", "Actor2_Country": "CUB", "Code": 40, "Class": 1, "Action_Location": "Cuba", "Lat": 22.0, "Long": -79.5, "Timestamp": 20181105221500, "Source": "https://www.cbsnews.com/news/reporters-notebook-what-the-midterms-look-like-on-election-eve/"}, {"ID": 800256265, "Actor1": "COLOMBIA", "Actor1_Country": "COL", "Actor2": "CUBA", "Actor2_Country": "CUB", "Code": 40, "Class": 1, "Action_Location": "Cuba", "Lat": 22.0, "Long": -79.5, "Timestamp": 20181105221500, "Source": "https://www.cbsnews.com/news/reporters-notebook-what-the-midterms-look-like-on-election-eve/"}, {"ID": 800256266, "Actor1": "COLOMBIAN", "Actor1_Country": "COL", "Actor2": "CUBAN", "Actor2_Country": "CUB", "Code": 40, "Class": 1, "Action_Location": "Florida, United States", "Lat": 27.8333, "Long": -81.717, "Timestamp": 20181105221500, "Source": "https://www.cbsnews.com/news/reporters-notebook-what-the-midterms-look-like-on-election-eve/"}, {"ID": 800256267, "Actor1": "COLOMBIAN", "Actor1_Country": "COL", "Actor2": "UNITED STATES", "Actor2_Country": "USA", "Code": 51, "Class": 1, "Action_Location": "Pennsylvania, United States", "Lat": 40.5773, "Long": -77.264, "Timestamp": 20181105221500, "Source": "https://www.cbsnews.com/news/reporters-notebook-what-the-midterms-look-like-on-election-eve/"}, {"ID": 800256268, "Actor1": "COLOMBIAN", "Actor1_Country": "COL", "Actor2": "UNITED STATES", "Actor2_Country": "USA", "Code": 51, "Class": 1, "Action_Location": "Pennsylvania, United States", "Lat": 40.5773, "Long": -77.264, "Timestamp": 20181105221500, "Source": "https://www.cbsnews.com/news/reporters-notebook-what-the-midterms-look-like-on-election-eve/"}, {"ID": 800256269, "Actor1": "COLOMBIAN", "Actor1_Country": "COL", "Actor2": "VENEZUELAN", "Actor2_Country": "VEN", "Code": 40, "Class": 1, "Action_Location": "Cuba", "Lat": 22.0, "Long": -79.5, "Timestamp": 20181105221500, "Source": "https://www.cbsnews.com/news/reporters-notebook-what-the-midterms-look-like-on-election-eve/"}, {"ID": 800256270, "Actor1": "COLOMBIAN", "Actor1_Country": "COL", "Actor2": "VENEZUELAN", "Actor2_Country": "VEN", "Code": 40, "Class": 1, "Action_Location": "Florida, United States", "Lat": 27.8333, "Long": -81.717, "Timestamp": 20181105221500, "Source": "https://www.cbsnews.com/news/reporters-notebook-what-the-midterms-look-like-on-election-eve/"}, {"ID": 800256271, "Actor1": "COLOMBIAN", "Actor1_Country": "COL", "Actor2": "VENEZUELAN", "Actor2_Country": "VEN", "Code": 40, "Class": 1, "Action_Location": "Cuba", "Lat": 22.0, "Long": -79.5, "Timestamp": 20181105221500, "Source": "https://www.cbsnews.com/news/reporters-notebook-what-the-midterms-look-like-on-election-eve/"}, {"ID": 800256272, "Actor1": "COLOMBIA", "Actor1_Country": "COL", "Actor2": "VENEZUELA", "Actor2_Country": "VEN", "Code": 40, "Class": 1, "Action_Location": "Cuba", "Lat": 22.0, "Long": -79.5, "Timestamp": 20181105221500, "Source": "https://www.cbsnews.com/news/reporters-notebook-what-the-midterms-look-like-on-election-eve/"}, {"ID": 800256321, "Actor1": "DETECTIVE", "Actor1_Country": null, "Actor2": "REGIMENT", "Actor2_Country": null, "Code": 173, "Class": 4, "Action_Location": "Gatwick, Surrey, United Kingdom", "Lat": 51.1667, "Long": -0.183333, "Timestamp": 20181105221500, "Source": "https://www.eveningecho.ie/nationalnews/Man-arrested-in-Donegal-on-suspicion-of-1972-murder-of-two-UDR-soldiers-5763cedf-7756-40f9-a1b9-d842b671bfcb-ds"}, {"ID": 800256353, "Actor1": "CUBAN", "Actor1_Country": "CUB", "Actor2": "COLOMBIAN", "Actor2_Country": "COL", "Code": 40, "Class": 1, "Action_Location": "Cuba", "Lat": 22.0, "Long": -79.5, "Timestamp": 20181105221500, "Source": "https://www.cbsnews.com/news/reporters-notebook-what-the-midterms-look-like-on-election-eve/"}, {"ID": 800256354, "Actor1": "CUBA", "Actor1_Country": "CUB", "Actor2": "COLOMBIA", "Actor2_Country": "COL", "Code": 40, "Class": 1, "Action_Location": "Cuba", "Lat": 22.0, "Long": -79.5, "Timestamp": 20181105221500, "Source": "https://www.cbsnews.com/news/reporters-notebook-what-the-midterms-look-like-on-election-eve/"}, {"ID": 800256355, "Actor1": "CUBAN", "Actor1_Country": "CUB", "Actor2": "COLOMBIAN", "Actor2_Country": "COL", "Code": 40, "Class": 1, "Action_Location": "Florida, United States", "Lat": 27.8333, "Long": -81.717, "Timestamp": 20181105221500, "Source": "https://www.cbsnews.com/news/reporters-notebook-what-the-midterms-look-like-on-election-eve/"}, {"ID": 800256357, "Actor1": "CUBAN", "Actor1_Country": "CUB", "Actor2": "UNITED STATES", "Actor2_Country": "USA", "Code": 51, "Class": 1, "Action_Location": "Pennsylvania, United States", "Lat": 40.5773, "Long": -77.264, "Timestamp": 20181105221500, "Source": "https://www.cbsnews.com/news/reporters-notebook-what-the-midterms-look-like-on-election-eve/"}, {"ID": 800256358, "Actor1": "CUBAN", "Actor1_Country": "CUB", "Actor2": "UNITED STATES", "Actor2_Country": "USA", "Code": 51, "Class": 1, "Action_Location": "Pennsylvania, United States", "Lat": 40.5773, "Long": -77.264, "Timestamp": 20181105221500, "Source": "https://www.cbsnews.com/news/reporters-notebook-what-the-midterms-look-like-on-election-eve/"}, {"ID": 800256411, "Actor1": "IMMIGRANT", "Actor1_Country": null, "Actor2": "UNITED STATES", "Actor2_Country": "USA", "Code": 10, "Class": 1, "Action_Location": "India", "Lat": 20.0, "Long": 77.0, "Timestamp": 20181105221500, "Source": "https://www.cbsnews.com/news/reporters-notebook-what-the-midterms-look-like-on-election-eve/"}, {"ID": 800256416, "Actor1": "VOTER", "Actor1_Country": null, "Actor2": "PENNSYLVANIA", "Actor2_Country": "USA", "Code": 40, "Class": 1, "Action_Location": "Clarks Summit, Pennsylvania, United States", "Lat": 41.4887, "Long": -75.7085, "Timestamp": 20181105221500, "Source": "https://www.cbsnews.com/news/reporters-notebook-what-the-midterms-look-like-on-election-eve/"}, {"ID": 800256419, "Actor1": "RESIDENTS", "Actor1_Country": null, "Actor2": "UNITED STATES", "Actor2_Country": "USA", "Code": 50, "Class": 1, "Action_Location": "City Of Fernley, Nevada, United States", "Lat": 39.5653, "Long": -119.193, "Timestamp": 20181105221500, "Source": "https://mynews4.com/news/local/fernley-votes-on-fate-of-city-diesel-tax"}, {"ID": 800256420, "Actor1": "VOTER", "Actor1_Country": null, "Actor2": "UNITED STATES", "Actor2_Country": "USA", "Code": 51, "Class": 1, "Action_Location": "Quinnipiac, Connecticut, United States", "Lat": 41.4334, "Long": -72.834, "Timestamp": 20181105221500, "Source": "https://www.mysanantonio.com/local/article/Murphy-Corey-in-a-quiet-contest-for-U-S-Senate-13364662.php"}, {"ID": 800256421, "Actor1": "VOTER", "Actor1_Country": null, "Actor2": "UNITED STATES", "Actor2_Country": "USA", "Code": 51, "Class": 1, "Action_Location": "Quinnipiac, Connecticut, United States", "Lat": 41.4334, "Long": -72.834, "Timestamp": 20181105221500, "Source": "https://www.mysanantonio.com/local/article/Murphy-Corey-in-a-quiet-contest-for-U-S-Senate-13364662.php"}, {"ID": 800256422, "Actor1": "VOTER", "Actor1_Country": null, "Actor2": "UNITED STATES", "Actor2_Country": "USA", "Code": 51, "Class": 1, "Action_Location": "Washington, District of Columbia, United States", "Lat": 38.8951, "Long": -77.0364, "Timestamp": 20181105221500, "Source": "https://www.mysanantonio.com/local/article/Murphy-Corey-in-a-quiet-contest-for-U-S-Senate-13364662.php"}, {"ID": 800256423, "Actor1": "VOTER", "Actor1_Country": null, "Actor2": "UNITED STATES", "Actor2_Country": "USA", "Code": 51, "Class": 1, "Action_Location": "Connecticut, United States", "Lat": 41.5834, "Long": -72.7622, "Timestamp": 20181105221500, "Source": "https://www.mysanantonio.com/local/article/Murphy-Corey-in-a-quiet-contest-for-U-S-Senate-13364662.php"}, {"ID": 800256424, "Actor1": "IMMIGRANT", "Actor1_Country": null, "Actor2": "UNITED STATES", "Actor2_Country": "USA", "Code": 51, "Class": 1, "Action_Location": "Pennsylvania, United States", "Lat": 40.5773, "Long": -77.264, "Timestamp": 20181105221500, "Source": "https://www.cbsnews.com/news/reporters-notebook-what-the-midterms-look-like-on-election-eve/"}, {"ID": 800256435, "Actor1": "GERMANY", "Actor1_Country": "DEU", "Actor2": "IRAN", "Actor2_Country": "IRN", "Code": 20, "Class": 1, "Action_Location": "Iran", "Lat": 32.0, "Long": 53.0, "Timestamp": 20181105221500, "Source": "https://www.iranfocus.com/en/index.php?option=com_content&view=article&id=33149:iran-rejects-bill-to-combat-terrrorism-financing&catid=4&tmpl=component&print=1&layout=default&page=&Itemid=109"}, {"ID": 800256436, "Actor1": "GERMANY", "Actor1_Country": "DEU", "Actor2": "IRAN", "Actor2_Country": "IRN", "Code": 20, "Class": 1, "Action_Location": "Iran", "Lat": 32.0, "Long": 53.0, "Timestamp": 20181105221500, "Source": "https://www.iranfocus.com/en/index.php?option=com_content&view=article&id=33149:iran-rejects-bill-to-combat-terrrorism-financing&catid=4&tmpl=component&print=1&layout=default&page=&Itemid=109"}, {"ID": 800256437, "Actor1": "GERMANY", "Actor1_Country": "DEU", "Actor2": "IRAN", "Actor2_Country": "IRN", "Code": 30, "Class": 1, "Action_Location": "Germany", "Lat": 51.5, "Long": 10.5, "Timestamp": 20181105221500, "Source": "https://www.iranfocus.com/en/index.php?option=com_content&view=article&id=33149:iran-rejects-bill-to-combat-terrrorism-financing&catid=4&tmpl=component&print=1&layout=default&page=&Itemid=109"}, {"ID": 800256438, "Actor1": "GERMANY", "Actor1_Country": "DEU", "Actor2": "IRAN", "Actor2_Country": "IRN", "Code": 30, "Class": 1, "Action_Location": "Germany", "Lat": 51.5, "Long": 10.5, "Timestamp": 20181105221500, "Source": "https://www.iranfocus.com/en/index.php?option=com_content&view=article&id=33149:iran-rejects-bill-to-combat-terrrorism-financing&catid=4&tmpl=component&print=1&layout=default&page=&Itemid=109"}, {"ID": 800256449, "Actor1": "QUITO", "Actor1_Country": "ECU", "Actor2": "JEWISH", "Actor2_Country": null, "Code": 57, "Class": 1, "Action_Location": "Quito, Pichincha, Ecuador", "Lat": -0.216667, "Long": -78.5, "Timestamp": 20181105221500, "Source": "https://www.marketwatch.com/press-release/ajc-ecuador-jewish-community-sign-association-accord-2018-11-05"}, {"ID": 800256452, "Actor1": "LENIN MORENO", "Actor1_Country": "ECU", "Actor2": "JEWISH", "Actor2_Country": null, "Code": 70, "Class": 2, "Action_Location": "Quito, Pichincha, Ecuador", "Lat": -0.216667, "Long": -78.5, "Timestamp": 20181105221500, "Source": "https://www.marketwatch.com/press-release/ajc-ecuador-jewish-community-sign-association-accord-2018-11-05"}, {"ID": 800256476, "Actor1": "COLLEGE", "Actor1_Country": null, "Actor2": "VOTER", "Actor2_Country": null, "Code": 22, "Class": 1, "Action_Location": "Morehouse College, Georgia, United States", "Lat": 33.7462, "Long": -84.4151, "Timestamp": 20181105221500, "Source": "https://www.wbir.com/article/news/nation-now/historic-governors-race-in-georgia-now-in-the-hands-of-voters/465-02b5215f-3557-4564-b700-80b542227fb0"}, {"ID": 800256485, "Actor1": "COLLEGE", "Actor1_Country": null, "Actor2": "UNITED STATES", "Actor2_Country": "USA", "Code": 22, "Class": 1, "Action_Location": "Georgia, United States", "Lat": 32.9866, "Long": -83.6487, "Timestamp": 20181105221500, "Source": "https://www.wbir.com/article/news/nation-now/historic-governors-race-in-georgia-now-in-the-hands-of-voters/465-02b5215f-3557-4564-b700-80b542227fb0"}, {"ID": 800256486, "Actor1": "COLLEGE", "Actor1_Country": null, "Actor2": "UNITED STATES", "Actor2_Country": "USA", "Code": 22, "Class": 1, "Action_Location": "Georgia, United States", "Lat": 32.9866, "Long": -83.6487, "Timestamp": 20181105221500, "Source": "https://www.wbir.com/article/news/nation-now/historic-governors-race-in-georgia-now-in-the-hands-of-voters/465-02b5215f-3557-4564-b700-80b542227fb0"}, {"ID": 800256497, "Actor1": "STUDENT", "Actor1_Country": null, "Actor2": "UNITED STATES", "Actor2_Country": "USA", "Code": 100, "Class": 3, "Action_Location": "United States", "Lat": 39.828175, "Long": -98.5795, "Timestamp": 20181105221500, "Source": "https://www.thenorthwestern.com/story/news/education/2018/11/05/uw-la-crosse-invites-porn-star-campus-talk-sexuality/1892719002/"}, {"ID": 800256510, "Actor1": "SPAIN", "Actor1_Country": "ESP", "Actor2": "POLITICAL PARTY", "Actor2_Country": null, "Code": 84, "Class": 2, "Action_Location": "University Of California San Diego, California, United States", "Lat": 32.877, "Long": -117.241, "Timestamp": 20181105221500, "Source": "https://www.charlotteobserver.com/news/politics-government/national-politics/article221164245.html"}, {"ID": 800256511, "Actor1": "SPAIN", "Actor1_Country": "ESP", "Actor2": "POLITICAL PARTY", "Actor2_Country": null, "Code": 84, "Class": 2, "Action_Location": "Spain", "Lat": 40.0, "Long": -4.0, "Timestamp": 20181105221500, "Source": "https://www.charlotteobserver.com/news/politics-government/national-politics/article221164245.html"}, {"ID": 800256512, "Actor1": "SPAIN", "Actor1_Country": "ESP", "Actor2": "POLITICAL PARTY", "Actor2_Country": null, "Code": 84, "Class": 2, "Action_Location": "Spain", "Lat": 40.0, "Long": -4.0, "Timestamp": 20181105221500, "Source": "https://www.charlotteobserver.com/news/politics-government/national-politics/article221164245.html"}, {"ID": 800256527, "Actor1": "FRANCE", "Actor1_Country": "FRA", "Actor2": "IRAN", "Actor2_Country": "IRN", "Code": 20, "Class": 1, "Action_Location": "Iran", "Lat": 32.0, "Long": 53.0, "Timestamp": 20181105221500, "Source": "https://www.iranfocus.com/en/index.php?option=com_content&view=article&id=33149:iran-rejects-bill-to-combat-terrrorism-financing&catid=4&tmpl=component&print=1&layout=default&page=&Itemid=109"}, {"ID": 800256528, "Actor1": "FRANCE", "Actor1_Country": "FRA", "Actor2": "IRAN", "Actor2_Country": "IRN", "Code": 20, "Class": 1, "Action_Location": "Iran", "Lat": 32.0, "Long": 53.0, "Timestamp": 20181105221500, "Source": "https://www.iranfocus.com/en/index.php?option=com_content&view=article&id=33149:iran-rejects-bill-to-combat-terrrorism-financing&catid=4&tmpl=component&print=1&layout=default&page=&Itemid=109"}, {"ID": 800256529, "Actor1": "FRANCE", "Actor1_Country": "FRA", "Actor2": "IRAN", "Actor2_Country": "IRN", "Code": 30, "Class": 1, "Action_Location": "Germany", "Lat": 51.5, "Long": 10.5, "Timestamp": 20181105221500, "Source": "https://www.iranfocus.com/en/index.php?option=com_content&view=article&id=33149:iran-rejects-bill-to-combat-terrrorism-financing&catid=4&tmpl=component&print=1&layout=default&page=&Itemid=109"}, {"ID": 800256530, "Actor1": "FRANCE", "Actor1_Country": "FRA", "Actor2": "IRAN", "Actor2_Country": "IRN", "Code": 30, "Class": 1, "Action_Location": "Germany", "Lat": 51.5, "Long": 10.5, "Timestamp": 20181105221500, "Source": "https://www.iranfocus.com/en/index.php?option=com_content&view=article&id=33149:iran-rejects-bill-to-combat-terrrorism-financing&catid=4&tmpl=component&print=1&layout=default&page=&Itemid=109"}, {"ID": 800256545, "Actor1": "BIRMINGHAM", "Actor1_Country": "GBR", "Actor2": "SHANGHAI", "Actor2_Country": "CHN", "Code": 13, "Class": 1, "Action_Location": "Melbourne, Victoria, Australia", "Lat": -37.8167, "Long": 144.967, "Timestamp": 20181105221500, "Source": "https://www.9news.com.au/2018/11/06/06/27/govt-mps-float-idea-for-2-polls-in-2019"}, {"ID": 800256553, "Actor1": "BRITISH", "Actor1_Country": "GBR", "Actor2": "THE EUROPEAN UNION", "Actor2_Country": "EUR", "Code": 190, "Class": 4, "Action_Location": "United States", "Lat": 39.828175, "Long": -98.5795, "Timestamp": 20181105221500, "Source": "https://www.europesun.com/news/258253533/vocal-well-to-do-whites-driving-us-polarization-study-says"}, {"ID": 800256554, "Actor1": "LONDON", "Actor1_Country": "GBR", "Actor2": "THE UN", "Actor2_Country": null, "Code": 120, "Class": 3, "Action_Location": "Iran", "Lat": 32.0, "Long": 53.0, "Timestamp": 20181105221500, "Source": "https://www.iranfocus.com/en/index.php?option=com_content&view=article&id=33149:iran-rejects-bill-to-combat-terrrorism-financing&catid=4&tmpl=component&print=1&layout=default&page=&Itemid=109"}, {"ID": 800256557, "Actor1": "LONDON", "Actor1_Country": "GBR", "Actor2": "IRELAND", "Actor2_Country": "IRL", "Code": 173, "Class": 4, "Action_Location": "Dublin, Dublin, Ireland", "Lat": 53.3331, "Long": -6.24889, "Timestamp": 20181105221500, "Source": "https://www.eveningecho.ie/nationalnews/Man-arrested-in-Donegal-on-suspicion-of-1972-murder-of-two-UDR-soldiers-5763cedf-7756-40f9-a1b9-d842b671bfcb-ds"}, {"ID": 800256558, "Actor1": "LONDON", "Actor1_Country": "GBR", "Actor2": "IRELAND", "Actor2_Country": "IRL", "Code": 190, "Class": 4, "Action_Location": "Dublin, Dublin, Ireland", "Lat": 53.3331, "Long": -6.24889, "Timestamp": 20181105221500, "Source": "https://www.eveningecho.ie/nationalnews/Man-arrested-in-Donegal-on-suspicion-of-1972-murder-of-two-UDR-soldiers-5763cedf-7756-40f9-a1b9-d842b671bfcb-ds"}, {"ID": 800256559, "Actor1": "UNITED KINGDOM", "Actor1_Country": "GBR", "Actor2": "IRAN", "Actor2_Country": "IRN", "Code": 20, "Class": 1, "Action_Location": "Iran", "Lat": 32.0, "Long": 53.0, "Timestamp": 20181105221500, "Source": "https://www.iranfocus.com/en/index.php?option=com_content&view=article&id=33149:iran-rejects-bill-to-combat-terrrorism-financing&catid=4&tmpl=component&print=1&layout=default&page=&Itemid=109"}, {"ID": 800256560, "Actor1": "UNITED KINGDOM", "Actor1_Country": "GBR", "Actor2": "IRAN", "Actor2_Country": "IRN", "Code": 30, "Class": 1, "Action_Location": "Germany", "Lat": 51.5, "Long": 10.5, "Timestamp": 20181105221500, "Source": "https://www.iranfocus.com/en/index.php?option=com_content&view=article&id=33149:iran-rejects-bill-to-combat-terrrorism-financing&catid=4&tmpl=component&print=1&layout=default&page=&Itemid=109"}, {"ID": 800256571, "Actor1": "DAVID CAMERON", "Actor1_Country": "GBR", "Actor2": "DISTRICT COURT", "Actor2_Country": null, "Code": 13, "Class": 1, "Action_Location": "Oakura, New Zealand (general), New Zealand", "Lat": -39.1167, "Long": 173.95, "Timestamp": 20181105221500, "Source": "https://www.stuff.co.nz/national/108373948/Drugged-up-driving-duo-caught-thanks-to-help-from-concerned-motorists"}, {"ID": 800256572, "Actor1": "DAVID CAMERON", "Actor1_Country": "GBR", "Actor2": "NEW ZEALAND", "Actor2_Country": "NZL", "Code": 13, "Class": 1, "Action_Location": "Oakura, New Zealand (general), New Zealand", "Lat": -39.1167, "Long": 173.95, "Timestamp": 20181105221500, "Source": "https://www.stuff.co.nz/national/108373948/Drugged-up-driving-duo-caught-thanks-to-help-from-concerned-motorists"}, {"ID": 800256573, "Actor1": "BRITISH", "Actor1_Country": "GBR", "Actor2": "BRITAIN", "Actor2_Country": "GBR", "Code": 190, "Class": 4, "Action_Location": "United States", "Lat": 39.828175, "Long": -98.5795, "Timestamp": 20181105221500, "Source": "https://www.europesun.com/news/258253533/vocal-well-to-do-whites-driving-us-polarization-study-says"}, {"ID": 800256614, "Actor1": "PRIME MINISTER", "Actor1_Country": null, "Actor2": "AUSTRALIA", "Actor2_Country": "AUS", "Code": 110, "Class": 3, "Action_Location": "Melbourne, Victoria, Australia", "Lat": -37.8167, "Long": 144.967, "Timestamp": 20181105221500, "Source": "https://www.9news.com.au/2018/11/06/06/27/govt-mps-float-idea-for-2-polls-in-2019"}, {"ID": 800256630, "Actor1": "GOVERNMENT", "Actor1_Country": null, "Actor2": "CITIZEN", "Actor2_Country": null, "Code": 141, "Class": 3, "Action_Location": "Canberra, Australian Capital Territory, Australia", "Lat": -35.2833, "Long": 149.217, "Timestamp": 20181105221500, "Source": "https://www.brisbanetimes.com.au/politics/federal/life-in-the-people-s-republic-of-canberra-20181031-p50d8i.html"}, {"ID": 800256647, "Actor1": "GOVERNMENT", "Actor1_Country": null, "Actor2": "THE UN", "Actor2_Country": null, "Code": 51, "Class": 1, "Action_Location": "Hodeida, Al ?udaydah, Yemen", "Lat": 14.7978, "Long": 42.9545, "Timestamp": 20181105221500, "Source": "http://www.arabnews.com/node/1399656/middle-east"}, {"ID": 800256664, "Actor1": "PRESIDENT", "Actor1_Country": null, "Actor2": "SUPREME COURT", "Actor2_Country": null, "Code": 111, "Class": 3, "Action_Location": "Mwilu, Eastern, Kenya", "Lat": -2.00931, "Long": 37.6724, "Timestamp": 20181105221500, "Source": "https://www.standardmedia.co.ke/article/2001301692/dcj-mwilu-s-foe-is-now-her-passionate-defender"}, {"ID": 800256666, "Actor1": "PRESIDENT", "Actor1_Country": null, "Actor2": "SAIDA", "Actor2_Country": "LBN", "Code": 10, "Class": 1, "Action_Location": "Tunis, (TS26), Tunisia", "Lat": 36.8028, "Long": 10.1797, "Timestamp": 20181105221500, "Source": "https://www.tap.info.tn/en/Portal-Politics/10777701-cabinet-reshuffle"}, {"ID": 800256667, "Actor1": "CABINET", "Actor1_Country": null, "Actor2": "SAIDA", "Actor2_Country": "LBN", "Code": 120, "Class": 3, "Action_Location": "Tunis, (TS26), Tunisia", "Lat": 36.8028, "Long": 10.1797, "Timestamp": 20181105221500, "Source": "https://www.tap.info.tn/en/Portal-Politics/10777701-cabinet-reshuffle"}, {"ID": 800256682, "Actor1": "PRIME MINISTER", "Actor1_Country": null, "Actor2": "TUNISIA", "Actor2_Country": "TUN", "Code": 12, "Class": 1, "Action_Location": "Tunis, (TS26), Tunisia", "Lat": 36.8028, "Long": 10.1797, "Timestamp": 20181105221500, "Source": "https://www.tap.info.tn/en/Portal-Politics/10777701-cabinet-reshuffle"}, {"ID": 800256683, "Actor1": "CABINET", "Actor1_Country": null, "Actor2": "TUNISIA", "Actor2_Country": "TUN", "Code": 120, "Class": 3, "Action_Location": "Tunis, (TS26), Tunisia", "Lat": 36.8028, "Long": 10.1797, "Timestamp": 20181105221500, "Source": "https://www.tap.info.tn/en/Portal-Politics/10777701-cabinet-reshuffle"}, {"ID": 800256688, "Actor1": "PRESIDENT", "Actor1_Country": null, "Actor2": "UNITED STATES", "Actor2_Country": "USA", "Code": 10, "Class": 1, "Action_Location": "Glacier Park International Airport, Montana, United States", "Lat": 48.3092, "Long": -114.251, "Timestamp": 20181105221500, "Source": "https://www.greenwichtime.com/news/article/The-Latest-Pence-plugs-Rosendale-Tester-touts-13364669.php"}, {"ID": 800256689, "Actor1": "PRESIDENT", "Actor1_Country": null, "Actor2": "MONTANA", "Actor2_Country": "USA", "Code": 10, "Class": 1, "Action_Location": "Glacier Park International Airport, Montana, United States", "Lat": 48.3092, "Long": -114.251, "Timestamp": 20181105221500, "Source": "https://www.greenwichtime.com/news/article/The-Latest-Pence-plugs-Rosendale-Tester-touts-13364669.php"}, {"ID": 800256690, "Actor1": "PRESIDENT", "Actor1_Country": null, "Actor2": "UNITED STATES", "Actor2_Country": "USA", "Code": 10, "Class": 1, "Action_Location": "Montana, United States", "Lat": 46.9048, "Long": -110.326, "Timestamp": 20181105221500, "Source": "https://www.greenwichtime.com/news/article/The-Latest-Pence-plugs-Rosendale-Tester-touts-13364669.php"}, {"ID": 800256691, "Actor1": "PRESIDENT", "Actor1_Country": null, "Actor2": "UNITED STATES", "Actor2_Country": "USA", "Code": 10, "Class": 1, "Action_Location": "Montana, United States", "Lat": 46.9048, "Long": -110.326, "Timestamp": 20181105221500, "Source": "https://www.greenwichtime.com/news/article/The-Latest-Pence-plugs-Rosendale-Tester-touts-13364669.php"}, {"ID": 800256703, "Actor1": "KING", "Actor1_Country": null, "Actor2": "DELAWARE", "Actor2_Country": "USA", "Code": 70, "Class": 2, "Action_Location": "Delaware, United States", "Lat": 39.3498, "Long": -75.5148, "Timestamp": 20181105221500, "Source": "https://www.sfgate.com/news/article/No-wrongdoing-by-committee-formed-by-Senate-13364651.php"}, {"ID": 800256705, "Actor1": "PRESIDENT", "Actor1_Country": null, "Actor2": "UNITED STATES", "Actor2_Country": "USA", "Code": 141, "Class": 3, "Action_Location": "Montana, United States", "Lat": 46.9048, "Long": -110.326, "Timestamp": 20181105221500, "Source": "https://www.greenwichtime.com/news/article/The-Latest-Pence-plugs-Rosendale-Tester-touts-13364669.php"}, {"ID": 800256708, "Actor1": "SECRETARY OF STATE", "Actor1_Country": null, "Actor2": "WASHINGTON", "Actor2_Country": "USA", "Code": 10, "Class": 1, "Action_Location": "Washington, District of Columbia, United States", "Lat": 38.8951, "Long": -77.0364, "Timestamp": 20181105221500, "Source": "https://www.independent.ie/world-news/iranian-president-warns-of-war-situation-as-us-reimposes-sanctions-37496040.html"}, {"ID": 800256709, "Actor1": "GOVERNMENT", "Actor1_Country": null, "Actor2": "YEMEN", "Actor2_Country": "YEM", "Code": 43, "Class": 1, "Action_Location": "United Kingdom", "Lat": 54.0, "Long": -4.0, "Timestamp": 20181105221500, "Source": "http://www.arabnews.com/node/1399656/middle-east"}, {"ID": 800256761, "Actor1": "REGISTERED NURSE", "Actor1_Country": null, "Actor2": "UNITED STATES", "Actor2_Country": "USA", "Code": 36, "Class": 1, "Action_Location": "Upper Valley Ambulance, Vermont, United States", "Lat": 43.9065, "Long": -72.1521, "Timestamp": 20181105221500, "Source": "https://www.sfgate.com/news/article/Ambulances-make-house-calls-to-prevent-future-13364647.php"}, {"ID": 800256762, "Actor1": "REGISTERED NURSE", "Actor1_Country": null, "Actor2": "UNITED STATES", "Actor2_Country": "USA", "Code": 36, "Class": 1, "Action_Location": "Piermont, New Hampshire, United States", "Lat": 43.9698, "Long": -72.0806, "Timestamp": 20181105221500, "Source": "https://www.sfgate.com/news/article/Ambulances-make-house-calls-to-prevent-future-13364647.php"}, {"ID": 800256763, "Actor1": "REGISTERED NURSE", "Actor1_Country": null, "Actor2": "UNITED STATES", "Actor2_Country": "USA", "Code": 43, "Class": 1, "Action_Location": "Upper Valley Ambulance, Vermont, United States", "Lat": 43.9065, "Long": -72.1521, "Timestamp": 20181105221500, "Source": "https://www.sfgate.com/news/article/Ambulances-make-house-calls-to-prevent-future-13364647.php"}, {"ID": 800256807, "Actor1": "IRELAND", "Actor1_Country": "IRL", "Actor2": "DETECTIVE", "Actor2_Country": null, "Code": 173, "Class": 4, "Action_Location": "Dublin, Dublin, Ireland", "Lat": 53.3331, "Long": -6.24889, "Timestamp": 20181105221500, "Source": "https://www.eveningecho.ie/nationalnews/Man-arrested-in-Donegal-on-suspicion-of-1972-murder-of-two-UDR-soldiers-5763cedf-7756-40f9-a1b9-d842b671bfcb-ds"}, {"ID": 800256809, "Actor1": "DUBLIN", "Actor1_Country": "IRL", "Actor2": "IRELAND", "Actor2_Country": "IRL", "Code": 213, "Class": 1, "Action_Location": "Dublin, Dublin, Ireland", "Lat": 53.3331, "Long": -6.24889, "Timestamp": 20181105221500, "Source": "https://www.irishtimes.com/news/crime-and-law/john-downey-arrested-in-co-donegal-over-enniskillen-killings-1.3687400"}, {"ID": 800256810, "Actor1": "DUBLIN", "Actor1_Country": "IRL", "Actor2": "IRELAND", "Actor2_Country": "IRL", "Code": 213, "Class": 1, "Action_Location": "Dublin, Dublin, Ireland", "Lat": 53.3331, "Long": -6.24889, "Timestamp": 20181105221500, "Source": "https://www.irishtimes.com/news/crime-and-law/john-downey-arrested-in-co-donegal-over-enniskillen-killings-1.3687400"}, {"ID": 800256814, "Actor1": "IRAN", "Actor1_Country": "IRN", "Actor2": "UNITED NATIONS", "Actor2_Country": null, "Code": 51, "Class": 1, "Action_Location": "Tehran, Tehran, Iran", "Lat": 35.75, "Long": 51.5148, "Timestamp": 20181105221500, "Source": "https://www.independent.ie/world-news/iranian-president-warns-of-war-situation-as-us-reimposes-sanctions-37496040.html"}, {"ID": 800256815, "Actor1": "IRANIAN", "Actor1_Country": "IRN", "Actor2": "THE UN", "Actor2_Country": null, "Code": 71, "Class": 2, "Action_Location": "Iran", "Lat": 32.0, "Long": 53.0, "Timestamp": 20181105221500, "Source": "https://www.iranfocus.com/en/index.php?option=com_content&view=article&id=33149:iran-rejects-bill-to-combat-terrrorism-financing&catid=4&tmpl=component&print=1&layout=default&page=&Itemid=109"}, {"ID": 800256816, "Actor1": "IRANIAN", "Actor1_Country": "IRN", "Actor2": "TELEVISION", "Actor2_Country": null, "Code": 10, "Class": 1, "Action_Location": "Iraq", "Lat": 33.0, "Long": 44.0, "Timestamp": 20181105221500, "Source": "https://www.independent.ie/world-news/iranian-president-warns-of-war-situation-as-us-reimposes-sanctions-37496040.html"}, {"ID": 800256817, "Actor1": "IRAN", "Actor1_Country": "IRN", "Actor2": "POLITICAL PRISONER", "Actor2_Country": null, "Code": 173, "Class": 4, "Action_Location": "Karaj, Tehran, Iran", "Lat": 35.8355, "Long": 51.0103, "Timestamp": 20181105221500, "Source": "https://www.iranfocus.com/en/index.php?option=com_content&view=article&id=33148:iran-political-prisoner-protests-new-fabricated-charges-against-him-with-open-letter&catid=5:human-rights&Itemid=110"}, {"ID": 800256818, "Actor1": "IRAN", "Actor1_Country": "IRN", "Actor2": "NORTH KOREA", "Actor2_Country": "PRK", "Code": 57, "Class": 1, "Action_Location": "Iran", "Lat": 32.0, "Long": 53.0, "Timestamp": 20181105221500, "Source": "https://www.iranfocus.com/en/index.php?option=com_content&view=article&id=33149:iran-rejects-bill-to-combat-terrrorism-financing&catid=4&tmpl=component&print=1&layout=default&page=&Itemid=109"}, {"ID": 800256819, "Actor1": "IRAN", "Actor1_Country": "IRN", "Actor2": "NORTH KOREA", "Actor2_Country": "PRK", "Code": 57, "Class": 1, "Action_Location": "North Korea", "Lat": 40.0, "Long": 127.0, "Timestamp": 20181105221500, "Source": "https://www.iranfocus.com/en/index.php?option=com_content&view=article&id=33149:iran-rejects-bill-to-combat-terrrorism-financing&catid=4&tmpl=component&print=1&layout=default&page=&Itemid=109"}, {"ID": 800256820, "Actor1": "IRAN", "Actor1_Country": "IRN", "Actor2": "NORTH KOREA", "Actor2_Country": "PRK", "Code": 57, "Class": 1, "Action_Location": "Iran", "Lat": 32.0, "Long": 53.0, "Timestamp": 20181105221500, "Source": "https://www.iranfocus.com/en/index.php?option=com_content&view=article&id=33149:iran-rejects-bill-to-combat-terrrorism-financing&catid=4&tmpl=component&print=1&layout=default&page=&Itemid=109"}, {"ID": 800256821, "Actor1": "TEHRAN", "Actor1_Country": "IRN", "Actor2": "MILITANT", "Actor2_Country": null, "Code": 51, "Class": 1, "Action_Location": "Tehran, Tehran, Iran", "Lat": 35.75, "Long": 51.5148, "Timestamp": 20181105221500, "Source": "https://www.independent.ie/world-news/iranian-president-warns-of-war-situation-as-us-reimposes-sanctions-37496040.html"}, {"ID": 800256828, "Actor1": "IRANIAN", "Actor1_Country": "IRN", "Actor2": "THE UN", "Actor2_Country": null, "Code": 71, "Class": 2, "Action_Location": "Iran", "Lat": 32.0, "Long": 53.0, "Timestamp": 20181105221500, "Source": "https://www.iranfocus.com/en/index.php?option=com_content&view=article&id=33149:iran-rejects-bill-to-combat-terrrorism-financing&catid=4&tmpl=component&print=1&layout=default&page=&Itemid=109"}, {"ID": 800256888, "Actor1": "JEWISH", "Actor1_Country": null, "Actor2": "QUITO", "Actor2_Country": "ECU", "Code": 57, "Class": 1, "Action_Location": "Quito, Pichincha, Ecuador", "Lat": -0.216667, "Long": -78.5, "Timestamp": 20181105221500, "Source": "https://www.marketwatch.com/press-release/ajc-ecuador-jewish-community-sign-association-accord-2018-11-05"}, {"ID": 800256915, "Actor1": "SUPREME COURT", "Actor1_Country": null, "Actor2": "COMPANIES", "Actor2_Country": null, "Code": 30, "Class": 1, "Action_Location": "Virginia, United States", "Lat": 37.768, "Long": -78.2057, "Timestamp": 20181105221500, "Source": "https://www.sunherald.com/news/business/article221152850.html"}, {"ID": 800256922, "Actor1": "LAWYER", "Actor1_Country": null, "Actor2": "TEHRAN", "Actor2_Country": "IRN", "Code": 90, "Class": 2, "Action_Location": "Tehran, Tehran, Iran", "Lat": 35.75, "Long": 51.5148, "Timestamp": 20181105221500, "Source": "https://www.iranfocus.com/en/index.php?option=com_content&view=article&id=33148:iran-political-prisoner-protests-new-fabricated-charges-against-him-with-open-letter&catid=5:human-rights&Itemid=110"}, {"ID": 800256923, "Actor1": "LAWYER", "Actor1_Country": null, "Actor2": "TEHRAN", "Actor2_Country": "IRN", "Code": 112, "Class": 3, "Action_Location": "Karaj, Tehran, Iran", "Lat": 35.8355, "Long": 51.0103, "Timestamp": 20181105221500, "Source": "https://www.iranfocus.com/en/index.php?option=com_content&view=article&id=33148:iran-political-prisoner-protests-new-fabricated-charges-against-him-with-open-letter&catid=5:human-rights&Itemid=110"}, {"ID": 800256924, "Actor1": "LAWYER", "Actor1_Country": null, "Actor2": "TEHRAN", "Actor2_Country": "IRN", "Code": 120, "Class": 3, "Action_Location": "Tehran, Tehran, Iran", "Lat": 35.75, "Long": 51.5148, "Timestamp": 20181105221500, "Source": "https://www.iranfocus.com/en/index.php?option=com_content&view=article&id=33148:iran-political-prisoner-protests-new-fabricated-charges-against-him-with-open-letter&catid=5:human-rights&Itemid=110"}, {"ID": 800256925, "Actor1": "CHIEF JUSTICE", "Actor1_Country": null, "Actor2": "PARLIAMENT", "Actor2_Country": null, "Code": 20, "Class": 1, "Action_Location": "Mwilu, Eastern, Kenya", "Lat": -2.00931, "Long": 37.6724, "Timestamp": 20181105221500, "Source": "https://www.standardmedia.co.ke/article/2001301692/dcj-mwilu-s-foe-is-now-her-passionate-defender"}, {"ID": 800256926, "Actor1": "LAWYER", "Actor1_Country": null, "Actor2": "LAWMAKER", "Actor2_Country": null, "Code": 20, "Class": 1, "Action_Location": "Virginia, United States", "Lat": 37.768, "Long": -78.2057, "Timestamp": 20181105221500, "Source": "https://www.sunherald.com/news/business/article221152850.html"}, {"ID": 800256928, "Actor1": "JUDGE", "Actor1_Country": null, "Actor2": "NEW ZEALAND", "Actor2_Country": "NZL", "Code": 10, "Class": 1, "Action_Location": "Taranaki, Taranaki, New Zealand", "Lat": -39.3333, "Long": 174.25, "Timestamp": 20181105221500, "Source": "https://www.stuff.co.nz/national/108373948/Drugged-up-driving-duo-caught-thanks-to-help-from-concerned-motorists"}, {"ID": 800256933, "Actor1": "HIGH COURT", "Actor1_Country": null, "Actor2": "RELIGION", "Actor2_Country": null, "Code": 51, "Class": 1, "Action_Location": "Virginia, United States", "Lat": 37.768, "Long": -78.2057, "Timestamp": 20181105221500, "Source": "http://catholicphilly.com/2018/11/news/national-news/high-court-to-consider-if-40-foot-cross-war-memorial-endorses-religion/"}, {"ID": 800256934, "Actor1": "JUDGE", "Actor1_Country": null, "Actor2": "BISHOP", "Actor2_Country": null, "Code": 120, "Class": 3, "Action_Location": "Baltimore, Maryland, United States", "Lat": 39.2904, "Long": -76.6122, "Timestamp": 20181105221500, "Source": "https://www.mysanantonio.com/news/us/article/Judge-to-hear-ex-bishop-s-bid-for-early-release-13363536.php"}, {"ID": 800256935, "Actor1": "JUDGE", "Actor1_Country": null, "Actor2": "BISHOP", "Actor2_Country": null, "Code": 120, "Class": 3, "Action_Location": "Maryland, United States", "Lat": 39.0724, "Long": -76.7902, "Timestamp": 20181105221500, "Source": "https://www.mysanantonio.com/news/us/article/Judge-to-hear-ex-bishop-s-bid-for-early-release-13363536.php"}, {"ID": 800256938, "Actor1": "JUSTICE OF THE PEACE", "Actor1_Country": null, "Actor2": "SAN ANTONIO", "Actor2_Country": "USA", "Code": 36, "Class": 1, "Action_Location": "Texas Department Of Public Safety, Texas, United States", "Lat": 30.3263, "Long": -97.7242, "Timestamp": 20181105221500, "Source": "https://houston.cbslocal.com/2018/11/05/texas-newlyweds-die-in-helicopter-crash-while-leaving-their-wedding/"}, {"ID": 800256945, "Actor1": "KENYA", "Actor1_Country": "KEN", "Actor2": "UHURU KENYATTA", "Actor2_Country": "KEN", "Code": 10, "Class": 1, "Action_Location": "Mwilu, Eastern, Kenya", "Lat": -2.00931, "Long": 37.6724, "Timestamp": 20181105221500, "Source": "https://www.standardmedia.co.ke/article/2001301692/dcj-mwilu-s-foe-is-now-her-passionate-defender"}, {"ID": 800256946, "Actor1": "KENYA", "Actor1_Country": "KEN", "Actor2": "PARLIAMENT", "Actor2_Country": null, "Code": 20, "Class": 1, "Action_Location": "Mwilu, Eastern, Kenya", "Lat": -2.00931, "Long": 37.6724, "Timestamp": 20181105221500, "Source": "https://www.standardmedia.co.ke/article/2001301692/dcj-mwilu-s-foe-is-now-her-passionate-defender"}, {"ID": 800256973, "Actor1": "LEGISLATURE", "Actor1_Country": null, "Actor2": "LYON", "Actor2_Country": "FRA", "Code": 14, "Class": 1, "Action_Location": "Lyon County, Nevada, United States", "Lat": 39.0002, "Long": -119.126, "Timestamp": 20181105221500, "Source": "https://mynews4.com/news/local/fernley-votes-on-fate-of-city-diesel-tax"}, {"ID": 800256976, "Actor1": "LEGISLATURE", "Actor1_Country": null, "Actor2": "UNITED STATES", "Actor2_Country": "USA", "Code": 14, "Class": 1, "Action_Location": "Lyon County, Nevada, United States", "Lat": 39.0002, "Long": -119.126, "Timestamp": 20181105221500, "Source": "https://mynews4.com/news/local/fernley-votes-on-fate-of-city-diesel-tax"}, {"ID": 800256977, "Actor1": "SENATE", "Actor1_Country": null, "Actor2": "UNITED STATES", "Actor2_Country": "USA", "Code": 40, "Class": 1, "Action_Location": "Connecticut, United States", "Lat": 41.5834, "Long": -72.7622, "Timestamp": 20181105221500, "Source": "https://www.mysanantonio.com/local/article/Murphy-Corey-in-a-quiet-contest-for-U-S-Senate-13364662.php"}, {"ID": 800256991, "Actor1": "LATVIA", "Actor1_Country": "LVA", "Actor2": "COMMANDER", "Actor2_Country": null, "Code": 20, "Class": 1, "Action_Location": "Latvia", "Lat": 57.0, "Long": 25.0, "Timestamp": 20181105221500, "Source": "https://www.businessinsider.com/nato-forces-at-trident-juncture-prepare-for-cold-weather-operations-2018-11"}, {"ID": 800257009, "Actor1": "WEBSITE", "Actor1_Country": null, "Actor2": "POLITICAL PARTY", "Actor2_Country": null, "Code": 84, "Class": 2, "Action_Location": "Spain", "Lat": 40.0, "Long": -4.0, "Timestamp": 20181105221500, "Source": "https://www.charlotteobserver.com/news/politics-government/national-politics/article221164245.html"}, {"ID": 800257010, "Actor1": "WEBSITE", "Actor1_Country": null, "Actor2": "POLITICAL PARTY", "Actor2_Country": null, "Code": 84, "Class": 2, "Action_Location": "Spain", "Lat": 40.0, "Long": -4.0, "Timestamp": 20181105221500, "Source": "https://www.charlotteobserver.com/news/politics-government/national-politics/article221164245.html"}, {"ID": 800257051, "Actor1": "MARINES", "Actor1_Country": null, "Actor2": "ICELAND", "Actor2_Country": "ISL", "Code": 180, "Class": 4, "Action_Location": "Iceland", "Lat": 65.0, "Long": -18.0, "Timestamp": 20181105221500, "Source": "https://www.businessinsider.com/nato-forces-at-trident-juncture-prepare-for-cold-weather-operations-2018-11"}, {"ID": 800257052, "Actor1": "COMMANDER", "Actor1_Country": null, "Actor2": "LATVIAN", "Actor2_Country": "LVA", "Code": 20, "Class": 1, "Action_Location": "Latvia", "Lat": 57.0, "Long": 25.0, "Timestamp": 20181105221500, "Source": "https://www.businessinsider.com/nato-forces-at-trident-juncture-prepare-for-cold-weather-operations-2018-11"}, {"ID": 800257093, "Actor1": "MALAYSIA", "Actor1_Country": "MYS", "Actor2": "IMMIGRANT", "Actor2_Country": null, "Code": 51, "Class": 1, "Action_Location": "Alabama, United States", "Lat": 32.799, "Long": -86.8073, "Timestamp": 20181105221500, "Source": "https://www.cbsnews.com/news/reporters-notebook-what-the-midterms-look-like-on-election-eve/"}, {"ID": 800257094, "Actor1": "MALAYSIA", "Actor1_Country": "MYS", "Actor2": "IMMIGRANT", "Actor2_Country": null, "Code": 51, "Class": 1, "Action_Location": "Pennsylvania, United States", "Lat": 40.5773, "Long": -77.264, "Timestamp": 20181105221500, "Source": "https://www.cbsnews.com/news/reporters-notebook-what-the-midterms-look-like-on-election-eve/"}, {"ID": 800257095, "Actor1": "MALAYSIA", "Actor1_Country": "MYS", "Actor2": "IMMIGRANT", "Actor2_Country": null, "Code": 51, "Class": 1, "Action_Location": "Pennsylvania, United States", "Lat": 40.5773, "Long": -77.264, "Timestamp": 20181105221500, "Source": "https://www.cbsnews.com/news/reporters-notebook-what-the-midterms-look-like-on-election-eve/"}, {"ID": 800257117, "Actor1": "SCIENTOLOGY", "Actor1_Country": null, "Actor2": "UNITED STATES", "Actor2_Country": "USA", "Code": 190, "Class": 4, "Action_Location": "Hollywood, California, United States", "Lat": 34.0983, "Long": -118.327, "Timestamp": 20181105221500, "Source": "https://www.businessinsider.com/jada-pinkett-smith-why-people-thought-she-was-scientologist-2018-11"}, {"ID": 800257123, "Actor1": "NEW ZEALAND", "Actor1_Country": "NZL", "Actor2": "COMMUNITY", "Actor2_Country": null, "Code": 100, "Class": 3, "Action_Location": "New Plymouth, New Zealand (general), New Zealand", "Lat": -39.0667, "Long": 174.083, "Timestamp": 20181105221500, "Source": "https://www.stuff.co.nz/national/108373948/Drugged-up-driving-duo-caught-thanks-to-help-from-concerned-motorists"}, {"ID": 800257124, "Actor1": "NEW ZEALAND", "Actor1_Country": "NZL", "Actor2": "NEW ZEALAND", "Actor2_Country": "NZL", "Code": 10, "Class": 1, "Action_Location": "Taranaki, Taranaki, New Zealand", "Lat": -39.3333, "Long": 174.25, "Timestamp": 20181105221500, "Source": "https://www.stuff.co.nz/national/108373948/Drugged-up-driving-duo-caught-thanks-to-help-from-concerned-motorists"}, {"ID": 800257170, "Actor1": "NORTH KOREA", "Actor1_Country": "PRK", "Actor2": "IRAN", "Actor2_Country": "IRN", "Code": 57, "Class": 1, "Action_Location": "Iran", "Lat": 32.0, "Long": 53.0, "Timestamp": 20181105221500, "Source": "https://www.iranfocus.com/en/index.php?option=com_content&view=article&id=33149:iran-rejects-bill-to-combat-terrrorism-financing&catid=4&tmpl=component&print=1&layout=default&page=&Itemid=109"}, {"ID": 800257171, "Actor1": "NORTH KOREA", "Actor1_Country": "PRK", "Actor2": "IRAN", "Actor2_Country": "IRN", "Code": 57, "Class": 1, "Action_Location": "North Korea", "Lat": 40.0, "Long": 127.0, "Timestamp": 20181105221500, "Source": "https://www.iranfocus.com/en/index.php?option=com_content&view=article&id=33149:iran-rejects-bill-to-combat-terrrorism-financing&catid=4&tmpl=component&print=1&layout=default&page=&Itemid=109"}, {"ID": 800257172, "Actor1": "NORTH KOREA", "Actor1_Country": "PRK", "Actor2": "IRAN", "Actor2_Country": "IRN", "Code": 57, "Class": 1, "Action_Location": "Iran", "Lat": 32.0, "Long": 53.0, "Timestamp": 20181105221500, "Source": "https://www.iranfocus.com/en/index.php?option=com_content&view=article&id=33149:iran-rejects-bill-to-combat-terrrorism-financing&catid=4&tmpl=component&print=1&layout=default&page=&Itemid=109"}, {"ID": 800257179, "Actor1": "DEMOCRATIC PARTY", "Actor1_Country": null, "Actor2": "SECRETARY OF STATE", "Actor2_Country": null, "Code": 90, "Class": 2, "Action_Location": "Morehouse College, Georgia, United States", "Lat": 33.7462, "Long": -84.4151, "Timestamp": 20181105221500, "Source": "https://www.wbir.com/article/news/nation-now/historic-governors-race-in-georgia-now-in-the-hands-of-voters/465-02b5215f-3557-4564-b700-80b542227fb0"}, {"ID": 800257180, "Actor1": "DEMOCRATIC PARTY", "Actor1_Country": null, "Actor2": "SECRETARY OF STATE", "Actor2_Country": null, "Code": 90, "Class": 2, "Action_Location": "Morehouse College, Georgia, United States", "Lat": 33.7462, "Long": -84.4151, "Timestamp": 20181105221500, "Source": "https://www.wbir.com/article/news/nation-now/historic-governors-race-in-georgia-now-in-the-hands-of-voters/465-02b5215f-3557-4564-b700-80b542227fb0"}, {"ID": 800257181, "Actor1": "DEMOCRATIC PARTY", "Actor1_Country": null, "Actor2": "SECRETARY OF STATE", "Actor2_Country": null, "Code": 90, "Class": 2, "Action_Location": "Morehouse College, Georgia, United States", "Lat": 33.7462, "Long": -84.4151, "Timestamp": 20181105221500, "Source": "https://www.wbir.com/article/news/nation-now/historic-governors-race-in-georgia-now-in-the-hands-of-voters/465-02b5215f-3557-4564-b700-80b542227fb0"}, {"ID": 800257182, "Actor1": "DEMOCRATIC PARTY", "Actor1_Country": null, "Actor2": "SECRETARY OF STATE", "Actor2_Country": null, "Code": 91, "Class": 2, "Action_Location": "Morehouse College, Georgia, United States", "Lat": 33.7462, "Long": -84.4151, "Timestamp": 20181105221500, "Source": "https://www.wbir.com/article/news/nation-now/historic-governors-race-in-georgia-now-in-the-hands-of-voters/465-02b5215f-3557-4564-b700-80b542227fb0"}, {"ID": 800257183, "Actor1": "DEMOCRATIC PARTY", "Actor1_Country": null, "Actor2": "SECRETARY OF STATE", "Actor2_Country": null, "Code": 91, "Class": 2, "Action_Location": "Morehouse College, Georgia, United States", "Lat": 33.7462, "Long": -84.4151, "Timestamp": 20181105221500, "Source": "https://www.wbir.com/article/news/nation-now/historic-governors-race-in-georgia-now-in-the-hands-of-voters/465-02b5215f-3557-4564-b700-80b542227fb0"}, {"ID": 800257184, "Actor1": "DEMOCRATIC PARTY", "Actor1_Country": null, "Actor2": "SECRETARY OF STATE", "Actor2_Country": null, "Code": 91, "Class": 2, "Action_Location": "Morehouse College, Georgia, United States", "Lat": 33.7462, "Long": -84.4151, "Timestamp": 20181105221500, "Source": "https://www.wbir.com/article/news/nation-now/historic-governors-race-in-georgia-now-in-the-hands-of-voters/465-02b5215f-3557-4564-b700-80b542227fb0"}, {"ID": 800257241, "Actor1": "RUSSIAN", "Actor1_Country": "RUS", "Actor2": "A US", "Actor2_Country": "USA", "Code": 36, "Class": 1, "Action_Location": "Russia", "Lat": 60.0, "Long": 100.0, "Timestamp": 20181105221500, "Source": "https://www.dailymail.co.uk/news/article-6356001/Russian-fighter-jet-flies-dangerously-close-intercept-Navy-plane.html"}, {"ID": 800257284, "Actor1": "TUNISIA", "Actor1_Country": "TUN", "Actor2": "MINIST OF STATE", "Actor2_Country": null, "Code": 12, "Class": 1, "Action_Location": "Tunis, (TS26), Tunisia", "Lat": 36.8028, "Long": 10.1797, "Timestamp": 20181105221500, "Source": "https://www.tap.info.tn/en/Portal-Politics/10777701-cabinet-reshuffle"}, {"ID": 800257285, "Actor1": "TUNISIA", "Actor1_Country": "TUN", "Actor2": "TUNISIA", "Actor2_Country": "TUN", "Code": 12, "Class": 1, "Action_Location": "Tunis, (TS26), Tunisia", "Lat": 36.8028, "Long": 10.1797, "Timestamp": 20181105221500, "Source": "https://www.tap.info.tn/en/Portal-Politics/10777701-cabinet-reshuffle"}, {"ID": 800257415, "Actor1": "WASHINGTON", "Actor1_Country": "USA", "Actor2": "COMPANIES", "Actor2_Country": null, "Code": 30, "Class": 1, "Action_Location": "Virginia, United States", "Lat": 37.768, "Long": -78.2057, "Timestamp": 20181105221500, "Source": "https://www.kveo.com/news/national/justices-skeptical-of-argument-to-overturn-va-mining-ban/1574352838"}, {"ID": 800257420, "Actor1": "WASHINGTON", "Actor1_Country": "USA", "Actor2": "COMPANIES", "Actor2_Country": null, "Code": 172, "Class": 4, "Action_Location": "Virginia, United States", "Lat": 37.768, "Long": -78.2057, "Timestamp": 20181105221500, "Source": "https://www.kveo.com/news/national/justices-skeptical-of-argument-to-overturn-va-mining-ban/1574352838"}, {"ID": 800257425, "Actor1": "UNITED STATES", "Actor1_Country": "USA", "Actor2": "CHRISTIAN", "Actor2_Country": null, "Code": 60, "Class": 2, "Action_Location": "Peace Cross, Maryland, United States", "Lat": 38.9393, "Long": -76.9405, "Timestamp": 20181105221500, "Source": "http://catholicphilly.com/2018/11/news/national-news/high-court-to-consider-if-40-foot-cross-war-memorial-endorses-religion/"}, {"ID": 800257426, "Actor1": "UNITED STATES", "Actor1_Country": "USA", "Actor2": "CHRISTIAN", "Actor2_Country": null, "Code": 122, "Class": 3, "Action_Location": "Peace Cross, Maryland, United States", "Lat": 38.9393, "Long": -76.9405, "Timestamp": 20181105221500, "Source": "http://catholicphilly.com/2018/11/news/national-news/high-court-to-consider-if-40-foot-cross-war-memorial-endorses-religion/"}, {"ID": 800257429, "Actor1": "MARYLAND", "Actor1_Country": "USA", "Actor2": "PRISON", "Actor2_Country": null, "Code": 120, "Class": 3, "Action_Location": "Baltimore, Maryland, United States", "Lat": 39.2904, "Long": -76.6122, "Timestamp": 20181105221500, "Source": "https://www.mysanantonio.com/news/us/article/Judge-to-hear-ex-bishop-s-bid-for-early-release-13363536.php"}, {"ID": 800257430, "Actor1": "UNITED STATES", "Actor1_Country": "USA", "Actor2": "PRISON", "Actor2_Country": null, "Code": 120, "Class": 3, "Action_Location": "Maryland, United States", "Lat": 39.0724, "Long": -76.7902, "Timestamp": 20181105221500, "Source": "https://kristv.com/ap-national-news/2018/11/05/judge-to-hear-ex-bishops-bid-for-early-release-from-prison/"}, {"ID": 800257431, "Actor1": "MARYLAND", "Actor1_Country": "USA", "Actor2": "PRISON", "Actor2_Country": null, "Code": 120, "Class": 3, "Action_Location": "Maryland, United States", "Lat": 39.0724, "Long": -76.7902, "Timestamp": 20181105221500, "Source": "https://kristv.com/ap-national-news/2018/11/05/judge-to-hear-ex-bishops-bid-for-early-release-from-prison/"}, {"ID": 800257438, "Actor1": "LAS VEGAS", "Actor1_Country": "USA", "Actor2": "IMMIGRANT", "Actor2_Country": null, "Code": 10, "Class": 1, "Action_Location": "Alabama, United States", "Lat": 32.799, "Long": -86.8073, "Timestamp": 20181105221500, "Source": "https://www.cbsnews.com/news/reporters-notebook-what-the-midterms-look-like-on-election-eve/"}, {"ID": 800257439, "Actor1": "LAS VEGAS", "Actor1_Country": "USA", "Actor2": "IMMIGRANT", "Actor2_Country": null, "Code": 10, "Class": 1, "Action_Location": "Nevada, United States", "Lat": 38.4199, "Long": -117.122, "Timestamp": 20181105221500, "Source": "https://www.cbsnews.com/news/reporters-notebook-what-the-midterms-look-like-on-election-eve/"}, {"ID": 800257443, "Actor1": "SAN FRANCISCO", "Actor1_Country": "USA", "Actor2": "RESIDENTS", "Actor2_Country": null, "Code": 20, "Class": 1, "Action_Location": "San Francisco, California, United States", "Lat": 37.7749, "Long": -122.419, "Timestamp": 20181105221500, "Source": "https://www.sunherald.com/news/business/article221154240.html"}, {"ID": 800257444, "Actor1": "UNITED STATES", "Actor1_Country": "USA", "Actor2": "VOTER", "Actor2_Country": null, "Code": 22, "Class": 1, "Action_Location": "Morehouse College, Georgia, United States", "Lat": 33.7462, "Long": -84.4151, "Timestamp": 20181105221500, "Source": "https://www.wbir.com/article/news/nation-now/historic-governors-race-in-georgia-now-in-the-hands-of-voters/465-02b5215f-3557-4564-b700-80b542227fb0"}, {"ID": 800257448, "Actor1": "PENNSYLVANIA", "Actor1_Country": "USA", "Actor2": "VOTER", "Actor2_Country": null, "Code": 40, "Class": 1, "Action_Location": "Clarks Summit, Pennsylvania, United States", "Lat": 41.4887, "Long": -75.7085, "Timestamp": 20181105221500, "Source": "https://www.cbsnews.com/news/reporters-notebook-what-the-midterms-look-like-on-election-eve/"}, {"ID": 800257450, "Actor1": "UNITED STATES", "Actor1_Country": "USA", "Actor2": "COMMUNITY", "Actor2_Country": null, "Code": 50, "Class": 1, "Action_Location": "City Of Fernley, Nevada, United States", "Lat": 39.5653, "Long": -119.193, "Timestamp": 20181105221500, "Source": "https://mynews4.com/news/local/fernley-votes-on-fate-of-city-diesel-tax"}, {"ID": 800257484, "Actor1": "UNITED STATES", "Actor1_Country": "USA", "Actor2": "ATTORNEY GENERAL", "Actor2_Country": null, "Code": 22, "Class": 1, "Action_Location": "Cleveland, Ohio, United States", "Lat": 41.4995, "Long": -81.6954, "Timestamp": 20181105221500, "Source": "http://www.theprogressnews.com/news/national/the-latest-trump-urges-voting-gop-to-keep-america-surging/article_aa4f9568-6921-53f7-aab6-47978e86da23.html"}, {"ID": 800257485, "Actor1": "CONNECTICUT", "Actor1_Country": "USA", "Actor2": "PRESIDENT", "Actor2_Country": null, "Code": 30, "Class": 1, "Action_Location": "Connecticut, United States", "Lat": 41.5834, "Long": -72.7622, "Timestamp": 20181105221500, "Source": "https://www.mysanantonio.com/local/article/Murphy-Corey-in-a-quiet-contest-for-U-S-Senate-13364662.php"}, {"ID": 800257486, "Actor1": "UNITED STATES", "Actor1_Country": "USA", "Actor2": "PRESIDENT", "Actor2_Country": null, "Code": 30, "Class": 1, "Action_Location": "North Korea", "Lat": 40.0, "Long": 127.0, "Timestamp": 20181105221500, "Source": "https://www.mysanantonio.com/local/article/Murphy-Corey-in-a-quiet-contest-for-U-S-Senate-13364662.php"}, {"ID": 800257487, "Actor1": "UNITED STATES", "Actor1_Country": "USA", "Actor2": "PRESIDENT", "Actor2_Country": null, "Code": 30, "Class": 1, "Action_Location": "North Korea", "Lat": 40.0, "Long": 127.0, "Timestamp": 20181105221500, "Source": "https://www.mysanantonio.com/local/article/Murphy-Corey-in-a-quiet-contest-for-U-S-Senate-13364662.php"}, {"ID": 800257491, "Actor1": "UNITED STATES", "Actor1_Country": "USA", "Actor2": "GOVERNOR", "Actor2_Country": null, "Code": 51, "Class": 1, "Action_Location": "Cleveland, Ohio, United States", "Lat": 41.4995, "Long": -81.6954, "Timestamp": 20181105221500, "Source": "http://www.theprogressnews.com/news/national/the-latest-trump-urges-voting-gop-to-keep-america-surging/article_aa4f9568-6921-53f7-aab6-47978e86da23.html"}, {"ID": 800257493, "Actor1": "CONNECTICUT", "Actor1_Country": "USA", "Actor2": "PRESIDENT", "Actor2_Country": null, "Code": 51, "Class": 1, "Action_Location": "Connecticut, United States", "Lat": 41.5834, "Long": -72.7622, "Timestamp": 20181105221500, "Source": "https://www.mysanantonio.com/local/article/Murphy-Corey-in-a-quiet-contest-for-U-S-Senate-13364662.php"}, {"ID": 800257494, "Actor1": "UNITED STATES", "Actor1_Country": "USA", "Actor2": "PRESIDENT", "Actor2_Country": null, "Code": 51, "Class": 1, "Action_Location": "North Korea", "Lat": 40.0, "Long": 127.0, "Timestamp": 20181105221500, "Source": "https://www.mysanantonio.com/local/article/Murphy-Corey-in-a-quiet-contest-for-U-S-Senate-13364662.php"}, {"ID": 800257495, "Actor1": "UNITED STATES", "Actor1_Country": "USA", "Actor2": "PRESIDENT", "Actor2_Country": null, "Code": 51, "Class": 1, "Action_Location": "Connecticut, United States", "Lat": 41.5834, "Long": -72.7622, "Timestamp": 20181105221500, "Source": "https://www.mysanantonio.com/local/article/Murphy-Corey-in-a-quiet-contest-for-U-S-Senate-13364662.php"}, {"ID": 800257499, "Actor1": "ATLANTA", "Actor1_Country": "USA", "Actor2": "GOVERNOR", "Actor2_Country": null, "Code": 110, "Class": 3, "Action_Location": "Morehouse College, Georgia, United States", "Lat": 33.7462, "Long": -84.4151, "Timestamp": 20181105221500, "Source": "https://www.wbir.com/article/news/nation-now/historic-governors-race-in-georgia-now-in-the-hands-of-voters/465-02b5215f-3557-4564-b700-80b542227fb0"}, {"ID": 800257511, "Actor1": "UNITED STATES", "Actor1_Country": "USA", "Actor2": "HOSPITAL", "Actor2_Country": null, "Code": 332, "Class": 1, "Action_Location": "Georgia, United States", "Lat": 32.9866, "Long": -83.6487, "Timestamp": 20181105221500, "Source": "https://www.wbir.com/article/news/nation-now/historic-governors-race-in-georgia-now-in-the-hands-of-voters/465-02b5215f-3557-4564-b700-80b542227fb0"}, {"ID": 800257512, "Actor1": "UNITED STATES", "Actor1_Country": "USA", "Actor2": "REGISTERED NURSE", "Actor2_Country": null, "Code": 36, "Class": 1, "Action_Location": "Upper Valley Ambulance, Vermont, United States", "Lat": 43.9065, "Long": -72.1521, "Timestamp": 20181105221500, "Source": "https://www.sfgate.com/news/article/Ambulances-make-house-calls-to-prevent-future-13364647.php"}, {"ID": 800257513, "Actor1": "UNITED STATES", "Actor1_Country": "USA", "Actor2": "REGISTERED NURSE", "Actor2_Country": null, "Code": 36, "Class": 1, "Action_Location": "Piermont, New Hampshire, United States", "Lat": 43.9698, "Long": -72.0806, "Timestamp": 20181105221500, "Source": "https://www.sfgate.com/news/article/Ambulances-make-house-calls-to-prevent-future-13364647.php"}, {"ID": 800257514, "Actor1": "UNITED STATES", "Actor1_Country": "USA", "Actor2": "REGISTERED NURSE", "Actor2_Country": null, "Code": 42, "Class": 1, "Action_Location": "Upper Valley Ambulance, Vermont, United States", "Lat": 43.9065, "Long": -72.1521, "Timestamp": 20181105221500, "Source": "https://www.sfgate.com/news/article/Ambulances-make-house-calls-to-prevent-future-13364647.php"}, {"ID": 800257526, "Actor1": "UNITED STATES", "Actor1_Country": "USA", "Actor2": "JUDGE", "Actor2_Country": null, "Code": 120, "Class": 3, "Action_Location": "Baltimore, Maryland, United States", "Lat": 39.2904, "Long": -76.6122, "Timestamp": 20181105221500, "Source": "https://kristv.com/ap-national-news/2018/11/05/judge-to-hear-ex-bishops-bid-for-early-release-from-prison/"}, {"ID": 800257535, "Actor1": "UNITED STATES", "Actor1_Country": "USA", "Actor2": "SENATE", "Actor2_Country": null, "Code": 13, "Class": 1, "Action_Location": "Pennsylvania, United States", "Lat": 40.5773, "Long": -77.264, "Timestamp": 20181105221500, "Source": "https://www.cbsnews.com/news/reporters-notebook-what-the-midterms-look-like-on-election-eve/"}, {"ID": 800257537, "Actor1": "UNITED STATES", "Actor1_Country": "USA", "Actor2": "LAWMAKER", "Actor2_Country": null, "Code": 20, "Class": 1, "Action_Location": "Virginia, United States", "Lat": 37.768, "Long": -78.2057, "Timestamp": 20181105221500, "Source": "https://www.sunherald.com/news/business/article221152850.html"}, {"ID": 800257552, "Actor1": "UNITED STATES", "Actor1_Country": "USA", "Actor2": "SENATE", "Actor2_Country": null, "Code": 110, "Class": 3, "Action_Location": "Connecticut, United States", "Lat": 41.5834, "Long": -72.7622, "Timestamp": 20181105221500, "Source": "https://www.mysanantonio.com/local/article/Murphy-Corey-in-a-quiet-contest-for-U-S-Senate-13364662.php"}, {"ID": 800257553, "Actor1": "UNITED STATES", "Actor1_Country": "USA", "Actor2": "SENATE", "Actor2_Country": null, "Code": 110, "Class": 3, "Action_Location": "Connecticut, United States", "Lat": 41.5834, "Long": -72.7622, "Timestamp": 20181105221500, "Source": "https://www.mysanantonio.com/local/article/Murphy-Corey-in-a-quiet-contest-for-U-S-Senate-13364662.php"}, {"ID": 800257567, "Actor1": "NEVADA", "Actor1_Country": "USA", "Actor2": "WEBSITE", "Actor2_Country": null, "Code": 84, "Class": 2, "Action_Location": "University Of California San Diego, California, United States", "Lat": 32.877, "Long": -117.241, "Timestamp": 20181105221500, "Source": "https://www.charlotteobserver.com/news/politics-government/national-politics/article221164245.html"}, {"ID": 800257568, "Actor1": "NEVADA", "Actor1_Country": "USA", "Actor2": "WEBSITE", "Actor2_Country": null, "Code": 84, "Class": 2, "Action_Location": "Spain", "Lat": 40.0, "Long": -4.0, "Timestamp": 20181105221500, "Source": "https://www.charlotteobserver.com/news/politics-government/national-politics/article221164245.html"}, {"ID": 800257589, "Actor1": "LAWRENCE", "Actor1_Country": "USA", "Actor2": "PANAMA CITY", "Actor2_Country": "PAN", "Code": 10, "Class": 1, "Action_Location": "Panama City, Panam\u00e1M, Panama", "Lat": 8.96667, "Long": -79.5333, "Timestamp": 20181105221500, "Source": "http://www.newsherald.com/news/20181105/curfew-alcohol-sale-ban-lifted-in-bay-county"}, {"ID": 800257590, "Actor1": "LAWRENCE", "Actor1_Country": "USA", "Actor2": "PANAMA CITY", "Actor2_Country": "PAN", "Code": 813, "Class": 2, "Action_Location": "Panama City, Panam\u00e1M, Panama", "Lat": 8.96667, "Long": -79.5333, "Timestamp": 20181105221500, "Source": "http://www.newsherald.com/news/20181105/curfew-alcohol-sale-ban-lifted-in-bay-county"}, {"ID": 800257602, "Actor1": "UNITED STATES", "Actor1_Country": "USA", "Actor2": "RELIGION", "Actor2_Country": null, "Code": 51, "Class": 1, "Action_Location": "Maryland, United States", "Lat": 39.0724, "Long": -76.7902, "Timestamp": 20181105221500, "Source": "http://catholicphilly.com/2018/11/news/national-news/high-court-to-consider-if-40-foot-cross-war-memorial-endorses-religion/"}, {"ID": 800257603, "Actor1": "UNITED STATES", "Actor1_Country": "USA", "Actor2": "BISHOP", "Actor2_Country": null, "Code": 120, "Class": 3, "Action_Location": "Baltimore, Maryland, United States", "Lat": 39.2904, "Long": -76.6122, "Timestamp": 20181105221500, "Source": "https://www.mysanantonio.com/news/us/article/Judge-to-hear-ex-bishop-s-bid-for-early-release-13363536.php"}, {"ID": 800257604, "Actor1": "UNITED STATES", "Actor1_Country": "USA", "Actor2": "BISHOP", "Actor2_Country": null, "Code": 120, "Class": 3, "Action_Location": "Maryland, United States", "Lat": 39.0724, "Long": -76.7902, "Timestamp": 20181105221500, "Source": "https://www.mysanantonio.com/news/us/article/Judge-to-hear-ex-bishop-s-bid-for-early-release-13363536.php"}, {"ID": 800257605, "Actor1": "MARYLAND", "Actor1_Country": "USA", "Actor2": "BISHOP", "Actor2_Country": null, "Code": 190, "Class": 4, "Action_Location": "Baltimore, Maryland, United States", "Lat": 39.2904, "Long": -76.6122, "Timestamp": 20181105221500, "Source": "https://www.mysanantonio.com/news/us/article/Judge-to-hear-ex-bishop-s-bid-for-early-release-13363536.php"}, {"ID": 800257606, "Actor1": "UNITED STATES", "Actor1_Country": "USA", "Actor2": "BISHOP", "Actor2_Country": null, "Code": 190, "Class": 4, "Action_Location": "Baltimore, Maryland, United States", "Lat": 39.2904, "Long": -76.6122, "Timestamp": 20181105221500, "Source": "https://www.mysanantonio.com/news/us/article/Judge-to-hear-ex-bishop-s-bid-for-early-release-13363536.php"}, {"ID": 800257607, "Actor1": "MARYLAND", "Actor1_Country": "USA", "Actor2": "BISHOP", "Actor2_Country": null, "Code": 190, "Class": 4, "Action_Location": "Baltimore, Maryland, United States", "Lat": 39.2904, "Long": -76.6122, "Timestamp": 20181105221500, "Source": "https://kristv.com/ap-national-news/2018/11/05/judge-to-hear-ex-bishops-bid-for-early-release-from-prison/"}, {"ID": 800257619, "Actor1": "UNITED STATES", "Actor1_Country": "USA", "Actor2": "UNITED STATES", "Actor2_Country": "USA", "Code": 40, "Class": 1, "Action_Location": "Clarks Summit, Pennsylvania, United States", "Lat": 41.4887, "Long": -75.7085, "Timestamp": 20181105221500, "Source": "https://www.cbsnews.com/news/reporters-notebook-what-the-midterms-look-like-on-election-eve/"}, {"ID": 800257620, "Actor1": "UNITED STATES", "Actor1_Country": "USA", "Actor2": "UNITED STATES", "Actor2_Country": "USA", "Code": 40, "Class": 1, "Action_Location": "Pennsylvania, United States", "Lat": 40.5773, "Long": -77.264, "Timestamp": 20181105221500, "Source": "https://www.cbsnews.com/news/reporters-notebook-what-the-midterms-look-like-on-election-eve/"}, {"ID": 800257621, "Actor1": "UNITED STATES", "Actor1_Country": "USA", "Actor2": "UNITED STATES", "Actor2_Country": "USA", "Code": 40, "Class": 1, "Action_Location": "San Antonio, Texas, United States", "Lat": 29.4241, "Long": -98.4936, "Timestamp": 20181105221500, "Source": "https://www.cbsnews.com/news/reporters-notebook-what-the-midterms-look-like-on-election-eve/"}, {"ID": 800257622, "Actor1": "SAN ANTONIO", "Actor1_Country": "USA", "Actor2": "UNITED STATES", "Actor2_Country": "USA", "Code": 40, "Class": 1, "Action_Location": "Miami, Florida, United States", "Lat": 25.7743, "Long": -80.1937, "Timestamp": 20181105221500, "Source": "https://www.cbsnews.com/news/reporters-notebook-what-the-midterms-look-like-on-election-eve/"}, {"ID": 800257623, "Actor1": "UNITED STATES", "Actor1_Country": "USA", "Actor2": "UNITED STATES", "Actor2_Country": "USA", "Code": 40, "Class": 1, "Action_Location": "Clarks Summit, Pennsylvania, United States", "Lat": 41.4887, "Long": -75.7085, "Timestamp": 20181105221500, "Source": "https://www.cbsnews.com/news/reporters-notebook-what-the-midterms-look-like-on-election-eve/"}, {"ID": 800257624, "Actor1": "PENNSYLVANIA", "Actor1_Country": "USA", "Actor2": "UNITED STATES", "Actor2_Country": "USA", "Code": 40, "Class": 1, "Action_Location": "Pennsylvania, United States", "Lat": 40.5773, "Long": -77.264, "Timestamp": 20181105221500, "Source": "https://www.cbsnews.com/news/reporters-notebook-what-the-midterms-look-like-on-election-eve/"}, {"ID": 800257630, "Actor1": "COLUMBUS", "Actor1_Country": "USA", "Actor2": "UNITED STATES", "Actor2_Country": "USA", "Code": 20, "Class": 1, "Action_Location": "Ohio, United States", "Lat": 40.3736, "Long": -82.7755, "Timestamp": 20181105221500, "Source": "http://www.theprogressnews.com/news/national/the-latest-trump-urges-voting-gop-to-keep-america-surging/article_aa4f9568-6921-53f7-aab6-47978e86da23.html"}, {"ID": 800257631, "Actor1": "UNITED STATES", "Actor1_Country": "USA", "Actor2": "UNITED STATES", "Actor2_Country": "USA", "Code": 22, "Class": 1, "Action_Location": "Cleveland, Ohio, United States", "Lat": 41.4995, "Long": -81.6954, "Timestamp": 20181105221500, "Source": "http://www.theprogressnews.com/news/national/the-latest-trump-urges-voting-gop-to-keep-america-surging/article_aa4f9568-6921-53f7-aab6-47978e86da23.html"}, {"ID": 800257633, "Actor1": "ATLANTA", "Actor1_Country": "USA", "Actor2": "UNITED STATES", "Actor2_Country": "USA", "Code": 110, "Class": 3, "Action_Location": "Morehouse College, Georgia, United States", "Lat": 33.7462, "Long": -84.4151, "Timestamp": 20181105221500, "Source": "https://www.wbir.com/article/news/nation-now/historic-governors-race-in-georgia-now-in-the-hands-of-voters/465-02b5215f-3557-4564-b700-80b542227fb0"}, {"ID": 800257635, "Actor1": "UNITED STATES", "Actor1_Country": "USA", "Actor2": "UNITED STATES", "Actor2_Country": "USA", "Code": 120, "Class": 3, "Action_Location": "Baltimore, Maryland, United States", "Lat": 39.2904, "Long": -76.6122, "Timestamp": 20181105221500, "Source": "https://kristv.com/ap-national-news/2018/11/05/judge-to-hear-ex-bishops-bid-for-early-release-from-prison/"}, {"ID": 800257636, "Actor1": "UNITED STATES", "Actor1_Country": "USA", "Actor2": "UNITED STATES", "Actor2_Country": "USA", "Code": 120, "Class": 3, "Action_Location": "Baltimore, Maryland, United States", "Lat": 39.2904, "Long": -76.6122, "Timestamp": 20181105221500, "Source": "https://www.mysanantonio.com/news/us/article/Judge-to-hear-ex-bishop-s-bid-for-early-release-13363536.php"}, {"ID": 800257638, "Actor1": "VIRGINIA", "Actor1_Country": "USA", "Actor2": "UNITED STATES", "Actor2_Country": "USA", "Code": 14, "Class": 1, "Action_Location": "Virginia, United States", "Lat": 37.768, "Long": -78.2057, "Timestamp": 20181105221500, "Source": "https://www.sunherald.com/news/business/article221152850.html"}, {"ID": 800257639, "Actor1": "VIRGINIA", "Actor1_Country": "USA", "Actor2": "UNITED STATES", "Actor2_Country": "USA", "Code": 20, "Class": 1, "Action_Location": "Virginia, United States", "Lat": 37.768, "Long": -78.2057, "Timestamp": 20181105221500, "Source": "https://www.sunherald.com/news/business/article221152850.html"}, {"ID": 800257640, "Actor1": "UNITED STATES", "Actor1_Country": "USA", "Actor2": "WASHINGTON", "Actor2_Country": "USA", "Code": 13, "Class": 1, "Action_Location": "Washington, District of Columbia, United States", "Lat": 38.8951, "Long": -77.0364, "Timestamp": 20181105221500, "Source": "https://www.independent.ie/world-news/iranian-president-warns-of-war-situation-as-us-reimposes-sanctions-37496040.html"}, {"ID": 800257660, "Actor1": "UNITED STATES", "Actor1_Country": "USA", "Actor2": "UNITED STATES", "Actor2_Country": "USA", "Code": 40, "Class": 1, "Action_Location": "Clarks Summit, Pennsylvania, United States", "Lat": 41.4887, "Long": -75.7085, "Timestamp": 20181105221500, "Source": "https://www.cbsnews.com/news/reporters-notebook-what-the-midterms-look-like-on-election-eve/"}, {"ID": 800257661, "Actor1": "UNITED STATES", "Actor1_Country": "USA", "Actor2": "UNITED STATES", "Actor2_Country": "USA", "Code": 40, "Class": 1, "Action_Location": "Clarks Summit, Pennsylvania, United States", "Lat": 41.4887, "Long": -75.7085, "Timestamp": 20181105221500, "Source": "https://www.cbsnews.com/news/reporters-notebook-what-the-midterms-look-like-on-election-eve/"}, {"ID": 800257662, "Actor1": "UNITED STATES", "Actor1_Country": "USA", "Actor2": "UNITED STATES", "Actor2_Country": "USA", "Code": 40, "Class": 1, "Action_Location": "San Antonio, Texas, United States", "Lat": 29.4241, "Long": -98.4936, "Timestamp": 20181105221500, "Source": "https://www.cbsnews.com/news/reporters-notebook-what-the-midterms-look-like-on-election-eve/"}, {"ID": 800257663, "Actor1": "UNITED STATES", "Actor1_Country": "USA", "Actor2": "SAN ANTONIO", "Actor2_Country": "USA", "Code": 40, "Class": 1, "Action_Location": "Miami, Florida, United States", "Lat": 25.7743, "Long": -80.1937, "Timestamp": 20181105221500, "Source": "https://www.cbsnews.com/news/reporters-notebook-what-the-midterms-look-like-on-election-eve/"}, {"ID": 800257664, "Actor1": "UNITED STATES", "Actor1_Country": "USA", "Actor2": "UNITED STATES", "Actor2_Country": "USA", "Code": 40, "Class": 1, "Action_Location": "Pennsylvania, United States", "Lat": 40.5773, "Long": -77.264, "Timestamp": 20181105221500, "Source": "https://www.cbsnews.com/news/reporters-notebook-what-the-midterms-look-like-on-election-eve/"}, {"ID": 800257665, "Actor1": "UNITED STATES", "Actor1_Country": "USA", "Actor2": "PENNSYLVANIA", "Actor2_Country": "USA", "Code": 40, "Class": 1, "Action_Location": "Pennsylvania, United States", "Lat": 40.5773, "Long": -77.264, "Timestamp": 20181105221500, "Source": "https://www.cbsnews.com/news/reporters-notebook-what-the-midterms-look-like-on-election-eve/"}, {"ID": 800257666, "Actor1": "UNITED STATES", "Actor1_Country": "USA", "Actor2": "UNITED STATES", "Actor2_Country": "USA", "Code": 51, "Class": 1, "Action_Location": "Texas, United States", "Lat": 31.106, "Long": -97.6475, "Timestamp": 20181105221500, "Source": "https://www.cbsnews.com/news/reporters-notebook-what-the-midterms-look-like-on-election-eve/"}, {"ID": 800257673, "Actor1": "WISCONSIN", "Actor1_Country": "USA", "Actor2": "UNITED STATES", "Actor2_Country": "USA", "Code": 71, "Class": 2, "Action_Location": "United States", "Lat": 39.828175, "Long": -98.5795, "Timestamp": 20181105221500, "Source": "https://www.thenorthwestern.com/story/news/education/2018/11/05/uw-la-crosse-invites-porn-star-campus-talk-sexuality/1892719002/"}, {"ID": 800257687, "Actor1": "UNITED STATES", "Actor1_Country": "USA", "Actor2": "UNITED STATES", "Actor2_Country": "USA", "Code": 70, "Class": 2, "Action_Location": "Delaware, United States", "Lat": 39.3498, "Long": -75.5148, "Timestamp": 20181105221500, "Source": "https://www.sfgate.com/news/article/No-wrongdoing-by-committee-formed-by-Senate-13364651.php"}, {"ID": 800257690, "Actor1": "UNITED STATES", "Actor1_Country": "USA", "Actor2": "UNITED STATES", "Actor2_Country": "USA", "Code": 141, "Class": 3, "Action_Location": "Montana, United States", "Lat": 46.9048, "Long": -110.326, "Timestamp": 20181105221500, "Source": "https://www.greenwichtime.com/news/article/The-Latest-Pence-plugs-Rosendale-Tester-touts-13364669.php"}, {"ID": 800257692, "Actor1": "UNITED STATES", "Actor1_Country": "USA", "Actor2": "WASHINGTON", "Actor2_Country": "USA", "Code": 13, "Class": 1, "Action_Location": "Washington, District of Columbia, United States", "Lat": 38.8951, "Long": -77.0364, "Timestamp": 20181105221500, "Source": "https://www.independent.ie/world-news/iranian-president-warns-of-war-situation-as-us-reimposes-sanctions-37496040.html"}, {"ID": 800257699, "Actor1": "MARYLAND", "Actor1_Country": "USA", "Actor2": "PRISON", "Actor2_Country": null, "Code": 120, "Class": 3, "Action_Location": "Maryland, United States", "Lat": 39.0724, "Long": -76.7902, "Timestamp": 20181105221500, "Source": "https://www.mysanantonio.com/news/us/article/Judge-to-hear-ex-bishop-s-bid-for-early-release-13363536.php"}, {"ID": 800257704, "Actor1": "MARYLAND", "Actor1_Country": "USA", "Actor2": "BISHOP", "Actor2_Country": null, "Code": 190, "Class": 4, "Action_Location": "Baltimore, Maryland, United States", "Lat": 39.2904, "Long": -76.6122, "Timestamp": 20181105221500, "Source": "https://www.mysanantonio.com/news/us/article/Judge-to-hear-ex-bishop-s-bid-for-early-release-13363536.php"}, {"ID": 800257732, "Actor1": "VENEZUELAN", "Actor1_Country": "VEN", "Actor2": "COLOMBIAN", "Actor2_Country": "COL", "Code": 40, "Class": 1, "Action_Location": "Florida, United States", "Lat": 27.8333, "Long": -81.717, "Timestamp": 20181105221500, "Source": "https://www.cbsnews.com/news/reporters-notebook-what-the-midterms-look-like-on-election-eve/"}, {"ID": 800257733, "Actor1": "VENEZUELAN", "Actor1_Country": "VEN", "Actor2": "COLOMBIAN", "Actor2_Country": "COL", "Code": 40, "Class": 1, "Action_Location": "Cuba", "Lat": 22.0, "Long": -79.5, "Timestamp": 20181105221500, "Source": "https://www.cbsnews.com/news/reporters-notebook-what-the-midterms-look-like-on-election-eve/"}, {"ID": 800257734, "Actor1": "VENEZUELAN", "Actor1_Country": "VEN", "Actor2": "UNITED STATES", "Actor2_Country": "USA", "Code": 51, "Class": 1, "Action_Location": "Pennsylvania, United States", "Lat": 40.5773, "Long": -77.264, "Timestamp": 20181105221500, "Source": "https://www.cbsnews.com/news/reporters-notebook-what-the-midterms-look-like-on-election-eve/"}, {"ID": 800257735, "Actor1": "VENEZUELAN", "Actor1_Country": "VEN", "Actor2": "UNITED STATES", "Actor2_Country": "USA", "Code": 51, "Class": 1, "Action_Location": "Pennsylvania, United States", "Lat": 40.5773, "Long": -77.264, "Timestamp": 20181105221500, "Source": "https://www.cbsnews.com/news/reporters-notebook-what-the-midterms-look-like-on-election-eve/"}, {"ID": 800257736, "Actor1": "VENEZUELA", "Actor1_Country": "VEN", "Actor2": "COLOMBIA", "Actor2_Country": "COL", "Code": 40, "Class": 1, "Action_Location": "Cuba", "Lat": 22.0, "Long": -79.5, "Timestamp": 20181105221500, "Source": "https://www.cbsnews.com/news/reporters-notebook-what-the-midterms-look-like-on-election-eve/"}, {"ID": 800257737, "Actor1": "VENEZUELAN", "Actor1_Country": "VEN", "Actor2": "COLOMBIAN", "Actor2_Country": "COL", "Code": 40, "Class": 1, "Action_Location": "Cuba", "Lat": 22.0, "Long": -79.5, "Timestamp": 20181105221500, "Source": "https://www.cbsnews.com/news/reporters-notebook-what-the-midterms-look-like-on-election-eve/"}, {"ID": 800257741, "Actor1": "YEMEN", "Actor1_Country": "YEM", "Actor2": "GOVERNMENT", "Actor2_Country": null, "Code": 42, "Class": 1, "Action_Location": "Hodeida, Al ?udaydah, Yemen", "Lat": 14.7978, "Long": 42.9545, "Timestamp": 20181105221500, "Source": "http://www.arabnews.com/node/1399656/middle-east"}, {"ID": 800257742, "Actor1": "YEMEN", "Actor1_Country": "YEM", "Actor2": "SAUDI ARABIA", "Actor2_Country": "SAU", "Code": 194, "Class": 4, "Action_Location": "Jeddah, Makkah, Saudi Arabia", "Lat": 21.5169, "Long": 39.2192, "Timestamp": 20181105221500, "Source": "http://www.arabnews.com/node/1399656/middle-east"}, {"ID": 800257743, "Actor1": "YEMEN", "Actor1_Country": "YEM", "Actor2": "SAUDI ARABIA", "Actor2_Country": "SAU", "Code": 194, "Class": 4, "Action_Location": "United Kingdom", "Lat": 54.0, "Long": -4.0, "Timestamp": 20181105221500, "Source": "http://www.arabnews.com/node/1399656/middle-east"}]