[{"ID": 800060828, "Actor1": "PRIME MINSTER", "Actor1_Country": null, "Actor2": "CHINESE", "Actor2_Country": "CHN", "Code": 841, "Class": 2, "Action_Location": "Lu Kang, Anhui, China", "Lat": 31.2728, "Long": 118.337, "Timestamp": 20181105053000, "Source": "https://www.scnow.com/news/headlines/article_f8dbd4f4-9bab-5b9f-ab9c-1a18aa738ca7.html"}, {"ID": 800060829, "Actor1": "PRIME MINSTER", "Actor1_Country": null, "Actor2": "CHINESE", "Actor2_Country": "CHN", "Code": 841, "Class": 2, "Action_Location": "New Delhi, Delhi, India", "Lat": 28.6, "Long": 77.2, "Timestamp": 20181105053000, "Source": "https://www.chron.com/news/world/article/Rivals-China-India-cautiously-watch-Sri-Lankan-13362617.php"}, {"ID": 800060830, "Actor1": "PRIME MINSTER", "Actor1_Country": null, "Actor2": "CHINESE", "Actor2_Country": "CHN", "Code": 841, "Class": 2, "Action_Location": "Lu Kang, Anhui, China", "Lat": 31.2728, "Long": 118.337, "Timestamp": 20181105053000, "Source": "https://www.chron.com/news/world/article/Rivals-China-India-cautiously-watch-Sri-Lankan-13362617.php"}, {"ID": 800061001, "Actor1": "AFGHANISTAN", "Actor1_Country": "AFG", "Actor2": "UTAH", "Actor2_Country": "USA", "Code": 154, "Class": 4, "Action_Location": "Afghanistan", "Lat": 33.0, "Long": 66.0, "Timestamp": 20181105053000, "Source": "http://www.rep-am.com/news/national/2018/11/04/utah-mayor-guard-member-killed-by-trainee-in-afghanistan/"}, {"ID": 800061004, "Actor1": "AFGHANISTAN", "Actor1_Country": "AFG", "Actor2": "UTAH", "Actor2_Country": "USA", "Code": 154, "Class": 4, "Action_Location": "Afghanistan", "Lat": 33.0, "Long": 66.0, "Timestamp": 20181105053000, "Source": "http://www.rep-am.com/news/national/2018/11/04/utah-mayor-guard-member-killed-by-trainee-in-afghanistan/"}, {"ID": 800061034, "Actor1": "ARGENTINA", "Actor1_Country": "ARG", "Actor2": "ARGENTINA", "Actor2_Country": "ARG", "Code": 141, "Class": 3, "Action_Location": "Buenos Aires, Distrito Federal, Argentina", "Lat": -34.5875, "Long": -58.6725, "Timestamp": 20181105053000, "Source": "https://www.greenwichtime.com/news/crime/article/Argentina-s-Fernandez-still-inspires-loyalty-13362626.php"}, {"ID": 800061036, "Actor1": "ARGENTINA", "Actor1_Country": "ARG", "Actor2": "ARGENTINA", "Actor2_Country": "ARG", "Code": 141, "Class": 3, "Action_Location": "La Nacion, Chaco, Argentina", "Lat": -24.6, "Long": -62.1333, "Timestamp": 20181105053000, "Source": "https://www.greenwichtime.com/news/crime/article/Argentina-s-Fernandez-still-inspires-loyalty-13362626.php"}, {"ID": 800061038, "Actor1": "ARGENTINA", "Actor1_Country": "ARG", "Actor2": "PRISON", "Actor2_Country": null, "Code": 25, "Class": 1, "Action_Location": "La Nacion, Chaco, Argentina", "Lat": -24.6, "Long": -62.1333, "Timestamp": 20181105053000, "Source": "https://www.greenwichtime.com/news/crime/article/Argentina-s-Fernandez-still-inspires-loyalty-13362626.php"}, {"ID": 800061039, "Actor1": "ARGENTINE", "Actor1_Country": "ARG", "Actor2": "PRESIDENT", "Actor2_Country": null, "Code": 173, "Class": 4, "Action_Location": "Buenos Aires, Distrito Federal, Argentina", "Lat": -34.5875, "Long": -58.6725, "Timestamp": 20181105053000, "Source": "https://www.greenwichtime.com/news/crime/article/Argentina-s-Fernandez-still-inspires-loyalty-13362626.php"}, {"ID": 800061040, "Actor1": "ARGENTINE", "Actor1_Country": "ARG", "Actor2": "PROSECUTOR", "Actor2_Country": null, "Code": 112, "Class": 3, "Action_Location": "Buenos Aires, Distrito Federal, Argentina", "Lat": -34.5875, "Long": -58.6725, "Timestamp": 20181105053000, "Source": "https://www.greenwichtime.com/news/crime/article/Argentina-s-Fernandez-still-inspires-loyalty-13362626.php"}, {"ID": 800061177, "Actor1": "CHINA", "Actor1_Country": "CHN", "Actor2": "DIPLOMAT", "Actor2_Country": null, "Code": 161, "Class": 4, "Action_Location": "New Delhi, Delhi, India", "Lat": 28.6, "Long": 77.2, "Timestamp": 20181105053000, "Source": "https://www.scnow.com/news/headlines/article_f8dbd4f4-9bab-5b9f-ab9c-1a18aa738ca7.html"}, {"ID": 800061178, "Actor1": "CHINA", "Actor1_Country": "CHN", "Actor2": "DIPLOMAT", "Actor2_Country": null, "Code": 161, "Class": 4, "Action_Location": "Colombo, Western, Sri Lanka", "Lat": 6.93194, "Long": 79.8478, "Timestamp": 20181105053000, "Source": "https://www.chron.com/news/world/article/Rivals-China-India-cautiously-watch-Sri-Lankan-13362617.php"}, {"ID": 800061179, "Actor1": "CHINA", "Actor1_Country": "CHN", "Actor2": "DIPLOMAT", "Actor2_Country": null, "Code": 161, "Class": 4, "Action_Location": "Beijing, Beijing, China", "Lat": 39.9289, "Long": 116.388, "Timestamp": 20181105053000, "Source": "https://www.chron.com/news/world/article/Rivals-China-India-cautiously-watch-Sri-Lankan-13362617.php"}, {"ID": 800061184, "Actor1": "CHINA", "Actor1_Country": "CHN", "Actor2": "COLOMBO", "Actor2_Country": "LKA", "Code": 40, "Class": 1, "Action_Location": "Beijing, Beijing, China", "Lat": 39.9289, "Long": 116.388, "Timestamp": 20181105053000, "Source": "https://www.scnow.com/news/headlines/article_f8dbd4f4-9bab-5b9f-ab9c-1a18aa738ca7.html"}, {"ID": 800061185, "Actor1": "CHINA", "Actor1_Country": "CHN", "Actor2": "COLOMBO", "Actor2_Country": "LKA", "Code": 40, "Class": 1, "Action_Location": "Colombo, Western, Sri Lanka", "Lat": 6.93194, "Long": 79.8478, "Timestamp": 20181105053000, "Source": "https://www.chron.com/news/world/article/Rivals-China-India-cautiously-watch-Sri-Lankan-13362617.php"}, {"ID": 800061186, "Actor1": "CHINA", "Actor1_Country": "CHN", "Actor2": "COLOMBO", "Actor2_Country": "LKA", "Code": 40, "Class": 1, "Action_Location": "Lu Kang, Anhui, China", "Lat": 31.2728, "Long": 118.337, "Timestamp": 20181105053000, "Source": "https://www.chron.com/news/world/article/Rivals-China-India-cautiously-watch-Sri-Lankan-13362617.php"}, {"ID": 800061187, "Actor1": "CHINESE", "Actor1_Country": "CHN", "Actor2": "COLOMBO", "Actor2_Country": "LKA", "Code": 71, "Class": 2, "Action_Location": "Lu Kang, Anhui, China", "Lat": 31.2728, "Long": 118.337, "Timestamp": 20181105053000, "Source": "https://www.chron.com/news/world/article/Rivals-China-India-cautiously-watch-Sri-Lankan-13362617.php"}, {"ID": 800061188, "Actor1": "CHINESE", "Actor1_Country": "CHN", "Actor2": "COLOMBO", "Actor2_Country": "LKA", "Code": 71, "Class": 2, "Action_Location": "Lu Kang, Anhui, China", "Lat": 31.2728, "Long": 118.337, "Timestamp": 20181105053000, "Source": "https://www.chron.com/news/world/article/Rivals-China-India-cautiously-watch-Sri-Lankan-13362617.php"}, {"ID": 800061189, "Actor1": "CHINA", "Actor1_Country": "CHN", "Actor2": "SRI LANKAN", "Actor2_Country": "LKA", "Code": 90, "Class": 2, "Action_Location": "Lu Kang, Anhui, China", "Lat": 31.2728, "Long": 118.337, "Timestamp": 20181105053000, "Source": "https://www.chron.com/news/world/article/Rivals-China-India-cautiously-watch-Sri-Lankan-13362617.php"}, {"ID": 800061190, "Actor1": "CHINA", "Actor1_Country": "CHN", "Actor2": "SRI LANKAN", "Actor2_Country": "LKA", "Code": 90, "Class": 2, "Action_Location": "New Delhi, Delhi, India", "Lat": 28.6, "Long": 77.2, "Timestamp": 20181105053000, "Source": "https://www.scnow.com/news/headlines/article_f8dbd4f4-9bab-5b9f-ab9c-1a18aa738ca7.html"}, {"ID": 800061191, "Actor1": "CHINA", "Actor1_Country": "CHN", "Actor2": "SRI LANKAN", "Actor2_Country": "LKA", "Code": 90, "Class": 2, "Action_Location": "Colombo, Western, Sri Lanka", "Lat": 6.93194, "Long": 79.8478, "Timestamp": 20181105053000, "Source": "https://www.chron.com/news/world/article/Rivals-China-India-cautiously-watch-Sri-Lankan-13362617.php"}, {"ID": 800061192, "Actor1": "CHINA", "Actor1_Country": "CHN", "Actor2": "SRI LANKAN", "Actor2_Country": "LKA", "Code": 1014, "Class": 3, "Action_Location": "Colombo, Western, Sri Lanka", "Lat": 6.93194, "Long": 79.8478, "Timestamp": 20181105053000, "Source": "https://www.chron.com/news/world/article/Rivals-China-India-cautiously-watch-Sri-Lankan-13362617.php"}, {"ID": 800061193, "Actor1": "CHINA", "Actor1_Country": "CHN", "Actor2": "SRI LANKAN", "Actor2_Country": "LKA", "Code": 1014, "Class": 3, "Action_Location": "Lu Kang, Anhui, China", "Lat": 31.2728, "Long": 118.337, "Timestamp": 20181105053000, "Source": "https://www.scnow.com/news/headlines/article_f8dbd4f4-9bab-5b9f-ab9c-1a18aa738ca7.html"}, {"ID": 800061194, "Actor1": "CHINA", "Actor1_Country": "CHN", "Actor2": "SRI LANKAN", "Actor2_Country": "LKA", "Code": 1014, "Class": 3, "Action_Location": "Lu Kang, Anhui, China", "Lat": 31.2728, "Long": 118.337, "Timestamp": 20181105053000, "Source": "https://www.chron.com/news/world/article/Rivals-China-India-cautiously-watch-Sri-Lankan-13362617.php"}, {"ID": 800061195, "Actor1": "CHINA", "Actor1_Country": "CHN", "Actor2": "SRI LANKAN", "Actor2_Country": "LKA", "Code": 129, "Class": 3, "Action_Location": "Lu Kang, Anhui, China", "Lat": 31.2728, "Long": 118.337, "Timestamp": 20181105053000, "Source": "https://www.chron.com/news/world/article/Rivals-China-India-cautiously-watch-Sri-Lankan-13362617.php"}, {"ID": 800061196, "Actor1": "CHINA", "Actor1_Country": "CHN", "Actor2": "SRI LANKAN", "Actor2_Country": "LKA", "Code": 129, "Class": 3, "Action_Location": "New Delhi, Delhi, India", "Lat": 28.6, "Long": 77.2, "Timestamp": 20181105053000, "Source": "https://www.scnow.com/news/headlines/article_f8dbd4f4-9bab-5b9f-ab9c-1a18aa738ca7.html"}, {"ID": 800061197, "Actor1": "CHINA", "Actor1_Country": "CHN", "Actor2": "SRI LANKAN", "Actor2_Country": "LKA", "Code": 129, "Class": 3, "Action_Location": "Colombo, Western, Sri Lanka", "Lat": 6.93194, "Long": 79.8478, "Timestamp": 20181105053000, "Source": "https://www.chron.com/news/world/article/Rivals-China-India-cautiously-watch-Sri-Lankan-13362617.php"}, {"ID": 800061198, "Actor1": "CHINA", "Actor1_Country": "CHN", "Actor2": "SRI LANKAN", "Actor2_Country": "LKA", "Code": 90, "Class": 2, "Action_Location": "Lu Kang, Anhui, China", "Lat": 31.2728, "Long": 118.337, "Timestamp": 20181105053000, "Source": "https://www.chron.com/news/world/article/Rivals-China-India-cautiously-watch-Sri-Lankan-13362617.php"}, {"ID": 800061199, "Actor1": "CHINA", "Actor1_Country": "CHN", "Actor2": "SRI LANKAN", "Actor2_Country": "LKA", "Code": 94, "Class": 2, "Action_Location": "Colombo, Western, Sri Lanka", "Lat": 6.93194, "Long": 79.8478, "Timestamp": 20181105053000, "Source": "https://www.chron.com/news/world/article/Rivals-China-India-cautiously-watch-Sri-Lankan-13362617.php"}, {"ID": 800061200, "Actor1": "CHINA", "Actor1_Country": "CHN", "Actor2": "SRI LANKA", "Actor2_Country": "LKA", "Code": 94, "Class": 2, "Action_Location": "Lu Kang, Anhui, China", "Lat": 31.2728, "Long": 118.337, "Timestamp": 20181105053000, "Source": "https://www.scnow.com/news/headlines/article_f8dbd4f4-9bab-5b9f-ab9c-1a18aa738ca7.html"}, {"ID": 800061201, "Actor1": "CHINA", "Actor1_Country": "CHN", "Actor2": "SRI LANKA", "Actor2_Country": "LKA", "Code": 94, "Class": 2, "Action_Location": "Lu Kang, Anhui, China", "Lat": 31.2728, "Long": 118.337, "Timestamp": 20181105053000, "Source": "https://www.chron.com/news/world/article/Rivals-China-India-cautiously-watch-Sri-Lankan-13362617.php"}, {"ID": 800061202, "Actor1": "CHINA", "Actor1_Country": "CHN", "Actor2": "SRI LANKAN", "Actor2_Country": "LKA", "Code": 1014, "Class": 3, "Action_Location": "Colombo, Western, Sri Lanka", "Lat": 6.93194, "Long": 79.8478, "Timestamp": 20181105053000, "Source": "https://www.chron.com/news/world/article/Rivals-China-India-cautiously-watch-Sri-Lankan-13362617.php"}, {"ID": 800061203, "Actor1": "CHINA", "Actor1_Country": "CHN", "Actor2": "SRI LANKAN", "Actor2_Country": "LKA", "Code": 129, "Class": 3, "Action_Location": "Lu Kang, Anhui, China", "Lat": 31.2728, "Long": 118.337, "Timestamp": 20181105053000, "Source": "https://www.chron.com/news/world/article/Rivals-China-India-cautiously-watch-Sri-Lankan-13362617.php"}, {"ID": 800061204, "Actor1": "CHINESE", "Actor1_Country": "CHN", "Actor2": "SPOKESMAN", "Actor2_Country": null, "Code": 40, "Class": 1, "Action_Location": "Lu Kang, Anhui, China", "Lat": 31.2728, "Long": 118.337, "Timestamp": 20181105053000, "Source": "https://www.chron.com/news/world/article/Rivals-China-India-cautiously-watch-Sri-Lankan-13362617.php"}, {"ID": 800061205, "Actor1": "CHINESE", "Actor1_Country": "CHN", "Actor2": "SPOKESMAN", "Actor2_Country": null, "Code": 40, "Class": 1, "Action_Location": "Temple Trees, Western, Sri Lanka", "Lat": 6.9149, "Long": 79.8477, "Timestamp": 20181105053000, "Source": "https://www.chron.com/news/world/article/Rivals-China-India-cautiously-watch-Sri-Lankan-13362617.php"}, {"ID": 800061211, "Actor1": "CHINA", "Actor1_Country": "CHN", "Actor2": "PAKISTAN", "Actor2_Country": "PAK", "Code": 43, "Class": 1, "Action_Location": "Beijing, Beijing, China", "Lat": 39.9289, "Long": 116.388, "Timestamp": 20181105053000, "Source": "https://southasiamonitor.org/news/khan-s-visit-boosts-china-pak-ties/inthenews/28385"}, {"ID": 800061232, "Actor1": "CHINA", "Actor1_Country": "CHN", "Actor2": "SRI LANKA", "Actor2_Country": "LKA", "Code": 51, "Class": 1, "Action_Location": "Temple Trees, Western, Sri Lanka", "Lat": 6.9149, "Long": 79.8477, "Timestamp": 20181105053000, "Source": "https://www.chron.com/news/world/article/Rivals-China-India-cautiously-watch-Sri-Lankan-13362617.php"}, {"ID": 800061233, "Actor1": "CHINA", "Actor1_Country": "CHN", "Actor2": "SRI LANKA", "Actor2_Country": "LKA", "Code": 51, "Class": 1, "Action_Location": "Temple Trees, Western, Sri Lanka", "Lat": 6.9149, "Long": 79.8477, "Timestamp": 20181105053000, "Source": "https://www.chron.com/news/world/article/Rivals-China-India-cautiously-watch-Sri-Lankan-13362617.php"}, {"ID": 800061234, "Actor1": "ROMAN CATHOLIC", "Actor1_Country": null, "Actor2": "SAINT", "Actor2_Country": null, "Code": 42, "Class": 1, "Action_Location": "Port-Au-Prince, Ouest, Haiti", "Lat": 18.5392, "Long": -72.335, "Timestamp": 20181105053000, "Source": "https://www.sfgate.com/news/world/article/AP-PHOTOS-Haitians-celebrate-Festival-of-the-Dead-13362630.php"}, {"ID": 800061235, "Actor1": "ROMAN CATHOLIC", "Actor1_Country": null, "Actor2": "SAINT", "Actor2_Country": null, "Code": 42, "Class": 1, "Action_Location": "Port-Au-Prince, Ouest, Haiti", "Lat": 18.5392, "Long": -72.335, "Timestamp": 20181105053000, "Source": "https://www.sfgate.com/news/world/article/AP-PHOTOS-Haitians-celebrate-Festival-of-the-Dead-13362630.php"}, {"ID": 800061236, "Actor1": "ROMAN CATHOLIC", "Actor1_Country": null, "Actor2": "SAINT", "Actor2_Country": null, "Code": 42, "Class": 1, "Action_Location": "Cite Soleil, Ouest, Haiti", "Lat": 18.5803, "Long": -72.3381, "Timestamp": 20181105053000, "Source": "https://www.sfgate.com/news/world/article/AP-PHOTOS-Haitians-celebrate-Festival-of-the-Dead-13362630.php"}, {"ID": 800061268, "Actor1": "POLICE", "Actor1_Country": null, "Actor2": "UNITED STATES", "Actor2_Country": "USA", "Code": 42, "Class": 1, "Action_Location": "Atlanta, Georgia, United States", "Lat": 33.749, "Long": -84.388, "Timestamp": 20181105053000, "Source": "https://www.fox10tv.com/news/us_world_news/dna-of-suspect-s-family-member-used-to-solve-murder/article_8e4545b5-b9e2-589e-b782-715b36a7908f.html"}, {"ID": 800061269, "Actor1": "POLICE", "Actor1_Country": null, "Actor2": "UNITED STATES", "Actor2_Country": "USA", "Code": 42, "Class": 1, "Action_Location": "Atlanta, Georgia, United States", "Lat": 33.749, "Long": -84.388, "Timestamp": 20181105053000, "Source": "https://www.fox10tv.com/news/us_world_news/dna-of-suspect-s-family-member-used-to-solve-murder/article_8e4545b5-b9e2-589e-b782-715b36a7908f.html"}, {"ID": 800061270, "Actor1": "POLICE", "Actor1_Country": null, "Actor2": "ALABAMA", "Actor2_Country": "USA", "Code": 42, "Class": 1, "Action_Location": "Alabama, United States", "Lat": 32.799, "Long": -86.8073, "Timestamp": 20181105053000, "Source": "https://www.fox10tv.com/news/us_world_news/dna-of-suspect-s-family-member-used-to-solve-murder/article_8e4545b5-b9e2-589e-b782-715b36a7908f.html"}, {"ID": 800061271, "Actor1": "PRISON", "Actor1_Country": null, "Actor2": "UNITED STATES", "Actor2_Country": "USA", "Code": 42, "Class": 1, "Action_Location": "North Carolina, United States", "Lat": 35.6411, "Long": -79.8431, "Timestamp": 20181105053000, "Source": "https://www.geekgirlauthority.com/outlander-season-premiere-recap-s04e01-america-beautiful/"}, {"ID": 800061275, "Actor1": "POLICE", "Actor1_Country": null, "Actor2": "UNITED STATES", "Actor2_Country": "USA", "Code": 190, "Class": 4, "Action_Location": "Atlanta, Georgia, United States", "Lat": 33.749, "Long": -84.388, "Timestamp": 20181105053000, "Source": "https://www.fox10tv.com/news/us_world_news/dna-of-suspect-s-family-member-used-to-solve-murder/article_8e4545b5-b9e2-589e-b782-715b36a7908f.html"}, {"ID": 800061276, "Actor1": "POLICE", "Actor1_Country": null, "Actor2": "UNITED STATES", "Actor2_Country": "USA", "Code": 190, "Class": 4, "Action_Location": "Alabama, United States", "Lat": 32.799, "Long": -86.8073, "Timestamp": 20181105053000, "Source": "https://www.fox10tv.com/news/us_world_news/dna-of-suspect-s-family-member-used-to-solve-murder/article_8e4545b5-b9e2-589e-b782-715b36a7908f.html"}, {"ID": 800061287, "Actor1": "CUBAN", "Actor1_Country": "CUB", "Actor2": "DPRK", "Actor2_Country": "PRK", "Code": 46, "Class": 1, "Action_Location": "Cuba", "Lat": 22.0, "Long": -79.5, "Timestamp": 20181105053000, "Source": "http://www.xinhuanet.com/english/2018-11/05/c_137582787.htm"}, {"ID": 800061357, "Actor1": "RETIRED", "Actor1_Country": null, "Actor2": "AMERICAN", "Actor2_Country": "USA", "Code": 13, "Class": 1, "Action_Location": "Ohio, United States", "Lat": 40.3736, "Long": -82.7755, "Timestamp": 20181105053000, "Source": "https://www.chron.com/news/article/Museum-offers-free-admission-to-veterans-after-13362632.php"}, {"ID": 800061358, "Actor1": "RETIRED", "Actor1_Country": null, "Actor2": "AMERICAN", "Actor2_Country": "USA", "Code": 13, "Class": 1, "Action_Location": "Ohio, United States", "Lat": 40.3736, "Long": -82.7755, "Timestamp": 20181105053000, "Source": "https://www.chron.com/news/article/Museum-offers-free-admission-to-veterans-after-13362632.php"}, {"ID": 800061391, "Actor1": "UNITED KINGDOM", "Actor1_Country": "GBR", "Actor2": "THE US", "Actor2_Country": "USA", "Code": 36, "Class": 1, "Action_Location": "United Kingdom", "Lat": 54.0, "Long": -4.0, "Timestamp": 20181105053000, "Source": "https://www.forexcrunch.com/gbp-usd-weakening-from-1-3000-as-brexit-headlines-fail-to-keep-bulls-on-track/"}, {"ID": 800061424, "Actor1": "PRESIDENT", "Actor1_Country": null, "Actor2": "ARGENTINA", "Actor2_Country": "ARG", "Code": 51, "Class": 1, "Action_Location": "Buenos Aires, Distrito Federal, Argentina", "Lat": -34.5875, "Long": -58.6725, "Timestamp": 20181105053000, "Source": "https://www.greenwichtime.com/news/crime/article/Argentina-s-Fernandez-still-inspires-loyalty-13362626.php"}, {"ID": 800061425, "Actor1": "PRESIDENT", "Actor1_Country": null, "Actor2": "ARGENTINA", "Actor2_Country": "ARG", "Code": 141, "Class": 3, "Action_Location": "Buenos Aires, Distrito Federal, Argentina", "Lat": -34.5875, "Long": -58.6725, "Timestamp": 20181105053000, "Source": "https://www.greenwichtime.com/news/crime/article/Argentina-s-Fernandez-still-inspires-loyalty-13362626.php"}, {"ID": 800061434, "Actor1": "PRESIDENT", "Actor1_Country": null, "Actor2": "PRISON", "Actor2_Country": null, "Code": 25, "Class": 1, "Action_Location": "La Nacion, Chaco, Argentina", "Lat": -24.6, "Long": -62.1333, "Timestamp": 20181105053000, "Source": "https://www.greenwichtime.com/news/crime/article/Argentina-s-Fernandez-still-inspires-loyalty-13362626.php"}, {"ID": 800061457, "Actor1": "PRESIDENT", "Actor1_Country": null, "Actor2": "IRAN", "Actor2_Country": "IRN", "Code": 356, "Class": 1, "Action_Location": "Washington, District of Columbia, United States", "Lat": 38.8951, "Long": -77.0364, "Timestamp": 20181105053000, "Source": "https://sputniknews.com/middleeast/201811051069507088-usa-iran-sanctions-take-effect-monday/"}, {"ID": 800061464, "Actor1": "FOREIGN MINIST", "Actor1_Country": null, "Actor2": "NEWS AGENCY", "Actor2_Country": null, "Code": 10, "Class": 1, "Action_Location": "Pyongyang, P'yongyang-si, North Korea", "Lat": 39.0194, "Long": 125.755, "Timestamp": 20181105053000, "Source": "http://www.arabnews.com/node/1399366/world"}, {"ID": 800061465, "Actor1": "PRIME MINISTER", "Actor1_Country": null, "Actor2": "PAKISTAN", "Actor2_Country": "PAK", "Code": 42, "Class": 1, "Action_Location": "Russia", "Lat": 60.0, "Long": 100.0, "Timestamp": 20181105053000, "Source": "http://www.arabnews.com/node/1399336/business-economy"}, {"ID": 800061467, "Actor1": "PRIME MINISTER", "Actor1_Country": null, "Actor2": "PAKISTAN", "Actor2_Country": "PAK", "Code": 42, "Class": 1, "Action_Location": "Russia", "Lat": 60.0, "Long": 100.0, "Timestamp": 20181105053000, "Source": "http://www.arabnews.com/node/1399336/business-economy"}, {"ID": 800061471, "Actor1": "PRIME MINISTER", "Actor1_Country": null, "Actor2": "RUSSIA", "Actor2_Country": "RUS", "Code": 42, "Class": 1, "Action_Location": "Beijing, Beijing, China", "Lat": 39.9289, "Long": 116.388, "Timestamp": 20181105053000, "Source": "http://www.arabnews.com/node/1399336/business-economy"}, {"ID": 800061472, "Actor1": "PRIME MINISTER", "Actor1_Country": null, "Actor2": "RUSSIA", "Actor2_Country": "RUS", "Code": 42, "Class": 1, "Action_Location": "Russia", "Lat": 60.0, "Long": 100.0, "Timestamp": 20181105053000, "Source": "http://www.arabnews.com/node/1399336/business-economy"}, {"ID": 800061474, "Actor1": "PRINCE", "Actor1_Country": null, "Actor2": "SAUDI ARABIA", "Actor2_Country": "SAU", "Code": 190, "Class": 4, "Action_Location": "Riyadh, Ar Riya?, Saudi Arabia", "Lat": 24.6408, "Long": 46.7728, "Timestamp": 20181105053000, "Source": "https://www.thecitizen.in/index.php/en/NewsDetail/index/6/15448/A-Royal-Reshuffle"}, {"ID": 800061476, "Actor1": "MINIST", "Actor1_Country": null, "Actor2": "TURKEY", "Actor2_Country": "TUR", "Code": 163, "Class": 4, "Action_Location": "Turkey", "Lat": 39.059012, "Long": 34.911546, "Timestamp": 20181105053000, "Source": "https://sputniknews.com/middleeast/201811051069507088-usa-iran-sanctions-take-effect-monday/"}, {"ID": 800061498, "Actor1": "ADMINISTRATION", "Actor1_Country": null, "Actor2": "BARACK OBAMA", "Actor2_Country": "USA", "Code": 36, "Class": 1, "Action_Location": "Tehran, Tehran, Iran", "Lat": 35.75, "Long": 51.5148, "Timestamp": 20181105053000, "Source": "https://finance.yahoo.com/news/u-ratchets-pressure-iran-resumption-050100713.html"}, {"ID": 800061510, "Actor1": "FOREIGN MINIST", "Actor1_Country": null, "Actor2": "UNITED STATES", "Actor2_Country": "USA", "Code": 10, "Class": 1, "Action_Location": "Chattanooga, Tennessee, United States", "Lat": 35.0456, "Long": -85.3097, "Timestamp": 20181105053000, "Source": "https://finance.yahoo.com/news/u-ratchets-pressure-iran-resumption-050100713.html"}, {"ID": 800061511, "Actor1": "FOREIGN MINIST", "Actor1_Country": null, "Actor2": "UNITED STATES", "Actor2_Country": "USA", "Code": 10, "Class": 1, "Action_Location": "Chattanooga, Tennessee, United States", "Lat": 35.0456, "Long": -85.3097, "Timestamp": 20181105053000, "Source": "https://finance.yahoo.com/news/u-ratchets-pressure-iran-resumption-050100713.html"}, {"ID": 800061553, "Actor1": "INDONESIA", "Actor1_Country": "IDN", "Actor2": "RADIO STATION", "Actor2_Country": null, "Code": 10, "Class": 1, "Action_Location": "Jakarta, Jakarta Raya, Indonesia", "Lat": -6.17444, "Long": 106.829, "Timestamp": 20181105053000, "Source": "http://travel.asiaone.com/asia/lion-air-crash-even-strongest-body-part-plane-broke-apart-says-indonesian-official"}, {"ID": 800061556, "Actor1": "INTERNATIONAL MONETARY FUND", "Actor1_Country": null, "Actor2": "IRAN", "Actor2_Country": "IRN", "Code": 100, "Class": 3, "Action_Location": "Tehran, Tehran, Iran", "Lat": 35.75, "Long": 51.5148, "Timestamp": 20181105053000, "Source": "https://finance.yahoo.com/news/u-ratchets-pressure-iran-resumption-050100713.html"}, {"ID": 800061557, "Actor1": "INTERNATIONAL MONETARY FUND", "Actor1_Country": null, "Actor2": "IRAN", "Actor2_Country": "IRN", "Code": 100, "Class": 3, "Action_Location": "Chattanooga, Tennessee, United States", "Lat": 35.0456, "Long": -85.3097, "Timestamp": 20181105053000, "Source": "https://finance.yahoo.com/news/u-ratchets-pressure-iran-resumption-050100713.html"}, {"ID": 800061560, "Actor1": "THE EUROPEAN UNION", "Actor1_Country": "EUR", "Actor2": "IRAN", "Actor2_Country": "IRN", "Code": 46, "Class": 1, "Action_Location": "Tehran, Tehran, Iran", "Lat": 35.75, "Long": 51.5148, "Timestamp": 20181105053000, "Source": "https://sputniknews.com/middleeast/201811051069507088-usa-iran-sanctions-take-effect-monday/"}, {"ID": 800061581, "Actor1": "NEW DELHI", "Actor1_Country": "IND", "Actor2": "GREEK", "Actor2_Country": "GRC", "Code": 51, "Class": 1, "Action_Location": "Athens, Attik\u00edR, Greece", "Lat": 37.9833, "Long": 23.7333, "Timestamp": 20181105053000, "Source": "https://www.prokerala.com/news/articles/a871096.html"}, {"ID": 800061600, "Actor1": "IRANIAN", "Actor1_Country": "IRN", "Actor2": "ARGENTINA", "Actor2_Country": "ARG", "Code": 112, "Class": 3, "Action_Location": "La Nacion, Chaco, Argentina", "Lat": -24.6, "Long": -62.1333, "Timestamp": 20181105053000, "Source": "https://www.greenwichtime.com/news/crime/article/Argentina-s-Fernandez-still-inspires-loyalty-13362626.php"}, {"ID": 800061602, "Actor1": "IRANIAN", "Actor1_Country": "IRN", "Actor2": "ARGENTINA", "Actor2_Country": "ARG", "Code": 112, "Class": 3, "Action_Location": "Iran", "Lat": 32.0, "Long": 53.0, "Timestamp": 20181105053000, "Source": "https://www.greenwichtime.com/news/crime/article/Argentina-s-Fernandez-still-inspires-loyalty-13362626.php"}, {"ID": 800061604, "Actor1": "IRANIAN", "Actor1_Country": "IRN", "Actor2": "ARGENTINA", "Actor2_Country": "ARG", "Code": 173, "Class": 4, "Action_Location": "La Nacion, Chaco, Argentina", "Lat": -24.6, "Long": -62.1333, "Timestamp": 20181105053000, "Source": "https://www.greenwichtime.com/news/crime/article/Argentina-s-Fernandez-still-inspires-loyalty-13362626.php"}, {"ID": 800061606, "Actor1": "IRANIAN", "Actor1_Country": "IRN", "Actor2": "ARGENTINA", "Actor2_Country": "ARG", "Code": 173, "Class": 4, "Action_Location": "Iran", "Lat": 32.0, "Long": 53.0, "Timestamp": 20181105053000, "Source": "https://www.greenwichtime.com/news/crime/article/Argentina-s-Fernandez-still-inspires-loyalty-13362626.php"}, {"ID": 800061610, "Actor1": "IRANIAN", "Actor1_Country": "IRN", "Actor2": "EMBASSY", "Actor2_Country": null, "Code": 17, "Class": 1, "Action_Location": "Tennessee, United States", "Lat": 35.7449, "Long": -86.7489, "Timestamp": 20181105053000, "Source": "https://finance.yahoo.com/news/u-ratchets-pressure-iran-resumption-050100713.html"}, {"ID": 800061611, "Actor1": "IRAN", "Actor1_Country": "IRN", "Actor2": "EMBASSY", "Actor2_Country": null, "Code": 17, "Class": 1, "Action_Location": "Tehran, Tehran, Iran", "Lat": 35.75, "Long": 51.5148, "Timestamp": 20181105053000, "Source": "https://finance.yahoo.com/news/u-ratchets-pressure-iran-resumption-050100713.html"}, {"ID": 800061612, "Actor1": "IRAN", "Actor1_Country": "IRN", "Actor2": "EMBASSY", "Actor2_Country": null, "Code": 17, "Class": 1, "Action_Location": "Tennessee, United States", "Lat": 35.7449, "Long": -86.7489, "Timestamp": 20181105053000, "Source": "https://finance.yahoo.com/news/u-ratchets-pressure-iran-resumption-050100713.html"}, {"ID": 800061615, "Actor1": "IRAN", "Actor1_Country": "IRN", "Actor2": "THE EUROPEAN UNION", "Actor2_Country": "EUR", "Code": 46, "Class": 1, "Action_Location": "Tehran, Tehran, Iran", "Lat": 35.75, "Long": 51.5148, "Timestamp": 20181105053000, "Source": "https://sputniknews.com/middleeast/201811051069507088-usa-iran-sanctions-take-effect-monday/"}, {"ID": 800061623, "Actor1": "IRAN", "Actor1_Country": "IRN", "Actor2": "UNITED STATES", "Actor2_Country": "USA", "Code": 46, "Class": 1, "Action_Location": "New Delhi, Delhi, India", "Lat": 28.6, "Long": 77.2, "Timestamp": 20181105053000, "Source": "https://sputniknews.com/middleeast/201811051069507088-usa-iran-sanctions-take-effect-monday/"}, {"ID": 800061624, "Actor1": "IRANIAN", "Actor1_Country": "IRN", "Actor2": "UNITED STATES", "Actor2_Country": "USA", "Code": 46, "Class": 1, "Action_Location": "Washington, District of Columbia, United States", "Lat": 38.8951, "Long": -77.0364, "Timestamp": 20181105053000, "Source": "https://sputniknews.com/middleeast/201811051069507088-usa-iran-sanctions-take-effect-monday/"}, {"ID": 800061626, "Actor1": "IRANIAN", "Actor1_Country": "IRN", "Actor2": "UNITED STATES", "Actor2_Country": "USA", "Code": 80, "Class": 2, "Action_Location": "Washington, District of Columbia, United States", "Lat": 38.8951, "Long": -77.0364, "Timestamp": 20181105053000, "Source": "https://sputniknews.com/middleeast/201811051069507088-usa-iran-sanctions-take-effect-monday/"}, {"ID": 800061627, "Actor1": "IRAN", "Actor1_Country": "IRN", "Actor2": "UNITED STATES", "Actor2_Country": "USA", "Code": 111, "Class": 3, "Action_Location": "Tehran, Tehran, Iran", "Lat": 35.75, "Long": 51.5148, "Timestamp": 20181105053000, "Source": "https://finance.yahoo.com/news/u-ratchets-pressure-iran-resumption-050100713.html"}, {"ID": 800061635, "Actor1": "JERUSALEM", "Actor1_Country": "ISR", "Actor2": "FOREIGN MINIST", "Actor2_Country": null, "Code": 51, "Class": 1, "Action_Location": "Jerusalem, Israel (general), Israel", "Lat": 31.7667, "Long": 35.2333, "Timestamp": 20181105053000, "Source": "http://matzav.com/many-countries-planning-to-move-embassies-to-yerushalayim-official-says/"}, {"ID": 800061678, "Actor1": "JAPAN", "Actor1_Country": "JPN", "Actor2": "JAPANESE", "Actor2_Country": "JPN", "Code": 90, "Class": 2, "Action_Location": "Sarufutsu, Hokkaido, Japan", "Lat": 45.2569, "Long": 142.2, "Timestamp": 20181105053000, "Source": "https://www.news.com.au/technology/environment/climate-change/missing-japanese-island-baffles-locals-and-scientists/news-story/ede6fb4da7b3d812618af0faa63a9a37"}, {"ID": 800061709, "Actor1": "PROSECUTOR", "Actor1_Country": null, "Actor2": "ARGENTINA", "Actor2_Country": "ARG", "Code": 20, "Class": 1, "Action_Location": "La Nacion, Chaco, Argentina", "Lat": -24.6, "Long": -62.1333, "Timestamp": 20181105053000, "Source": "https://www.greenwichtime.com/news/crime/article/Argentina-s-Fernandez-still-inspires-loyalty-13362626.php"}, {"ID": 800061724, "Actor1": "PROSECUTOR", "Actor1_Country": null, "Actor2": "UNITED STATES", "Actor2_Country": "USA", "Code": 172, "Class": 4, "Action_Location": "New York, United States", "Lat": 42.1497, "Long": -74.9384, "Timestamp": 20181105053000, "Source": "https://www.law360.com/articles/1097343"}, {"ID": 800061783, "Actor1": "COLOMBO", "Actor1_Country": "LKA", "Actor2": "CHINA", "Actor2_Country": "CHN", "Code": 40, "Class": 1, "Action_Location": "Beijing, Beijing, China", "Lat": 39.9289, "Long": 116.388, "Timestamp": 20181105053000, "Source": "https://www.scnow.com/news/headlines/article_f8dbd4f4-9bab-5b9f-ab9c-1a18aa738ca7.html"}, {"ID": 800061784, "Actor1": "COLOMBO", "Actor1_Country": "LKA", "Actor2": "CHINA", "Actor2_Country": "CHN", "Code": 40, "Class": 1, "Action_Location": "Lu Kang, Anhui, China", "Lat": 31.2728, "Long": 118.337, "Timestamp": 20181105053000, "Source": "https://www.chron.com/news/world/article/Rivals-China-India-cautiously-watch-Sri-Lankan-13362617.php"}, {"ID": 800061785, "Actor1": "COLOMBO", "Actor1_Country": "LKA", "Actor2": "CHINA", "Actor2_Country": "CHN", "Code": 40, "Class": 1, "Action_Location": "Colombo, Western, Sri Lanka", "Lat": 6.93194, "Long": 79.8478, "Timestamp": 20181105053000, "Source": "https://www.chron.com/news/world/article/Rivals-China-India-cautiously-watch-Sri-Lankan-13362617.php"}, {"ID": 800061786, "Actor1": "SRI LANKAN", "Actor1_Country": "LKA", "Actor2": "CHINESE", "Actor2_Country": "CHN", "Code": 71, "Class": 2, "Action_Location": "Beijing, Beijing, China", "Lat": 39.9289, "Long": 116.388, "Timestamp": 20181105053000, "Source": "https://www.chron.com/news/world/article/Rivals-China-India-cautiously-watch-Sri-Lankan-13362617.php"}, {"ID": 800061787, "Actor1": "SRI LANKA", "Actor1_Country": "LKA", "Actor2": "CHINA", "Actor2_Country": "CHN", "Code": 71, "Class": 2, "Action_Location": "Beijing, Beijing, China", "Lat": 39.9289, "Long": 116.388, "Timestamp": 20181105053000, "Source": "https://www.chron.com/news/world/article/Rivals-China-India-cautiously-watch-Sri-Lankan-13362617.php"}, {"ID": 800061788, "Actor1": "SRI LANKAN", "Actor1_Country": "LKA", "Actor2": "CHINESE", "Actor2_Country": "CHN", "Code": 71, "Class": 2, "Action_Location": "Lu Kang, Anhui, China", "Lat": 31.2728, "Long": 118.337, "Timestamp": 20181105053000, "Source": "https://www.chron.com/news/world/article/Rivals-China-India-cautiously-watch-Sri-Lankan-13362617.php"}, {"ID": 800061789, "Actor1": "SRI LANKAN", "Actor1_Country": "LKA", "Actor2": "CHINA", "Actor2_Country": "CHN", "Code": 71, "Class": 2, "Action_Location": "Colombo, Western, Sri Lanka", "Lat": 6.93194, "Long": 79.8478, "Timestamp": 20181105053000, "Source": "https://www.chron.com/news/world/article/Rivals-China-India-cautiously-watch-Sri-Lankan-13362617.php"}, {"ID": 800061790, "Actor1": "SRI LANKA", "Actor1_Country": "LKA", "Actor2": "DIPLOMAT", "Actor2_Country": null, "Code": 161, "Class": 4, "Action_Location": "Beijing, Beijing, China", "Lat": 39.9289, "Long": 116.388, "Timestamp": 20181105053000, "Source": "https://www.chron.com/news/world/article/Rivals-China-India-cautiously-watch-Sri-Lankan-13362617.php"}, {"ID": 800061791, "Actor1": "SRI LANKA", "Actor1_Country": "LKA", "Actor2": "DIPLOMAT", "Actor2_Country": null, "Code": 161, "Class": 4, "Action_Location": "New Delhi, Delhi, India", "Lat": 28.6, "Long": 77.2, "Timestamp": 20181105053000, "Source": "https://www.scnow.com/news/headlines/article_f8dbd4f4-9bab-5b9f-ab9c-1a18aa738ca7.html"}, {"ID": 800061792, "Actor1": "COLOMBO", "Actor1_Country": "LKA", "Actor2": "DIPLOMAT", "Actor2_Country": null, "Code": 161, "Class": 4, "Action_Location": "Colombo, Western, Sri Lanka", "Lat": 6.93194, "Long": 79.8478, "Timestamp": 20181105053000, "Source": "https://www.chron.com/news/world/article/Rivals-China-India-cautiously-watch-Sri-Lankan-13362617.php"}, {"ID": 800061813, "Actor1": "SPOKESMAN", "Actor1_Country": null, "Actor2": "CHINESE", "Actor2_Country": "CHN", "Code": 40, "Class": 1, "Action_Location": "Temple Trees, Western, Sri Lanka", "Lat": 6.9149, "Long": 79.8477, "Timestamp": 20181105053000, "Source": "https://www.chron.com/news/world/article/Rivals-China-India-cautiously-watch-Sri-Lankan-13362617.php"}, {"ID": 800061814, "Actor1": "SPOKESMAN", "Actor1_Country": null, "Actor2": "CHINESE", "Actor2_Country": "CHN", "Code": 40, "Class": 1, "Action_Location": "Lu Kang, Anhui, China", "Lat": 31.2728, "Long": 118.337, "Timestamp": 20181105053000, "Source": "https://www.chron.com/news/world/article/Rivals-China-India-cautiously-watch-Sri-Lankan-13362617.php"}, {"ID": 800061835, "Actor1": "COAST GUARD", "Actor1_Country": null, "Actor2": "JAPAN", "Actor2_Country": "JPN", "Code": 10, "Class": 1, "Action_Location": "Sarufutsu, Hokkaido, Japan", "Lat": 45.2569, "Long": 142.2, "Timestamp": 20181105053000, "Source": "https://www.news.com.au/technology/environment/climate-change/missing-japanese-island-baffles-locals-and-scientists/news-story/ede6fb4da7b3d812618af0faa63a9a37"}, {"ID": 800061836, "Actor1": "YANGON", "Actor1_Country": "MMR", "Actor2": "MYANMAR", "Actor2_Country": "MMR", "Code": 173, "Class": 4, "Action_Location": "Yangon, Yangon, Myanmar", "Lat": 16.8053, "Long": 96.1561, "Timestamp": 20181105053000, "Source": "https://www.reuters.com/article/us-myanmar-journalists-idUSKCN1NA0CE"}, {"ID": 800061838, "Actor1": "YANGON", "Actor1_Country": "MMR", "Actor2": "MYANMAR", "Actor2_Country": "MMR", "Code": 173, "Class": 4, "Action_Location": "Yangon, Yangon, Myanmar", "Lat": 16.8053, "Long": 96.1561, "Timestamp": 20181105053000, "Source": "https://www.reuters.com/article/us-myanmar-journalists-idUSKCN1NA0CE"}, {"ID": 800061843, "Actor1": "GOOGLE", "Actor1_Country": "USA", "Actor2": "GREECE", "Actor2_Country": "GRC", "Code": 51, "Class": 1, "Action_Location": "Athens, Attik\u00edR, Greece", "Lat": 37.9833, "Long": 23.7333, "Timestamp": 20181105053000, "Source": "https://www.prokerala.com/news/articles/a871096.html"}, {"ID": 800061859, "Actor1": "DUTCH", "Actor1_Country": "NLD", "Actor2": "NETHERLANDS", "Actor2_Country": "NLD", "Code": 10, "Class": 1, "Action_Location": "Netherlands", "Lat": 52.5, "Long": 5.75, "Timestamp": 20181105053000, "Source": "https://www.irishtimes.com/business/economy/call-for-eu-bailout-to-have-additional-powers-1.3686074"}, {"ID": 800061885, "Actor1": "PAKISTAN", "Actor1_Country": "PAK", "Actor2": "PRIME MINISTER", "Actor2_Country": null, "Code": 43, "Class": 1, "Action_Location": "Russia", "Lat": 60.0, "Long": 100.0, "Timestamp": 20181105053000, "Source": "http://www.arabnews.com/node/1399336/business-economy"}, {"ID": 800061887, "Actor1": "PAKISTAN", "Actor1_Country": "PAK", "Actor2": "PRIME MINISTER", "Actor2_Country": null, "Code": 43, "Class": 1, "Action_Location": "Russia", "Lat": 60.0, "Long": 100.0, "Timestamp": 20181105053000, "Source": "http://www.arabnews.com/node/1399336/business-economy"}, {"ID": 800061904, "Actor1": "DPRK", "Actor1_Country": "PRK", "Actor2": "CUBA", "Actor2_Country": "CUB", "Code": 46, "Class": 1, "Action_Location": "Cuba", "Lat": 22.0, "Long": -79.5, "Timestamp": 20181105053000, "Source": "http://www.xinhuanet.com/english/2018-11/05/c_137582787.htm"}, {"ID": 800061921, "Actor1": "SAINT", "Actor1_Country": null, "Actor2": "ROMAN CATHOLIC", "Actor2_Country": null, "Code": 43, "Class": 1, "Action_Location": "Port-Au-Prince, Ouest, Haiti", "Lat": 18.5392, "Long": -72.335, "Timestamp": 20181105053000, "Source": "https://www.sfgate.com/news/world/article/AP-PHOTOS-Haitians-celebrate-Festival-of-the-Dead-13362630.php"}, {"ID": 800061922, "Actor1": "SAINT", "Actor1_Country": null, "Actor2": "ROMAN CATHOLIC", "Actor2_Country": null, "Code": 43, "Class": 1, "Action_Location": "Port-Au-Prince, Ouest, Haiti", "Lat": 18.5392, "Long": -72.335, "Timestamp": 20181105053000, "Source": "https://www.sfgate.com/news/world/article/AP-PHOTOS-Haitians-celebrate-Festival-of-the-Dead-13362630.php"}, {"ID": 800061964, "Actor1": "RUSSIA", "Actor1_Country": "RUS", "Actor2": "PRIME MINISTER", "Actor2_Country": null, "Code": 43, "Class": 1, "Action_Location": "Beijing, Beijing, China", "Lat": 39.9289, "Long": 116.388, "Timestamp": 20181105053000, "Source": "http://www.arabnews.com/node/1399336/business-economy"}, {"ID": 800061965, "Actor1": "RUSSIA", "Actor1_Country": "RUS", "Actor2": "PRIME MINISTER", "Actor2_Country": null, "Code": 43, "Class": 1, "Action_Location": "Russia", "Lat": 60.0, "Long": 100.0, "Timestamp": 20181105053000, "Source": "http://www.arabnews.com/node/1399336/business-economy"}, {"ID": 800062046, "Actor1": "TERRORIST", "Actor1_Country": null, "Actor2": "IRANIAN", "Actor2_Country": "IRN", "Code": 112, "Class": 3, "Action_Location": "Iran", "Lat": 32.0, "Long": 53.0, "Timestamp": 20181105053000, "Source": "https://www.greenwichtime.com/news/crime/article/Argentina-s-Fernandez-still-inspires-loyalty-13362626.php"}, {"ID": 800062115, "Actor1": "UNITED STATES", "Actor1_Country": "USA", "Actor2": "COMPANIES", "Actor2_Country": null, "Code": 13, "Class": 1, "Action_Location": "Tehran, Tehran, Iran", "Lat": 35.75, "Long": 51.5148, "Timestamp": 20181105053000, "Source": "https://sputniknews.com/middleeast/201811051069507088-usa-iran-sanctions-take-effect-monday/"}, {"ID": 800062116, "Actor1": "UNITED STATES", "Actor1_Country": "USA", "Actor2": "COMPANIES", "Actor2_Country": null, "Code": 13, "Class": 1, "Action_Location": "Washington, District of Columbia, United States", "Lat": 38.8951, "Long": -77.0364, "Timestamp": 20181105053000, "Source": "https://sputniknews.com/middleeast/201811051069507088-usa-iran-sanctions-take-effect-monday/"}, {"ID": 800062120, "Actor1": "UNITED STATES", "Actor1_Country": "USA", "Actor2": "CANADIAN", "Actor2_Country": "CAN", "Code": 42, "Class": 1, "Action_Location": "United States", "Lat": 39.828175, "Long": -98.5795, "Timestamp": 20181105053000, "Source": "https://www.kansascity.com/opinion/letters-to-the-editor/article221094890.html"}, {"ID": 800062124, "Actor1": "UNITED STATES", "Actor1_Country": "USA", "Actor2": "POLICE", "Actor2_Country": null, "Code": 43, "Class": 1, "Action_Location": "Atlanta, Georgia, United States", "Lat": 33.749, "Long": -84.388, "Timestamp": 20181105053000, "Source": "https://www.fox10tv.com/news/us_world_news/dna-of-suspect-s-family-member-used-to-solve-murder/article_8e4545b5-b9e2-589e-b782-715b36a7908f.html"}, {"ID": 800062125, "Actor1": "UNITED STATES", "Actor1_Country": "USA", "Actor2": "POLICE", "Actor2_Country": null, "Code": 43, "Class": 1, "Action_Location": "Atlanta, Georgia, United States", "Lat": 33.749, "Long": -84.388, "Timestamp": 20181105053000, "Source": "https://www.fox10tv.com/news/us_world_news/dna-of-suspect-s-family-member-used-to-solve-murder/article_8e4545b5-b9e2-589e-b782-715b36a7908f.html"}, {"ID": 800062126, "Actor1": "ALABAMA", "Actor1_Country": "USA", "Actor2": "POLICE", "Actor2_Country": null, "Code": 43, "Class": 1, "Action_Location": "Alabama, United States", "Lat": 32.799, "Long": -86.8073, "Timestamp": 20181105053000, "Source": "https://www.fox10tv.com/news/us_world_news/dna-of-suspect-s-family-member-used-to-solve-murder/article_8e4545b5-b9e2-589e-b782-715b36a7908f.html"}, {"ID": 800062127, "Actor1": "UNITED STATES", "Actor1_Country": "USA", "Actor2": "PRISON", "Actor2_Country": null, "Code": 43, "Class": 1, "Action_Location": "North Carolina, United States", "Lat": 35.6411, "Long": -79.8431, "Timestamp": 20181105053000, "Source": "https://www.geekgirlauthority.com/outlander-season-premiere-recap-s04e01-america-beautiful/"}, {"ID": 800062142, "Actor1": "TENNESSEE", "Actor1_Country": "USA", "Actor2": "MIGRANT", "Actor2_Country": null, "Code": 111, "Class": 3, "Action_Location": "Tennessee, United States", "Lat": 35.7449, "Long": -86.7489, "Timestamp": 20181105053000, "Source": "https://www.greenwichtime.com/technology/businessinsider/article/Turn-back-now-because-you-re-not-getting-in-13362615.php"}, {"ID": 800062148, "Actor1": "MINNESOTA", "Actor1_Country": "USA", "Actor2": "STUDENT", "Actor2_Country": null, "Code": 51, "Class": 1, "Action_Location": "Waconia, Minnesota, United States", "Lat": 44.8508, "Long": -93.7869, "Timestamp": 20181105053000, "Source": "http://www.startribune.com/minnesota-teacher-honored-for-encouraging-student-expression/499601721/"}, {"ID": 800062168, "Actor1": "UNITED STATES", "Actor1_Country": "USA", "Actor2": "IRAN", "Actor2_Country": "IRN", "Code": 46, "Class": 1, "Action_Location": "New Delhi, Delhi, India", "Lat": 28.6, "Long": 77.2, "Timestamp": 20181105053000, "Source": "https://sputniknews.com/middleeast/201811051069507088-usa-iran-sanctions-take-effect-monday/"}, {"ID": 800062169, "Actor1": "UNITED STATES", "Actor1_Country": "USA", "Actor2": "IRANIAN", "Actor2_Country": "IRN", "Code": 46, "Class": 1, "Action_Location": "Washington, District of Columbia, United States", "Lat": 38.8951, "Long": -77.0364, "Timestamp": 20181105053000, "Source": "https://sputniknews.com/middleeast/201811051069507088-usa-iran-sanctions-take-effect-monday/"}, {"ID": 800062173, "Actor1": "UNITED STATES", "Actor1_Country": "USA", "Actor2": "IRAN", "Actor2_Country": "IRN", "Code": 110, "Class": 3, "Action_Location": "Chattanooga, Tennessee, United States", "Lat": 35.0456, "Long": -85.3097, "Timestamp": 20181105053000, "Source": "https://finance.yahoo.com/news/u-ratchets-pressure-iran-resumption-050100713.html"}, {"ID": 800062175, "Actor1": "TENNESSEE", "Actor1_Country": "USA", "Actor2": "IRAN", "Actor2_Country": "IRN", "Code": 110, "Class": 3, "Action_Location": "Chattanooga, Tennessee, United States", "Lat": 35.0456, "Long": -85.3097, "Timestamp": 20181105053000, "Source": "https://finance.yahoo.com/news/u-ratchets-pressure-iran-resumption-050100713.html"}, {"ID": 800062222, "Actor1": "UNITED STATES", "Actor1_Country": "USA", "Actor2": "IRAN", "Actor2_Country": "IRN", "Code": 356, "Class": 1, "Action_Location": "Washington, District of Columbia, United States", "Lat": 38.8951, "Long": -77.0364, "Timestamp": 20181105053000, "Source": "https://sputniknews.com/middleeast/201811051069507088-usa-iran-sanctions-take-effect-monday/"}, {"ID": 800062228, "Actor1": "UNITED STATES", "Actor1_Country": "USA", "Actor2": "UNITED STATES", "Actor2_Country": "USA", "Code": 51, "Class": 1, "Action_Location": "Chattanooga, Tennessee, United States", "Lat": 35.0456, "Long": -85.3097, "Timestamp": 20181105053000, "Source": "https://www.greenwichtime.com/technology/businessinsider/article/Turn-back-now-because-you-re-not-getting-in-13362615.php"}, {"ID": 800062230, "Actor1": "UNITED STATES", "Actor1_Country": "USA", "Actor2": "WASHINGTON", "Actor2_Country": "USA", "Code": 874, "Class": 2, "Action_Location": "Washington, District of Columbia, United States", "Lat": 38.8951, "Long": -77.0364, "Timestamp": 20181105053000, "Source": "https://sputniknews.com/middleeast/201811051069507088-usa-iran-sanctions-take-effect-monday/"}, {"ID": 800062235, "Actor1": "UNITED STATES", "Actor1_Country": "USA", "Actor2": "UNITED STATES", "Actor2_Country": "USA", "Code": 51, "Class": 1, "Action_Location": "Chattanooga, Tennessee, United States", "Lat": 35.0456, "Long": -85.3097, "Timestamp": 20181105053000, "Source": "https://www.greenwichtime.com/technology/businessinsider/article/Turn-back-now-because-you-re-not-getting-in-13362615.php"}, {"ID": 800062246, "Actor1": "ASSOCIATED PRESS", "Actor1_Country": "USA", "Actor2": "ARGENTINA", "Actor2_Country": "ARG", "Code": 70, "Class": 2, "Action_Location": "La Nacion, Chaco, Argentina", "Lat": -24.6, "Long": -62.1333, "Timestamp": 20181105053000, "Source": "https://www.greenwichtime.com/news/crime/article/Argentina-s-Fernandez-still-inspires-loyalty-13362626.php"}, {"ID": 800062248, "Actor1": "ASSOCIATED PRESS", "Actor1_Country": "USA", "Actor2": "ARGENTINA", "Actor2_Country": "ARG", "Code": 70, "Class": 2, "Action_Location": "La Nacion, Chaco, Argentina", "Lat": -24.6, "Long": -62.1333, "Timestamp": 20181105053000, "Source": "https://www.greenwichtime.com/news/crime/article/Argentina-s-Fernandez-still-inspires-loyalty-13362626.php"}, {"ID": 800062249, "Actor1": "ASSOCIATED PRESS", "Actor1_Country": "USA", "Actor2": "CHINA", "Actor2_Country": "CHN", "Code": 70, "Class": 2, "Action_Location": "Beijing, Beijing, China", "Lat": 39.9289, "Long": 116.388, "Timestamp": 20181105053000, "Source": "https://www.chron.com/news/world/article/Rivals-China-India-cautiously-watch-Sri-Lankan-13362617.php"}, {"ID": 800062250, "Actor1": "ASSOCIATED PRESS", "Actor1_Country": "USA", "Actor2": "CHINA", "Actor2_Country": "CHN", "Code": 70, "Class": 2, "Action_Location": "Colombo, Western, Sri Lanka", "Lat": 6.93194, "Long": 79.8478, "Timestamp": 20181105053000, "Source": "https://www.scnow.com/news/headlines/article_f8dbd4f4-9bab-5b9f-ab9c-1a18aa738ca7.html"}, {"ID": 800062271, "Actor1": "SINHALESE", "Actor1_Country": null, "Actor2": "PRINCE", "Actor2_Country": null, "Code": 174, "Class": 4, "Action_Location": "New Delhi, Delhi, India", "Lat": 28.6, "Long": 77.2, "Timestamp": 20181105053000, "Source": "https://www.chron.com/news/world/article/Rivals-China-India-cautiously-watch-Sri-Lankan-13362617.php"}, {"ID": 800062272, "Actor1": "SINHALESE", "Actor1_Country": null, "Actor2": "PRINCE", "Actor2_Country": null, "Code": 174, "Class": 4, "Action_Location": "Lu Kang, Anhui, China", "Lat": 31.2728, "Long": 118.337, "Timestamp": 20181105053000, "Source": "https://www.chron.com/news/world/article/Rivals-China-India-cautiously-watch-Sri-Lankan-13362617.php"}, {"ID": 800062273, "Actor1": "SINHALESE", "Actor1_Country": null, "Actor2": "PRINCE", "Actor2_Country": null, "Code": 174, "Class": 4, "Action_Location": "New Delhi, Delhi, India", "Lat": 28.6, "Long": 77.2, "Timestamp": 20181105053000, "Source": "https://www.scnow.com/news/headlines/article_f8dbd4f4-9bab-5b9f-ab9c-1a18aa738ca7.html"}]