[{"ID":800231492,"Actor1":"CANADA","Actor1_Country":"CAN","Actor2":"JUDGE","Actor2_Country":null,"Code":172,"Class":4,"Action_Location":"Canada","Lat":60.0,"Long":-96.0,"Timestamp":20181105200000,"Source":"http:\/\/www.cftktv.com\/News\/Animal-Abuse-case"},{"ID":800231493,"Actor1":"CANADA","Actor1_Country":"CAN","Actor2":"UNITED STATES","Actor2_Country":"USA","Code":172,"Class":4,"Action_Location":"Houston, Texas, United States","Lat":29.7633,"Long":-95.3633,"Timestamp":20181105200000,"Source":"http:\/\/www.cftktv.com\/News\/Animal-Abuse-case"},{"ID":800231494,"Actor1":"CANADA","Actor1_Country":"CAN","Actor2":"UNITED STATES","Actor2_Country":"USA","Code":172,"Class":4,"Action_Location":"Canada","Lat":60.0,"Long":-96.0,"Timestamp":20181105200000,"Source":"http:\/\/www.cftktv.com\/News\/Animal-Abuse-case"},{"ID":800231496,"Actor1":"LATTER DAY SAINTS","Actor1_Country":null,"Actor2":"TONGA","Actor2_Country":"TON","Code":36,"Class":1,"Action_Location":"Haano, Ha\u0091apai, Tonga","Lat":-19.6667,"Long":-174.3,"Timestamp":20181105200000,"Source":"http:\/\/www.tonga-broadcasting.net\/?p=13422"},{"ID":800231498,"Actor1":"JUDGE","Actor1_Country":null,"Actor2":"UNITED STATES","Actor2_Country":"USA","Code":173,"Class":4,"Action_Location":"Houston, Texas, United States","Lat":29.7633,"Long":-95.3633,"Timestamp":20181105200000,"Source":"http:\/\/www.cftktv.com\/News\/Animal-Abuse-case"},{"ID":800231499,"Actor1":"MEXICAN","Actor1_Country":"MEX","Actor2":"CARTEL","Actor2_Country":null,"Code":173,"Class":4,"Action_Location":"Mexico","Lat":23.0,"Long":-102.0,"Timestamp":20181105200000,"Source":"https:\/\/www.kgns.tv\/content\/news\/Jury-selection-for-el-Chapo-trial-underway-499673581.html"},{"ID":800231500,"Actor1":"MEXICAN","Actor1_Country":"MEX","Actor2":"MEXICAN","Actor2_Country":"MEX","Code":112,"Class":3,"Action_Location":"Mexico","Lat":23.0,"Long":-102.0,"Timestamp":20181105200000,"Source":"https:\/\/www.kgns.tv\/content\/news\/Jury-selection-for-el-Chapo-trial-underway-499673581.html"},{"ID":800231501,"Actor1":"MEXICAN","Actor1_Country":"MEX","Actor2":"MEXICAN","Actor2_Country":"MEX","Code":174,"Class":4,"Action_Location":"Mexico","Lat":23.0,"Long":-102.0,"Timestamp":20181105200000,"Source":"https:\/\/www.kgns.tv\/content\/news\/Jury-selection-for-el-Chapo-trial-underway-499673581.html"},{"ID":800231503,"Actor1":"TONGA","Actor1_Country":"TON","Actor2":"LATTER DAY SAINTS","Actor2_Country":null,"Code":36,"Class":1,"Action_Location":"Haano, Ha\u0091apai, Tonga","Lat":-19.6667,"Long":-174.3,"Timestamp":20181105200000,"Source":"http:\/\/www.tonga-broadcasting.net\/?p=13422"},{"ID":800231508,"Actor1":"KANSAS","Actor1_Country":"USA","Actor2":"UNITED STATES","Actor2_Country":"USA","Code":42,"Class":1,"Action_Location":"Kansas, United States","Lat":38.5111,"Long":-96.8005,"Timestamp":20181105200000,"Source":"http:\/\/www.hpj.com\/markets\/pratt-livestock-auction-report\/article_150a3499-7424-5bc9-a89a-35c35a88502f.html"},{"ID":800231509,"Actor1":"TEXAS","Actor1_Country":"USA","Actor2":"TEXAS","Actor2_Country":"USA","Code":42,"Class":1,"Action_Location":"Texas, United States","Lat":31.106,"Long":-97.6475,"Timestamp":20181105200000,"Source":"http:\/\/www.hpj.com\/markets\/tulia-livestock-auction-report\/article_1cd46462-15d9-5d48-b49c-49305404647a.html"},{"ID":800231510,"Actor1":"UNITED STATES","Actor1_Country":"USA","Actor2":"UNITED STATES","Actor2_Country":"USA","Code":43,"Class":1,"Action_Location":"Georgia, United States","Lat":32.9866,"Long":-83.6487,"Timestamp":20181105200000,"Source":"http:\/\/www.hpj.com\/markets\/georgia-livestock-auction-summary\/article_a37f8af2-7967-5cf9-8256-cec518dce871.html"},{"ID":800231511,"Actor1":"UNITED STATES","Actor1_Country":"USA","Actor2":"UNITED STATES","Actor2_Country":"USA","Code":42,"Class":1,"Action_Location":"Georgia, United States","Lat":32.9866,"Long":-83.6487,"Timestamp":20181105200000,"Source":"http:\/\/www.hpj.com\/markets\/georgia-livestock-auction-summary\/article_a37f8af2-7967-5cf9-8256-cec518dce871.html"},{"ID":800231512,"Actor1":"UNITED STATES","Actor1_Country":"USA","Actor2":"KANSAS","Actor2_Country":"USA","Code":43,"Class":1,"Action_Location":"Kansas, United States","Lat":38.5111,"Long":-96.8005,"Timestamp":20181105200000,"Source":"http:\/\/www.hpj.com\/markets\/pratt-livestock-auction-report\/article_150a3499-7424-5bc9-a89a-35c35a88502f.html"},{"ID":800231513,"Actor1":"TEXAS","Actor1_Country":"USA","Actor2":"TEXAS","Actor2_Country":"USA","Code":43,"Class":1,"Action_Location":"Texas, United States","Lat":31.106,"Long":-97.6475,"Timestamp":20181105200000,"Source":"http:\/\/www.hpj.com\/markets\/tulia-livestock-auction-report\/article_1cd46462-15d9-5d48-b49c-49305404647a.html"},{"ID":800231516,"Actor1":"CHINESE","Actor1_Country":"CHN","Actor2":"SRI LANKA","Actor2_Country":"LKA","Code":51,"Class":1,"Action_Location":"Sri Lanka","Lat":7.0,"Long":81.0,"Timestamp":20181105200000,"Source":"https:\/\/www.telegraphindia.com\/world\/rajapaksa-must-prove-majority-lanka-speaker\/cid\/1674133"},{"ID":800231517,"Actor1":"CHINESE","Actor1_Country":"CHN","Actor2":"SRI LANKA","Actor2_Country":"LKA","Code":51,"Class":1,"Action_Location":"Sri Lanka","Lat":7.0,"Long":81.0,"Timestamp":20181105200000,"Source":"https:\/\/www.telegraphindia.com\/world\/rajapaksa-must-prove-majority-lanka-speaker\/cid\/1674133"},{"ID":800231519,"Actor1":"SCHOOL","Actor1_Country":null,"Actor2":"WASHINGTON","Actor2_Country":"USA","Code":173,"Class":4,"Action_Location":"Loudoun County, Virginia, United States","Lat":39.0834,"Long":-77.6497,"Timestamp":20181105200000,"Source":"https:\/\/www.washingtonpost.com\/local\/virginia-politics\/obama-makes-surprise-appearance-in-virginia-to-boost-wexton-and-kaine\/2018\/11\/05\/4dc09fa8-e124-11e8-8f5f-a55347f48762_story.html"},{"ID":800231520,"Actor1":"SCHOOL","Actor1_Country":null,"Actor2":"WASHINGTON","Actor2_Country":"USA","Code":173,"Class":4,"Action_Location":"Virginia, United States","Lat":37.768,"Long":-78.2057,"Timestamp":20181105200000,"Source":"https:\/\/www.washingtonpost.com\/politics\/2018\/live-updates\/midterms\/midterm-election-updates\/president-barack-obama-delivers-donuts-and-fires-up-young-volunteers-in-northern-virginia\/"},{"ID":800231521,"Actor1":"SCHOOL","Actor1_Country":null,"Actor2":"WASHINGTON","Actor2_Country":"USA","Code":173,"Class":4,"Action_Location":"Virginia, United States","Lat":37.768,"Long":-78.2057,"Timestamp":20181105200000,"Source":"https:\/\/www.washingtonpost.com\/politics\/2018\/live-updates\/midterms\/midterm-election-updates\/president-barack-obama-delivers-donuts-and-fires-up-young-volunteers-in-northern-virginia\/"},{"ID":800231522,"Actor1":"ITALY","Actor1_Country":"ITA","Actor2":"GREECE","Actor2_Country":"GRC","Code":80,"Class":2,"Action_Location":"Greece","Lat":39.0,"Long":22.0,"Timestamp":20181105200000,"Source":"https:\/\/www.hellenicshippingnews.com\/the-one-thing-euro-area-finance-ministers-are-thinking-about-italy\/"},{"ID":800231523,"Actor1":"ITALY","Actor1_Country":"ITA","Actor2":"GREECE","Actor2_Country":"GRC","Code":80,"Class":2,"Action_Location":"Greece","Lat":39.0,"Long":22.0,"Timestamp":20181105200000,"Source":"https:\/\/www.hellenicshippingnews.com\/the-one-thing-euro-area-finance-ministers-are-thinking-about-italy\/"},{"ID":800231524,"Actor1":"NEW ZEALAND","Actor1_Country":"NZL","Actor2":"TONGA","Actor2_Country":"TON","Code":57,"Class":1,"Action_Location":"New Zealand","Lat":-42.0,"Long":174.0,"Timestamp":20181105200000,"Source":"http:\/\/www.tonga-broadcasting.net\/?p=13425"},{"ID":800231525,"Actor1":"TONGA","Actor1_Country":"TON","Actor2":"NEW ZEALAND","Actor2_Country":"NZL","Code":57,"Class":1,"Action_Location":"New Zealand","Lat":-42.0,"Long":174.0,"Timestamp":20181105200000,"Source":"http:\/\/www.tonga-broadcasting.net\/?p=13425"},{"ID":800231526,"Actor1":"TONGA","Actor1_Country":"TON","Actor2":"NEW ZEALAND","Actor2_Country":"NZL","Code":57,"Class":1,"Action_Location":"Tonga","Lat":-20.0,"Long":-175.0,"Timestamp":20181105200000,"Source":"http:\/\/www.tonga-broadcasting.net\/?p=13425"},{"ID":800231527,"Actor1":"UNITED STATES","Actor1_Country":"USA","Actor2":"UNITED STATES","Actor2_Country":"USA","Code":10,"Class":1,"Action_Location":"Sunset Beach Police Department, North Carolina, United States","Lat":33.8939,"Long":-78.4969,"Timestamp":20181105200000,"Source":"https:\/\/thehill.com\/blogs\/blog-briefing-room\/news\/414978-north-carolina-woman-who-harassed-black-people-in-parking-lot"},{"ID":800231534,"Actor1":"UNIVERSITY","Actor1_Country":null,"Actor2":"UNITED STATES","Actor2_Country":"USA","Code":57,"Class":1,"Action_Location":"Kutztown, Pennsylvania, United States","Lat":40.5173,"Long":-75.7774,"Timestamp":20181105200000,"Source":"http:\/\/www.lvb.com\/article\/20181105\/BERKS\/181109941\/kutztown-university-signs-agreement-to-help-boost-agribusiness"},{"ID":800231535,"Actor1":"PRESIDENT","Actor1_Country":null,"Actor2":"IMMIGRANT","Actor2_Country":null,"Code":40,"Class":1,"Action_Location":"Gettysburg, Washington, United States","Lat":48.157,"Long":-123.826,"Timestamp":20181105200000,"Source":"https:\/\/www.outsidethebeltway.com\/birthright-citizenship-isnt-just-the-law-its-a-good-idea-too\/"},{"ID":800231539,"Actor1":"UNITED STATES","Actor1_Country":"USA","Actor2":"UNIVERSITY","Actor2_Country":null,"Code":57,"Class":1,"Action_Location":"Kutztown, Pennsylvania, United States","Lat":40.5173,"Long":-75.7774,"Timestamp":20181105200000,"Source":"http:\/\/www.lvb.com\/article\/20181105\/BERKS\/181109941\/kutztown-university-signs-agreement-to-help-boost-agribusiness"},{"ID":800231540,"Actor1":"UNITED STATES","Actor1_Country":"USA","Actor2":"UNIVERSITY","Actor2_Country":null,"Code":57,"Class":1,"Action_Location":"Berks County, Pennsylvania, United States","Lat":40.6254,"Long":-75.8749,"Timestamp":20181105200000,"Source":"http:\/\/www.lvb.com\/article\/20181105\/BERKS\/181109941\/kutztown-university-signs-agreement-to-help-boost-agribusiness"},{"ID":800231541,"Actor1":"UNITED STATES","Actor1_Country":"USA","Actor2":"UNIVERSITY","Actor2_Country":null,"Code":57,"Class":1,"Action_Location":"Pennsylvania, United States","Lat":40.5773,"Long":-77.264,"Timestamp":20181105200000,"Source":"http:\/\/www.lvb.com\/article\/20181105\/BERKS\/181109941\/kutztown-university-signs-agreement-to-help-boost-agribusiness"},{"ID":800231542,"Actor1":"UNITED STATES","Actor1_Country":"USA","Actor2":"REBEL","Actor2_Country":null,"Code":10,"Class":1,"Action_Location":"California, United States","Lat":36.17,"Long":-119.746,"Timestamp":20181105200000,"Source":"https:\/\/www.theroot.com\/rebel-rebel-for-white-women-who-block-black-people-on-1830229047"},{"ID":800231543,"Actor1":"NEW YORK CITY","Actor1_Country":"USA","Actor2":"SAUDI ARABIAN","Actor2_Country":"SAU","Code":182,"Class":4,"Action_Location":"Washington, District of Columbia, United States","Lat":38.8951,"Long":-77.0364,"Timestamp":20181105200000,"Source":"https:\/\/kxlf.com\/cnn-national\/2018\/11\/02\/what-we-know-about-the-saudi-sisters-found-dead-along-the-hudson-river\/"},{"ID":800231544,"Actor1":"NEW YORK","Actor1_Country":"USA","Actor2":"SAUDI ARABIA","Actor2_Country":"SAU","Code":182,"Class":4,"Action_Location":"Saudi Arabia","Lat":25.0,"Long":45.0,"Timestamp":20181105200000,"Source":"https:\/\/kxlf.com\/cnn-national\/2018\/11\/02\/what-we-know-about-the-saudi-sisters-found-dead-along-the-hudson-river\/"},{"ID":800231545,"Actor1":"ROMANIAN","Actor1_Country":null,"Actor2":"BOSTON","Actor2_Country":"USA","Code":15,"Class":1,"Action_Location":"Boston, Massachusetts, United States","Lat":42.3584,"Long":-71.0598,"Timestamp":20181105200000,"Source":"http:\/\/www.theglobaldispatch.com\/romanian-national-and-two-others-charged-in-connection-with-atm-skimming-68000\/"},{"ID":800231546,"Actor1":"ROMANIAN","Actor1_Country":null,"Actor2":"BOSTON","Actor2_Country":"USA","Code":15,"Class":1,"Action_Location":"Boston, Massachusetts, United States","Lat":42.3584,"Long":-71.0598,"Timestamp":20181105200000,"Source":"http:\/\/www.theglobaldispatch.com\/romanian-national-and-two-others-charged-in-connection-with-atm-skimming-68000\/"},{"ID":800231547,"Actor1":"UNITED STATES","Actor1_Country":"USA","Actor2":"MEDIA","Actor2_Country":null,"Code":10,"Class":1,"Action_Location":"Boise, Idaho, United States","Lat":43.6135,"Long":-116.203,"Timestamp":20181105200000,"Source":"https:\/\/lmtribune.com\/northwest\/gop-there-s-a-troll-on-kristin-collum-s-staff\/article_34b5be4c-7a58-5757-8289-ae96a4d02bff.html"},{"ID":800231548,"Actor1":"UNITED STATES","Actor1_Country":"USA","Actor2":"MEDIA","Actor2_Country":null,"Code":112,"Class":3,"Action_Location":"Boise, Idaho, United States","Lat":43.6135,"Long":-116.203,"Timestamp":20181105200000,"Source":"https:\/\/lmtribune.com\/northwest\/gop-there-s-a-troll-on-kristin-collum-s-staff\/article_34b5be4c-7a58-5757-8289-ae96a4d02bff.html"},{"ID":800231549,"Actor1":"UNITED STATES","Actor1_Country":"USA","Actor2":"MEDIA","Actor2_Country":null,"Code":112,"Class":3,"Action_Location":"Idaho, United States","Lat":44.2394,"Long":-114.51,"Timestamp":20181105200000,"Source":"https:\/\/lmtribune.com\/northwest\/gop-there-s-a-troll-on-kristin-collum-s-staff\/article_34b5be4c-7a58-5757-8289-ae96a4d02bff.html"},{"ID":800231752,"Actor1":"AFGHANISTAN","Actor1_Country":"AFG","Actor2":"BATTALION","Actor2_Country":null,"Code":43,"Class":1,"Action_Location":"Afghanistan","Lat":33.0,"Long":66.0,"Timestamp":20181105200000,"Source":"https:\/\/www.thestar.com\/life\/opinion\/2018\/11\/05\/quiet-heroes-inspire-change-through-a-personal-tragedy.html"},{"ID":800231756,"Actor1":"AFRICA","Actor1_Country":"AFR","Actor2":"COMPANIES","Actor2_Country":null,"Code":46,"Class":1,"Action_Location":"South Africa","Lat":-30.0,"Long":26.0,"Timestamp":20181105200000,"Source":"https:\/\/seekingalpha.com\/author\/sunil-shah"},{"ID":800231757,"Actor1":"AFRICA","Actor1_Country":"AFR","Actor2":"EUROPE","Actor2_Country":"EUR","Code":51,"Class":1,"Action_Location":"Denmark","Lat":56.0,"Long":10.0,"Timestamp":20181105200000,"Source":"http:\/\/www.technicalreviewmiddleeast.com\/business-a-management\/business-a-management\/terex-awp-appoints-new-emear-regional-sales-manager"},{"ID":800231758,"Actor1":"AFRICA","Actor1_Country":"AFR","Actor2":"EUROPE","Actor2_Country":"EUR","Code":51,"Class":1,"Action_Location":"Ireland","Lat":53.0,"Long":-8.0,"Timestamp":20181105200000,"Source":"http:\/\/www.technicalreviewmiddleeast.com\/business-a-management\/business-a-management\/terex-awp-appoints-new-emear-regional-sales-manager"},{"ID":800231759,"Actor1":"AFRICA","Actor1_Country":"AFR","Actor2":"WORKER","Actor2_Country":null,"Code":12,"Class":1,"Action_Location":"Windhoek, Khomas, Namibia","Lat":-22.57,"Long":17.0836,"Timestamp":20181105200000,"Source":"http:\/\/www.thevillager.com.na\/articles\/14192\/will-nandos-exit-trigger-investor-panic\/"},{"ID":800231760,"Actor1":"AFRICA","Actor1_Country":"AFR","Actor2":"JOURNALIST","Actor2_Country":null,"Code":55,"Class":1,"Action_Location":"University Of Cape Town, Western Cape, South Africa","Lat":-33.958,"Long":18.4608,"Timestamp":20181105200000,"Source":"http:\/\/www.sabcnews.com\/sabcnews\/uct-apologises-for-not-accepting-suttners-thesis-in-1969\/"},{"ID":800231761,"Actor1":"AFRICA","Actor1_Country":"AFR","Actor2":"JOURNALIST","Actor2_Country":null,"Code":120,"Class":3,"Action_Location":"University Of Cape Town, Western Cape, South Africa","Lat":-33.958,"Long":18.4608,"Timestamp":20181105200000,"Source":"http:\/\/www.sabcnews.com\/sabcnews\/uct-apologises-for-not-accepting-suttners-thesis-in-1969\/"},{"ID":800231762,"Actor1":"AFRICA","Actor1_Country":"AFR","Actor2":"UNITED STATES","Actor2_Country":"USA","Code":17,"Class":1,"Action_Location":"Ocoee, Florida, United States","Lat":28.5692,"Long":-81.544,"Timestamp":20181105200000,"Source":"http:\/\/www.orlandosentinel.com\/news\/orange\/os-ne-july-perry-lynching-dirt-20181105-story.html"},{"ID":800231763,"Actor1":"AFRICA","Actor1_Country":"AFR","Actor2":"AMERICAN","Actor2_Country":"USA","Code":17,"Class":1,"Action_Location":"Mississippi, United States","Lat":32.7673,"Long":-89.6812,"Timestamp":20181105200000,"Source":"http:\/\/www.orlandosentinel.com\/news\/orange\/os-ne-july-perry-lynching-dirt-20181105-story.html"},{"ID":800231764,"Actor1":"AFRICA","Actor1_Country":"AFR","Actor2":"AMERICAN","Actor2_Country":"USA","Code":42,"Class":1,"Action_Location":"Ocoee, Florida, United States","Lat":28.5692,"Long":-81.544,"Timestamp":20181105200000,"Source":"http:\/\/www.orlandosentinel.com\/news\/orange\/os-ne-july-perry-lynching-dirt-20181105-story.html"},{"ID":800231765,"Actor1":"AFRICA","Actor1_Country":"AFR","Actor2":"UNITED STATES","Actor2_Country":"USA","Code":43,"Class":1,"Action_Location":"Ocoee, Florida, United States","Lat":28.5692,"Long":-81.544,"Timestamp":20181105200000,"Source":"http:\/\/www.orlandosentinel.com\/news\/orange\/os-ne-july-perry-lynching-dirt-20181105-story.html"},{"ID":800231766,"Actor1":"AFRICA","Actor1_Country":"AFR","Actor2":"UNITED STATES","Actor2_Country":"USA","Code":43,"Class":1,"Action_Location":"Ocoee, Florida, United States","Lat":28.5692,"Long":-81.544,"Timestamp":20181105200000,"Source":"http:\/\/www.orlandosentinel.com\/news\/orange\/os-ne-july-perry-lynching-dirt-20181105-story.html"},{"ID":800231767,"Actor1":"AFRICA","Actor1_Country":"AFR","Actor2":"CAPE TOWN","Actor2_Country":"ZAF","Code":120,"Class":3,"Action_Location":"University Of Cape Town, Western Cape, South Africa","Lat":-33.958,"Long":18.4608,"Timestamp":20181105200000,"Source":"http:\/\/www.sabcnews.com\/sabcnews\/uct-apologises-for-not-accepting-suttners-thesis-in-1969\/"},{"ID":800231768,"Actor1":"FARMER","Actor1_Country":null,"Actor2":"FRANCE","Actor2_Country":"FRA","Code":42,"Class":1,"Action_Location":"Vaucouleurs, Lorraine, France","Lat":48.6031,"Long":5.66659,"Timestamp":20181105200000,"Source":"https:\/\/www.masslive.com\/entertainment\/index.ssf\/2018\/11\/wine_press_a_week_in_provence.html"},{"ID":800231769,"Actor1":"FARMER","Actor1_Country":null,"Actor2":"FRANCE","Actor2_Country":"FRA","Code":43,"Class":1,"Action_Location":"Vaucouleurs, Lorraine, France","Lat":48.6031,"Long":5.66659,"Timestamp":20181105200000,"Source":"https:\/\/www.masslive.com\/entertainment\/index.ssf\/2018\/11\/wine_press_a_week_in_provence.html"},{"ID":800231770,"Actor1":"RANCHER","Actor1_Country":null,"Actor2":"OKLAHOMA","Actor2_Country":"USA","Code":20,"Class":1,"Action_Location":"Oklahoma, United States","Lat":35.5376,"Long":-96.9247,"Timestamp":20181105200000,"Source":"http:\/\/www.hpj.com\/ag_news\/agritourism-field-day-set-for-nov-in-tuttle\/article_549b2c26-e110-11e8-bcc0-e30b43e52ce4.html"},{"ID":800231771,"Actor1":"DUBAI","Actor1_Country":"ARE","Actor2":"NIGERIA","Actor2_Country":"NGA","Code":40,"Class":1,"Action_Location":"Nigeria","Lat":10.0,"Long":8.0,"Timestamp":20181105200000,"Source":"https:\/\/www.pulse.ng\/news\/politics\/apc-is-fretting-over-our-strategy-meeting-in-dubai-pdp-id9074109.html"},{"ID":800231772,"Actor1":"UNITED ARAB EMIRATES","Actor1_Country":"ARE","Actor2":"UNITED STATES","Actor2_Country":"USA","Code":46,"Class":1,"Action_Location":"Dubai, Dubayy, United Arab Emirates","Lat":25.2522,"Long":55.28,"Timestamp":20181105200000,"Source":"https:\/\/thegrapevine.theroot.com\/he-tried-it-rihanna-tells-trump-to-stop-playing-her-mu-1830227093"},{"ID":800231773,"Actor1":"UNITED ARAB EMIRATES","Actor1_Country":"ARE","Actor2":"UNITED STATES","Actor2_Country":"USA","Code":46,"Class":1,"Action_Location":"Washington, District of Columbia, United States","Lat":38.8951,"Long":-77.0364,"Timestamp":20181105200000,"Source":"https:\/\/thegrapevine.theroot.com\/he-tried-it-rihanna-tells-trump-to-stop-playing-her-mu-1830227093"},{"ID":800231774,"Actor1":"UNITED ARAB EMIRATES","Actor1_Country":"ARE","Actor2":"UNITED STATES","Actor2_Country":"USA","Code":841,"Class":2,"Action_Location":"Dubai, Dubayy, United Arab Emirates","Lat":25.2522,"Long":55.28,"Timestamp":20181105200000,"Source":"https:\/\/thegrapevine.theroot.com\/he-tried-it-rihanna-tells-trump-to-stop-playing-her-mu-1830227093"},{"ID":800231778,"Actor1":"ARGENTINA","Actor1_Country":"ARG","Actor2":"PETROBRAS","Actor2_Country":"BRA","Code":43,"Class":1,"Action_Location":"Buenos Aires, Distrito Federal, Argentina","Lat":-34.5875,"Long":-58.6725,"Timestamp":20181105200000,"Source":"https:\/\/www.wkrb13.com\/2018\/11\/05\/head-to-head-review-petrobras-argentina-pze-versus-petroquest-energy-pq.html"},{"ID":800231781,"Actor1":"ARMENIAN","Actor1_Country":"ARM","Actor2":"STUDENT","Actor2_Country":null,"Code":43,"Class":1,"Action_Location":"Yerevan, Yerevan*, Armenia","Lat":40.1811,"Long":44.5136,"Timestamp":20181105200000,"Source":"https:\/\/armenianweekly.com\/2018\/11\/05\/notes-from-the-first-two-armenian-town-halls-in-new-york-city\/"},{"ID":800231782,"Actor1":"ARMENIA","Actor1_Country":"ARM","Actor2":"STUDENT","Actor2_Country":null,"Code":43,"Class":1,"Action_Location":"Washington, District of Columbia, United States","Lat":38.8951,"Long":-77.0364,"Timestamp":20181105200000,"Source":"https:\/\/armenianweekly.com\/2018\/11\/05\/notes-from-the-first-two-armenian-town-halls-in-new-york-city\/"},{"ID":800231783,"Actor1":"ARMENIA","Actor1_Country":"ARM","Actor2":"REPRESENTATIVES","Actor2_Country":null,"Code":40,"Class":1,"Action_Location":"Yerevan, Yerevan*, Armenia","Lat":40.1811,"Long":44.5136,"Timestamp":20181105200000,"Source":"https:\/\/armenianweekly.com\/2018\/11\/05\/notes-from-the-first-two-armenian-town-halls-in-new-york-city\/"},{"ID":800231789,"Actor1":"MURRAY","Actor1_Country":"AUS","Actor2":"CHINESE","Actor2_Country":"CHN","Code":10,"Class":1,"Action_Location":"Shanghai, Shanghai, China","Lat":31.2222,"Long":121.458,"Timestamp":20181105200000,"Source":"http:\/\/www.wyomingpublicmedia.org\/post\/archives-air-80-american-china-murray-coggeshall-diary"},{"ID":800231790,"Actor1":"QUEENSLAND","Actor1_Country":"AUS","Actor2":"PRIME MINISTER","Actor2_Country":null,"Code":36,"Class":1,"Action_Location":"Australia","Lat":-25.0,"Long":135.0,"Timestamp":20181105200000,"Source":"http:\/\/theindianawaaz.com\/australia-extends-working-holiday-visas-to-ease-farm-labourers-shortage\/"},{"ID":800231791,"Actor1":"AUSTRALIA","Actor1_Country":"AUS","Actor2":"TONGA","Actor2_Country":"TON","Code":60,"Class":2,"Action_Location":"Australia","Lat":-25.0,"Long":135.0,"Timestamp":20181105200000,"Source":"http:\/\/www.tonga-broadcasting.net\/?p=13428"},{"ID":800231792,"Actor1":"AUSTRALIA","Actor1_Country":"AUS","Actor2":"TONGA","Actor2_Country":"TON","Code":60,"Class":2,"Action_Location":"Australia","Lat":-25.0,"Long":135.0,"Timestamp":20181105200000,"Source":"http:\/\/www.tonga-broadcasting.net\/?p=13428"},{"ID":800231793,"Actor1":"AUSTRALIA","Actor1_Country":"AUS","Actor2":"TONGA","Actor2_Country":"TON","Code":70,"Class":2,"Action_Location":"Australia","Lat":-25.0,"Long":135.0,"Timestamp":20181105200000,"Source":"http:\/\/www.tonga-broadcasting.net\/?p=13428"},{"ID":800231794,"Actor1":"AUSTRALIA","Actor1_Country":"AUS","Actor2":"TONGA","Actor2_Country":"TON","Code":70,"Class":2,"Action_Location":"Australia","Lat":-25.0,"Long":135.0,"Timestamp":20181105200000,"Source":"http:\/\/www.tonga-broadcasting.net\/?p=13428"},{"ID":800231795,"Actor1":"AUSTRALIA","Actor1_Country":"AUS","Actor2":"UNITED STATES","Actor2_Country":"USA","Code":51,"Class":1,"Action_Location":"Hollywood, California, United States","Lat":34.0983,"Long":-118.327,"Timestamp":20181105200000,"Source":"https:\/\/www.themorningbulletin.com.au\/news\/2018-hollywood-film-awards-hugh-jackman-takes-out-\/3568205\/"},{"ID":800231796,"Actor1":"AUSTRALIA","Actor1_Country":"AUS","Actor2":"THE US","Actor2_Country":"USA","Code":60,"Class":2,"Action_Location":"United Kingdom","Lat":54.0,"Long":-4.0,"Timestamp":20181105200000,"Source":"https:\/\/www.printingnews.com\/software-workflow\/press-release\/21030670\/xitron-llc-xitron-awarded-patent-for-innovative-usbscsi-interface"},{"ID":800231797,"Actor1":"VICTORIA","Actor1_Country":"AUS","Actor2":"UNITED STATES","Actor2_Country":"USA","Code":173,"Class":4,"Action_Location":"Dallas, Texas, United States","Lat":32.7831,"Long":-96.8067,"Timestamp":20181105200000,"Source":"https:\/\/www.centralmaine.com\/2018\/11\/05\/morning-sentinel-nov-5-police-log-5\/"},{"ID":800231798,"Actor1":"BAHRAIN","Actor1_Country":"BHR","Actor2":"ISRAEL","Actor2_Country":"ISR","Code":19,"Class":1,"Action_Location":"Bahrain","Lat":26.0,"Long":50.5,"Timestamp":20181105200000,"Source":"https:\/\/www.timesofisrael.com\/us-envoy-cheers-ministers-visit-to-oman-as-sign-of-warming-ties\/"},{"ID":800231799,"Actor1":"BAHRAIN","Actor1_Country":"BHR","Actor2":"ISRAEL","Actor2_Country":"ISR","Code":19,"Class":1,"Action_Location":"Bahrain","Lat":26.0,"Long":50.5,"Timestamp":20181105200000,"Source":"https:\/\/www.timesofisrael.com\/us-envoy-cheers-ministers-visit-to-oman-as-sign-of-warming-ties\/"},{"ID":800231800,"Actor1":"BAHRAIN","Actor1_Country":"BHR","Actor2":"ISRAEL","Actor2_Country":"ISR","Code":19,"Class":1,"Action_Location":"Israel","Lat":31.5,"Long":34.75,"Timestamp":20181105200000,"Source":"https:\/\/www.timesofisrael.com\/us-envoy-cheers-ministers-visit-to-oman-as-sign-of-warming-ties\/"},{"ID":800231801,"Actor1":"BAHRAIN","Actor1_Country":"BHR","Actor2":"ISRAELI","Actor2_Country":"ISR","Code":40,"Class":1,"Action_Location":"Israel","Lat":31.5,"Long":34.75,"Timestamp":20181105200000,"Source":"https:\/\/www.timesofisrael.com\/us-envoy-cheers-ministers-visit-to-oman-as-sign-of-warming-ties\/"},{"ID":800231802,"Actor1":"BAHRAIN","Actor1_Country":"BHR","Actor2":"ISRAEL","Actor2_Country":"ISR","Code":51,"Class":1,"Action_Location":"Israel","Lat":31.5,"Long":34.75,"Timestamp":20181105200000,"Source":"https:\/\/www.timesofisrael.com\/us-envoy-cheers-ministers-visit-to-oman-as-sign-of-warming-ties\/"},{"ID":800231829,"Actor1":"COMPANIES","Actor1_Country":null,"Actor2":"AFRICA","Actor2_Country":"AFR","Code":46,"Class":1,"Action_Location":"South Africa","Lat":-30.0,"Long":26.0,"Timestamp":20181105200000,"Source":"https:\/\/seekingalpha.com\/author\/sunil-shah"},{"ID":800231830,"Actor1":"COMPANY","Actor1_Country":null,"Actor2":"DUBAI","Actor2_Country":"ARE","Code":192,"Class":4,"Action_Location":"Dubai, Dubayy, United Arab Emirates","Lat":25.2522,"Long":55.28,"Timestamp":20181105200000,"Source":"https:\/\/www.biometricupdate.com\/201811\/touche-announces-bank-in-united-arab-emirates-as-first-big-middle-east-customer"},{"ID":800231831,"Actor1":"CORPORATION","Actor1_Country":null,"Actor2":"CHINESE","Actor2_Country":"CHN","Code":10,"Class":1,"Action_Location":"China","Lat":35.0,"Long":105.0,"Timestamp":20181105200000,"Source":"https:\/\/zambiareports.com\/2018\/11\/05\/83-arrested-kitwe-riots\/"},{"ID":800231832,"Actor1":"BUSINESS","Actor1_Country":null,"Actor2":"CHINESE","Actor2_Country":"CHN","Code":40,"Class":1,"Action_Location":"Yangjiang, Guangdong, China","Lat":21.85,"Long":111.967,"Timestamp":20181105200000,"Source":"https:\/\/renews.biz\/49880\/chinese-mission-taps-uk-offshore-nous\/"},{"ID":800231833,"Actor1":"CORPORATION","Actor1_Country":null,"Actor2":"CHINESE","Actor2_Country":"CHN","Code":10,"Class":1,"Action_Location":"China","Lat":35.0,"Long":105.0,"Timestamp":20181105200000,"Source":"https:\/\/zambiareports.com\/2018\/11\/05\/83-arrested-kitwe-riots\/"},{"ID":800231834,"Actor1":"CORPORATION","Actor1_Country":null,"Actor2":"CHINESE","Actor2_Country":"CHN","Code":60,"Class":2,"Action_Location":"China","Lat":35.0,"Long":105.0,"Timestamp":20181105200000,"Source":"https:\/\/zambiareports.com\/2018\/11\/05\/83-arrested-kitwe-riots\/"},{"ID":800231835,"Actor1":"BANK","Actor1_Country":null,"Actor2":"PRISON","Actor2_Country":null,"Code":173,"Class":4,"Action_Location":"Connaught Place, Delhi, India","Lat":28.6333,"Long":77.2167,"Timestamp":20181105200000,"Source":"https:\/\/indianexpress.com\/article\/opinion\/editorials\/november-6-1978-forty-years-ago-delhi-akali-violence-5435392\/"},{"ID":800231837,"Actor1":"ENTREPRENEUR","Actor1_Country":null,"Actor2":"COMMUNITY","Actor2_Country":null,"Code":36,"Class":1,"Action_Location":"Toronto, Ontario, Canada","Lat":43.6667,"Long":-79.4167,"Timestamp":20181105200000,"Source":"http:\/\/www.digitaljournal.com\/business\/mesh-to-host-digital-transformation-meetup-nov-21-in-toronto\/article\/536190"},{"ID":800231838,"Actor1":"COMPANY","Actor1_Country":null,"Actor2":"VILLAGER","Actor2_Country":null,"Code":40,"Class":1,"Action_Location":"South Africa","Lat":-30.0,"Long":26.0,"Timestamp":20181105200000,"Source":"http:\/\/www.thevillager.com.na\/articles\/14192\/will-nandos-exit-trigger-investor-panic\/"},{"ID":800231839,"Actor1":"COMPANIES","Actor1_Country":null,"Actor2":"CITIZEN","Actor2_Country":null,"Code":57,"Class":1,"Action_Location":"Lisbon, Lisboa, Portugal","Lat":38.7167,"Long":-9.13333,"Timestamp":20181105200000,"Source":"https:\/\/www.cnet.com\/news\/tim-berners-lee-unveils-contract-to-protect-and-strengthen-the-web\/"},{"ID":800231840,"Actor1":"COMPANIES","Actor1_Country":null,"Actor2":"CITIZEN","Actor2_Country":null,"Code":57,"Class":1,"Action_Location":"London, London, City of, United Kingdom","Lat":51.5,"Long":-0.116667,"Timestamp":20181105200000,"Source":"https:\/\/www.cnet.com\/news\/tim-berners-lee-unveils-contract-to-protect-and-strengthen-the-web\/"},{"ID":800231841,"Actor1":"BUSINESS","Actor1_Country":null,"Actor2":"LONDON","Actor2_Country":"GBR","Code":60,"Class":2,"Action_Location":"London, London, City of, United Kingdom","Lat":51.5,"Long":-0.116667,"Timestamp":20181105200000,"Source":"http:\/\/www.cityam.com\/268392\/co-op-could-offload-its-insurance-arm-300m-deal"},{"ID":800231842,"Actor1":"BUSINESS","Actor1_Country":null,"Actor2":"GOVERNMENT","Actor2_Country":null,"Code":31,"Class":1,"Action_Location":"Andhra, Andhra Pradesh, India","Lat":18.0,"Long":79.5,"Timestamp":20181105200000,"Source":"https:\/\/indianexpress.com\/article\/explained\/telangana-assembly-elections-congress-tdp-alliance-prajakutami-k-chandrashekar-rao-5435401\/"},{"ID":800231843,"Actor1":"COMPANIES","Actor1_Country":null,"Actor2":"GOVERNMENT","Actor2_Country":null,"Code":57,"Class":1,"Action_Location":"Lisbon, Lisboa, Portugal","Lat":38.7167,"Long":-9.13333,"Timestamp":20181105200000,"Source":"https:\/\/www.cnet.com\/news\/tim-berners-lee-unveils-contract-to-protect-and-strengthen-the-web\/"},{"ID":800231844,"Actor1":"COMPANIES","Actor1_Country":null,"Actor2":"GOVERNMENT","Actor2_Country":null,"Code":57,"Class":1,"Action_Location":"London, London, City of, United Kingdom","Lat":51.5,"Long":-0.116667,"Timestamp":20181105200000,"Source":"https:\/\/www.cnet.com\/news\/tim-berners-lee-unveils-contract-to-protect-and-strengthen-the-web\/"},{"ID":800231845,"Actor1":"COMPANY","Actor1_Country":null,"Actor2":"HOSPITAL","Actor2_Country":null,"Code":36,"Class":1,"Action_Location":"Houston, Texas, United States","Lat":29.7633,"Long":-95.3633,"Timestamp":20181105200000,"Source":"http:\/\/www.parabolicarc.com\/2018\/11\/05\/spacex-rehearses-helicopter-landing-sea\/"},{"ID":800231846,"Actor1":"COMPANIES","Actor1_Country":null,"Actor2":"THE EU","Actor2_Country":"EUR","Code":80,"Class":2,"Action_Location":"Iran","Lat":32.0,"Long":53.0,"Timestamp":20181105200000,"Source":"https:\/\/www.gtreview.com\/news\/mena\/eu-firms-face-more-comprehensive-us-sanctions-regime-than-pre-iran-nuclear-deal\/"},{"ID":800231847,"Actor1":"BANK","Actor1_Country":null,"Actor2":"ATTORNEY","Actor2_Country":null,"Code":10,"Class":1,"Action_Location":"Connaught Place, Delhi, India","Lat":28.6333,"Long":77.2167,"Timestamp":20181105200000,"Source":"https:\/\/indianexpress.com\/article\/opinion\/editorials\/november-6-1978-forty-years-ago-delhi-akali-violence-5435392\/"},{"ID":800231848,"Actor1":"COMPANIES","Actor1_Country":null,"Actor2":"SUPREME COURT","Actor2_Country":null,"Code":30,"Class":1,"Action_Location":"Tsumeb, Oshikoto, Namibia","Lat":-19.2333,"Long":17.7167,"Timestamp":20181105200000,"Source":"http:\/\/www.thevillager.com.na\/articles\/14194\/sme-bank-still-going-after-defaulters-\/"},{"ID":800231849,"Actor1":"COMPANIES","Actor1_Country":null,"Actor2":"SUPREME COURT","Actor2_Country":null,"Code":30,"Class":1,"Action_Location":"South Africa","Lat":-30.0,"Long":26.0,"Timestamp":20181105200000,"Source":"http:\/\/www.thevillager.com.na\/articles\/14194\/sme-bank-still-going-after-defaulters-\/"},{"ID":800231850,"Actor1":"COMPANIES","Actor1_Country":null,"Actor2":"SUPREME COURT","Actor2_Country":null,"Code":30,"Class":1,"Action_Location":"South Africa","Lat":-30.0,"Long":26.0,"Timestamp":20181105200000,"Source":"http:\/\/www.thevillager.com.na\/articles\/14194\/sme-bank-still-going-after-defaulters-\/"},{"ID":800231851,"Actor1":"COMPANY","Actor1_Country":null,"Actor2":"ATTORNEY","Actor2_Country":null,"Code":61,"Class":2,"Action_Location":"Colorado, United States","Lat":39.0646,"Long":-105.327,"Timestamp":20181105200000,"Source":"https:\/\/journalstar.com\/news\/national\/colorado-lawsuit-could-ripple-through-us-cannabis-industry\/article_b9f76469-665f-5ac9-babf-2cf2d1c2c712.html"},{"ID":800231852,"Actor1":"EMPLOYER","Actor1_Country":null,"Actor2":"EMPLOYEE","Actor2_Country":null,"Code":20,"Class":1,"Action_Location":"Virginia, United States","Lat":37.768,"Long":-78.2057,"Timestamp":20181105200000,"Source":"https:\/\/www.arlnow.com\/2018\/11\/05\/legal-insider-an-insight-into-reasonable-accommodations-for-employees-in-virginia\/"},{"ID":800231853,"Actor1":"EMPLOYER","Actor1_Country":null,"Actor2":"PUBLICATION","Actor2_Country":null,"Code":10,"Class":1,"Action_Location":"Iran","Lat":32.0,"Long":53.0,"Timestamp":20181105200000,"Source":"https:\/\/www.jdsupra.com\/legalnews\/u-s-reimposes-tough-sanctions-on-iran-54842\/"},{"ID":800231854,"Actor1":"AIRLINE","Actor1_Country":null,"Actor2":"DELTA AIR LINES","Actor2_Country":"USA","Code":46,"Class":1,"Action_Location":"Washington, District of Columbia, United States","Lat":38.8951,"Long":-77.0364,"Timestamp":20181105200000,"Source":"https:\/\/wtop.com\/business-finance\/2018\/11\/southwest-adds-flights-at-reagan-national-free-movies\/"},{"ID":800231855,"Actor1":"BUSINESS","Actor1_Country":null,"Actor2":"AMIT","Actor2_Country":"USA","Code":10,"Class":1,"Action_Location":"Bengaluru, Karnataka, India","Lat":12.9833,"Long":77.5833,"Timestamp":20181105200000,"Source":"https:\/\/www.livemint.com\/Companies\/4zXNkBTrW1p9lrv24jAvIO\/Flipkart-Amazon-treble-their-average-sales-in-October.html"},{"ID":800231856,"Actor1":"BUSINESS","Actor1_Country":null,"Actor2":"UNITED STATES","Actor2_Country":"USA","Code":10,"Class":1,"Action_Location":"Texas, United States","Lat":31.106,"Long":-97.6475,"Timestamp":20181105200000,"Source":"https:\/\/www.stltoday.com\/business\/investment\/personal-finance\/facebook-pulls-trump-campaign-s-racist-anti-immigration-ad\/article_66e983dc-7fa7-55f9-b0ae-8c635e043f91.html"},{"ID":800231858,"Actor1":"COMPANY","Actor1_Country":null,"Actor2":"UNITED STATES","Actor2_Country":"USA","Code":43,"Class":1,"Action_Location":"Maryland, United States","Lat":39.0724,"Long":-76.7902,"Timestamp":20181105200000,"Source":"http:\/\/www.baltimoresun.com\/news\/maryland\/politics\/bs-md-bz-election-printers-20181102-story.html"},{"ID":800231859,"Actor1":"CREDIT UNION","Actor1_Country":null,"Actor2":"IDAHO","Actor2_Country":"USA","Code":60,"Class":2,"Action_Location":"Boise, Idaho, United States","Lat":43.6135,"Long":-116.203,"Timestamp":20181105200000,"Source":"http:\/\/liteonline.com\/farmstead-closes-last-season-at-i-84-and-eagle\/"},{"ID":800231861,"Actor1":"BOSS","Actor1_Country":null,"Actor2":"UNITED STATES","Actor2_Country":"USA","Code":112,"Class":3,"Action_Location":"Kansas, United States","Lat":38.5111,"Long":-96.8005,"Timestamp":20181105200000,"Source":"http:\/\/www.kbia.org\/post\/noonletter-nov-5-2018"},{"ID":800231862,"Actor1":"AIRLINE","Actor1_Country":null,"Actor2":"AMERICAN","Actor2_Country":"USA","Code":46,"Class":1,"Action_Location":"Washington, District of Columbia, United States","Lat":38.8951,"Long":-77.0364,"Timestamp":20181105200000,"Source":"https:\/\/wtop.com\/business-finance\/2018\/11\/southwest-adds-flights-at-reagan-national-free-movies\/"},{"ID":800231863,"Actor1":"BANK","Actor1_Country":null,"Actor2":"PUBLICATION","Actor2_Country":null,"Code":10,"Class":1,"Action_Location":"South Africa","Lat":-30.0,"Long":26.0,"Timestamp":20181105200000,"Source":"http:\/\/www.thevillager.com.na\/articles\/14194\/sme-bank-still-going-after-defaulters-\/"},{"ID":800231882,"Actor1":"CANADA","Actor1_Country":"CAN","Actor2":"BUSINESS","Actor2_Country":null,"Code":831,"Class":2,"Action_Location":"Cloverdale, British Columbia, Canada","Lat":49.1,"Long":-122.733,"Timestamp":20181105200000,"Source":"https:\/\/www.cloverdalereporter.com\/news\/doug-ford-announces-cabinet-shuffle-months-into-mandate\/"},{"ID":800231883,"Actor1":"CANADA","Actor1_Country":"CAN","Actor2":"BUSINESS","Actor2_Country":null,"Code":831,"Class":2,"Action_Location":"Cloverdale, British Columbia, Canada","Lat":49.1,"Long":-122.733,"Timestamp":20181105200000,"Source":"https:\/\/www.cloverdalereporter.com\/news\/doug-ford-announces-cabinet-shuffle-months-into-mandate\/"},{"ID":800231884,"Actor1":"CANADA","Actor1_Country":"CAN","Actor2":"CANADA","Actor2_Country":"CAN","Code":42,"Class":1,"Action_Location":"Telegraph Creek, British Columbia, Canada","Lat":57.9,"Long":-131.15,"Timestamp":20181105200000,"Source":"http:\/\/www.cftktv.com\/News\/Telegraph-Evacuation-to-be-lifted"},{"ID":800231885,"Actor1":"CANADA","Actor1_Country":"CAN","Actor2":"CANADA","Actor2_Country":"CAN","Code":51,"Class":1,"Action_Location":"Telegraph Creek, British Columbia, Canada","Lat":57.9,"Long":-131.15,"Timestamp":20181105200000,"Source":"http:\/\/www.cftktv.com\/News\/Telegraph-Evacuation-to-be-lifted"},{"ID":800231886,"Actor1":"CANADA","Actor1_Country":"CAN","Actor2":"SCHOOL","Actor2_Country":null,"Code":10,"Class":1,"Action_Location":"Brookfield, Nova Scotia, Canada","Lat":45.25,"Long":-63.2833,"Timestamp":20181105200000,"Source":"https:\/\/www.thegatewayonline.ca\/2018\/11\/u-of-a-establishes-new-school-of-urban-and-regional-planning\/"},{"ID":800231887,"Actor1":"NEW BRUNSWICK","Actor1_Country":"CAN","Actor2":"UNITED KINGDOM","Actor2_Country":"GBR","Code":20,"Class":1,"Action_Location":"France","Lat":46.0,"Long":2.0,"Timestamp":20181105200000,"Source":"https:\/\/www.cbc.ca\/news\/canada\/new-brunswick\/gallant-liberal-leadership-review-1.4892519"},{"ID":800231888,"Actor1":"NEW BRUNSWICK","Actor1_Country":"CAN","Actor2":"UNITED KINGDOM","Actor2_Country":"GBR","Code":20,"Class":1,"Action_Location":"United Kingdom","Lat":54.0,"Long":-4.0,"Timestamp":20181105200000,"Source":"https:\/\/www.cbc.ca\/news\/canada\/new-brunswick\/gallant-liberal-leadership-review-1.4892519"},{"ID":800231889,"Actor1":"NEW BRUNSWICK","Actor1_Country":"CAN","Actor2":"UNITED KINGDOM","Actor2_Country":"GBR","Code":43,"Class":1,"Action_Location":"United Kingdom","Lat":54.0,"Long":-4.0,"Timestamp":20181105200000,"Source":"https:\/\/www.cbc.ca\/news\/canada\/new-brunswick\/gallant-liberal-leadership-review-1.4892519"},{"ID":800231890,"Actor1":"CANADA","Actor1_Country":"CAN","Actor2":"MINIST","Actor2_Country":null,"Code":51,"Class":1,"Action_Location":"Telegraph Creek, British Columbia, Canada","Lat":57.9,"Long":-131.15,"Timestamp":20181105200000,"Source":"http:\/\/www.cftktv.com\/News\/Telegraph-Evacuation-to-be-lifted"},{"ID":800231891,"Actor1":"CANADA","Actor1_Country":"CAN","Actor2":"URUGUAY","Actor2_Country":"URY","Code":81,"Class":2,"Action_Location":"Uruguay","Lat":-33.0,"Long":-56.0,"Timestamp":20181105200000,"Source":"https:\/\/www.newsweek.com\/billionaire-endorsed-snoop-dogg-launch-miracle-cannabis-products-united-1201835"},{"ID":800231892,"Actor1":"CANADA","Actor1_Country":"CAN","Actor2":"URUGUAY","Actor2_Country":"URY","Code":81,"Class":2,"Action_Location":"Canada","Lat":60.0,"Long":-96.0,"Timestamp":20181105200000,"Source":"https:\/\/www.newsweek.com\/billionaire-endorsed-snoop-dogg-launch-miracle-cannabis-products-united-1201835"},{"ID":800231893,"Actor1":"CANADA","Actor1_Country":"CAN","Actor2":"UNITED STATES","Actor2_Country":"USA","Code":25,"Class":1,"Action_Location":"Houston, Texas, United States","Lat":29.7633,"Long":-95.3633,"Timestamp":20181105200000,"Source":"http:\/\/www.cftktv.com\/News\/Animal-Abuse-case"},{"ID":800231894,"Actor1":"CANADA","Actor1_Country":"CAN","Actor2":"UNITED STATES","Actor2_Country":"USA","Code":25,"Class":1,"Action_Location":"Canada","Lat":60.0,"Long":-96.0,"Timestamp":20181105200000,"Source":"http:\/\/www.cftktv.com\/News\/Animal-Abuse-case"},{"ID":800231895,"Actor1":"CANADA","Actor1_Country":"CAN","Actor2":"INDIGENOUS","Actor2_Country":null,"Code":51,"Class":1,"Action_Location":"Telegraph Creek, British Columbia, Canada","Lat":57.9,"Long":-131.15,"Timestamp":20181105200000,"Source":"http:\/\/www.cftktv.com\/News\/Telegraph-Evacuation-to-be-lifted"},{"ID":800231896,"Actor1":"CANADA","Actor1_Country":"CAN","Actor2":"CANADA","Actor2_Country":"CAN","Code":43,"Class":1,"Action_Location":"Telegraph Creek, British Columbia, Canada","Lat":57.9,"Long":-131.15,"Timestamp":20181105200000,"Source":"http:\/\/www.cftktv.com\/News\/Telegraph-Evacuation-to-be-lifted"},{"ID":800231897,"Actor1":"ALBERTA","Actor1_Country":"CAN","Actor2":"SCHOOL","Actor2_Country":null,"Code":45,"Class":1,"Action_Location":"Brookfield, Nova Scotia, Canada","Lat":45.25,"Long":-63.2833,"Timestamp":20181105200000,"Source":"https:\/\/www.thegatewayonline.ca\/2018\/11\/u-of-a-establishes-new-school-of-urban-and-regional-planning\/"},{"ID":800231898,"Actor1":"CANADA","Actor1_Country":"CAN","Actor2":"ONTARIO","Actor2_Country":"CAN","Code":253,"Class":1,"Action_Location":"Toronto, Ontario, Canada","Lat":43.6667,"Long":-79.4167,"Timestamp":20181105200000,"Source":"https:\/\/www.canadianunderwriter.ca\/insurance\/top-court-hear-disputed-claim-arising-550-million-ponzi-scheme-loss-1004139660\/"},{"ID":800231899,"Actor1":"CANADA","Actor1_Country":"CAN","Actor2":"ONTARIO","Actor2_Country":"CAN","Code":253,"Class":1,"Action_Location":"Houston, Texas, United States","Lat":29.7633,"Long":-95.3633,"Timestamp":20181105200000,"Source":"https:\/\/www.canadianunderwriter.ca\/insurance\/top-court-hear-disputed-claim-arising-550-million-ponzi-scheme-loss-1004139660\/"},{"ID":800231900,"Actor1":"CANADA","Actor1_Country":"CAN","Actor2":"ONTARIO","Actor2_Country":"CAN","Code":84,"Class":2,"Action_Location":"Toronto, Ontario, Canada","Lat":43.6667,"Long":-79.4167,"Timestamp":20181105200000,"Source":"https:\/\/www.canadianunderwriter.ca\/insurance\/top-court-hear-disputed-claim-arising-550-million-ponzi-scheme-loss-1004139660\/"},{"ID":800231901,"Actor1":"CANADA","Actor1_Country":"CAN","Actor2":"TORONTO DOMINION","Actor2_Country":"CAN","Code":84,"Class":2,"Action_Location":"Toronto, Ontario, Canada","Lat":43.6667,"Long":-79.4167,"Timestamp":20181105200000,"Source":"https:\/\/www.canadianunderwriter.ca\/insurance\/top-court-hear-disputed-claim-arising-550-million-ponzi-scheme-loss-1004139660\/"},{"ID":800231902,"Actor1":"CANADA","Actor1_Country":"CAN","Actor2":"UNITED STATES","Actor2_Country":"USA","Code":10,"Class":1,"Action_Location":"Houston, Texas, United States","Lat":29.7633,"Long":-95.3633,"Timestamp":20181105200000,"Source":"http:\/\/www.cftktv.com\/News\/Animal-Abuse-case"},{"ID":800231903,"Actor1":"SWITZERLAND","Actor1_Country":"CHE","Actor2":"PRESIDENT","Actor2_Country":null,"Code":43,"Class":1,"Action_Location":"Denmark","Lat":56.0,"Long":10.0,"Timestamp":20181105200000,"Source":"https:\/\/www.krem.com\/article\/news\/nation-now\/read-transcript-of-usa-today-interview-with-iranian-foreign-minister-mohammad-javad-zarif\/465-89b04798-bef0-42b1-b10c-4e645f19472c"},{"ID":800231904,"Actor1":"SWITZERLAND","Actor1_Country":"CHE","Actor2":"PRESIDENT","Actor2_Country":null,"Code":43,"Class":1,"Action_Location":"Switzerland","Lat":47.0,"Long":8.0,"Timestamp":20181105200000,"Source":"https:\/\/www.krem.com\/article\/news\/nation-now\/read-transcript-of-usa-today-interview-with-iranian-foreign-minister-mohammad-javad-zarif\/465-89b04798-bef0-42b1-b10c-4e645f19472c"},{"ID":800231905,"Actor1":"SWITZERLAND","Actor1_Country":"CHE","Actor2":"DETROIT","Actor2_Country":"USA","Code":42,"Class":1,"Action_Location":"California, United States","Lat":36.17,"Long":-119.746,"Timestamp":20181105200000,"Source":"https:\/\/www.jckonline.com\/editorial-article\/american-watchmakings-season\/"},{"ID":800231906,"Actor1":"CHILE","Actor1_Country":"CHL","Actor2":"DELEGATE","Actor2_Country":null,"Code":43,"Class":1,"Action_Location":"Chile","Lat":-30.0,"Long":-71.0,"Timestamp":20181105200000,"Source":"http:\/\/www.newspressnow.com\/life\/runcie-club-enjoys-variety-of-educational-programs\/article_278b4ed1-0156-5866-a68b-3adcf3e57f37.html"},{"ID":800231907,"Actor1":"CHILE","Actor1_Country":"CHL","Actor2":"ROTARY CLUB","Actor2_Country":null,"Code":40,"Class":1,"Action_Location":"Chile","Lat":-30.0,"Long":-71.0,"Timestamp":20181105200000,"Source":"http:\/\/www.newspressnow.com\/life\/runcie-club-enjoys-variety-of-educational-programs\/article_278b4ed1-0156-5866-a68b-3adcf3e57f37.html"},{"ID":800231908,"Actor1":"CHILE","Actor1_Country":"CHL","Actor2":"ROTARY CLUB","Actor2_Country":null,"Code":42,"Class":1,"Action_Location":"Chile","Lat":-30.0,"Long":-71.0,"Timestamp":20181105200000,"Source":"http:\/\/www.newspressnow.com\/life\/runcie-club-enjoys-variety-of-educational-programs\/article_278b4ed1-0156-5866-a68b-3adcf3e57f37.html"},{"ID":800231912,"Actor1":"CHINESE","Actor1_Country":"CHN","Actor2":"BUSINESS","Actor2_Country":null,"Code":40,"Class":1,"Action_Location":"Yangjiang, Guangdong, China","Lat":21.85,"Long":111.967,"Timestamp":20181105200000,"Source":"https:\/\/renews.biz\/49880\/chinese-mission-taps-uk-offshore-nous\/"},{"ID":800231913,"Actor1":"CHINA","Actor1_Country":"CHN","Actor2":"CHINA","Actor2_Country":"CHN","Code":42,"Class":1,"Action_Location":"Chengdu, Sichuan, China","Lat":30.6667,"Long":104.067,"Timestamp":20181105200000,"Source":"https:\/\/www.bakersfield.com\/ap\/national\/china-s-make-or-break-program-sends-pandas-back-into\/article_249a17ae-9db1-5473-ad62-e2d062b27e97.html"},{"ID":800231914,"Actor1":"CHINESE","Actor1_Country":"CHN","Actor2":"CHINA","Actor2_Country":"CHN","Code":42,"Class":1,"Action_Location":"Beijing, Beijing, China","Lat":39.9289,"Long":116.388,"Timestamp":20181105200000,"Source":"https:\/\/www.bakersfield.com\/ap\/national\/china-s-make-or-break-program-sends-pandas-back-into\/article_249a17ae-9db1-5473-ad62-e2d062b27e97.html"},{"ID":800231915,"Actor1":"CHINA","Actor1_Country":"CHN","Actor2":"CHINA","Actor2_Country":"CHN","Code":100,"Class":3,"Action_Location":"Shenzhen, Guangdong, China","Lat":22.2,"Long":111.117,"Timestamp":20181105200000,"Source":"https:\/\/www.lawgazette.co.uk\/law\/china-paris-forum-targets-global-supremacy-in-dispute-resolution\/5068115.article"},{"ID":800231916,"Actor1":"CHINA","Actor1_Country":"CHN","Actor2":"COLOMBIA","Actor2_Country":"COL","Code":80,"Class":2,"Action_Location":"Sinaloa, Tabasco, Mexico","Lat":18.4917,"Long":-93.75,"Timestamp":20181105200000,"Source":"https:\/\/www.msn.com\/en-us\/news\/crime\/billionaire-partner-of-imprisoned-chapo-consolidates-empire\/ar-BBPmhWa"},{"ID":800231917,"Actor1":"CHINA","Actor1_Country":"CHN","Actor2":"COLOMBIA","Actor2_Country":"COL","Code":80,"Class":2,"Action_Location":"China","Lat":35.0,"Long":105.0,"Timestamp":20181105200000,"Source":"https:\/\/www.msn.com\/en-us\/news\/crime\/billionaire-partner-of-imprisoned-chapo-consolidates-empire\/ar-BBPmhWa"},{"ID":800231918,"Actor1":"CHINESE","Actor1_Country":"CHN","Actor2":"RESIDENTS","Actor2_Country":null,"Code":46,"Class":1,"Action_Location":"China","Lat":35.0,"Long":105.0,"Timestamp":20181105200000,"Source":"https:\/\/zambiareports.com\/2018\/11\/05\/83-arrested-kitwe-riots\/"},{"ID":800231919,"Actor1":"CHINA","Actor1_Country":"CHN","Actor2":"STUDENT","Actor2_Country":null,"Code":42,"Class":1,"Action_Location":"Beijing, Beijing, China","Lat":39.9289,"Long":116.388,"Timestamp":20181105200000,"Source":"https:\/\/meaww.com\/police-let-chinese-billionaire-richard-liu-walk-free-despite-claims-from-student-raped-her"},{"ID":800231920,"Actor1":"CHINA","Actor1_Country":"CHN","Actor2":"STUDENT","Actor2_Country":null,"Code":43,"Class":1,"Action_Location":"Beijing, Beijing, China","Lat":39.9289,"Long":116.388,"Timestamp":20181105200000,"Source":"https:\/\/meaww.com\/police-let-chinese-billionaire-richard-liu-walk-free-despite-claims-from-student-raped-her"},{"ID":800231921,"Actor1":"CHINESE","Actor1_Country":"CHN","Actor2":"ADMINISTRATION","Actor2_Country":null,"Code":50,"Class":1,"Action_Location":"Shanghai, Shanghai, China","Lat":31.2222,"Long":121.458,"Timestamp":20181105200000,"Source":"https:\/\/www.breitbart.com\/asia\/2018\/11\/05\/xi-jinping-globalization-happen-independent-peoples-will\/"},{"ID":800231922,"Actor1":"SHANGHAI","Actor1_Country":"CHN","Actor2":"GOVERNMENT","Actor2_Country":null,"Code":84,"Class":2,"Action_Location":"Shanghai, Shanghai, China","Lat":31.2222,"Long":121.458,"Timestamp":20181105200000,"Source":"http:\/\/www.atimes.com\/article\/shanghai-to-prop-up-private-firms-with-us4-35-bn\/"},{"ID":800231923,"Actor1":"BEIJING","Actor1_Country":"CHN","Actor2":"THE UN","Actor2_Country":null,"Code":111,"Class":3,"Action_Location":"Beijing, Beijing, China","Lat":39.9289,"Long":116.388,"Timestamp":20181105200000,"Source":"https:\/\/indianexpress.com\/article\/opinion\/editorials\/india-china-pakistan-relations-imran-khan-5435378\/"},{"ID":800231924,"Actor1":"CHINA","Actor1_Country":"CHN","Actor2":"DELHI","Actor2_Country":"IND","Code":10,"Class":1,"Action_Location":"Delhi, Delhi, India","Lat":28.6667,"Long":77.2167,"Timestamp":20181105200000,"Source":"https:\/\/indianexpress.com\/article\/opinion\/editorials\/india-china-pakistan-relations-imran-khan-5435378\/"},{"ID":800231925,"Actor1":"CHINA","Actor1_Country":"CHN","Actor2":"DELHI","Actor2_Country":"IND","Code":10,"Class":1,"Action_Location":"Islamabad, Islamabad, Pakistan","Lat":33.7,"Long":73.1667,"Timestamp":20181105200000,"Source":"https:\/\/indianexpress.com\/article\/opinion\/editorials\/india-china-pakistan-relations-imran-khan-5435378\/"},{"ID":800231926,"Actor1":"CHINA","Actor1_Country":"CHN","Actor2":"JAPAN","Actor2_Country":"JPN","Code":43,"Class":1,"Action_Location":"New York, United States","Lat":42.1497,"Long":-74.9384,"Timestamp":20181105200000,"Source":"http:\/\/www.wyomingpublicmedia.org\/post\/archives-air-80-american-china-murray-coggeshall-diary"},{"ID":800231927,"Actor1":"CHINA","Actor1_Country":"CHN","Actor2":"JAPAN","Actor2_Country":"JPN","Code":43,"Class":1,"Action_Location":"Shanghai, Shanghai, China","Lat":31.2222,"Long":121.458,"Timestamp":20181105200000,"Source":"http:\/\/www.wyomingpublicmedia.org\/post\/archives-air-80-american-china-murray-coggeshall-diary"},{"ID":800231928,"Actor1":"CHINA","Actor1_Country":"CHN","Actor2":"JAPAN","Actor2_Country":"JPN","Code":43,"Class":1,"Action_Location":"New York, United States","Lat":42.1497,"Long":-74.9384,"Timestamp":20181105200000,"Source":"http:\/\/www.wyomingpublicmedia.org\/post\/archives-air-80-american-china-murray-coggeshall-diary"},{"ID":800231929,"Actor1":"CHINA","Actor1_Country":"CHN","Actor2":"MEDIA","Actor2_Country":null,"Code":46,"Class":1,"Action_Location":"China","Lat":35.0,"Long":105.0,"Timestamp":20181105200000,"Source":"https:\/\/www.geo.tv\/latest\/217392-talks-under-way-with-china-for-relief-package-asad-umar"},{"ID":800231930,"Actor1":"CHINA","Actor1_Country":"CHN","Actor2":"MEDIA","Actor2_Country":null,"Code":1123,"Class":3,"Action_Location":"Los Angeles, California, United States","Lat":34.0522,"Long":-118.244,"Timestamp":20181105200000,"Source":"https:\/\/www.bakersfield.com\/ap\/national\/china-s-make-or-break-program-sends-pandas-back-into\/article_249a17ae-9db1-5473-ad62-e2d062b27e97.html"},{"ID":800231931,"Actor1":"CHINA","Actor1_Country":"CHN","Actor2":"MEDIA","Actor2_Country":null,"Code":1123,"Class":3,"Action_Location":"He Sheng, Jilin, China","Lat":43.4601,"Long":129.536,"Timestamp":20181105200000,"Source":"https:\/\/www.bakersfield.com\/ap\/national\/china-s-make-or-break-program-sends-pandas-back-into\/article_249a17ae-9db1-5473-ad62-e2d062b27e97.html"},{"ID":800231932,"Actor1":"CHINA","Actor1_Country":"CHN","Actor2":"ISLAMABAD","Actor2_Country":"PAK","Code":10,"Class":1,"Action_Location":"Delhi, Delhi, India","Lat":28.6667,"Long":77.2167,"Timestamp":20181105200000,"Source":"https:\/\/indianexpress.com\/article\/opinion\/editorials\/india-china-pakistan-relations-imran-khan-5435378\/"},{"ID":800231933,"Actor1":"CHINA","Actor1_Country":"CHN","Actor2":"PAKISTAN","Actor2_Country":"PAK","Code":51,"Class":1,"Action_Location":"Islamabad, Islamabad, Pakistan","Lat":33.7,"Long":73.1667,"Timestamp":20181105200000,"Source":"https:\/\/indianexpress.com\/article\/opinion\/editorials\/india-china-pakistan-relations-imran-khan-5435378\/"},{"ID":800231934,"Actor1":"CHINA","Actor1_Country":"CHN","Actor2":"PAKISTAN","Actor2_Country":"PAK","Code":51,"Class":1,"Action_Location":"Wuhan, Hubei, China","Lat":30.5833,"Long":114.267,"Timestamp":20181105200000,"Source":"https:\/\/indianexpress.com\/article\/opinion\/editorials\/india-china-pakistan-relations-imran-khan-5435378\/"},{"ID":800231935,"Actor1":"CHINA","Actor1_Country":"CHN","Actor2":"PAKISTAN","Actor2_Country":"PAK","Code":111,"Class":3,"Action_Location":"Beijing, Beijing, China","Lat":39.9289,"Long":116.388,"Timestamp":20181105200000,"Source":"https:\/\/indianexpress.com\/article\/opinion\/editorials\/india-china-pakistan-relations-imran-khan-5435378\/"},{"ID":800231936,"Actor1":"CHINA","Actor1_Country":"CHN","Actor2":"PAKISTAN","Actor2_Country":"PAK","Code":111,"Class":3,"Action_Location":"Islamabad, Islamabad, Pakistan","Lat":33.7,"Long":73.1667,"Timestamp":20181105200000,"Source":"https:\/\/indianexpress.com\/article\/opinion\/editorials\/india-china-pakistan-relations-imran-khan-5435378\/"},{"ID":800231937,"Actor1":"CHINA","Actor1_Country":"CHN","Actor2":"PAKISTAN","Actor2_Country":"PAK","Code":111,"Class":3,"Action_Location":"Beijing, Beijing, China","Lat":39.9289,"Long":116.388,"Timestamp":20181105200000,"Source":"https:\/\/indianexpress.com\/article\/opinion\/editorials\/india-china-pakistan-relations-imran-khan-5435378\/"},{"ID":800231938,"Actor1":"CHINA","Actor1_Country":"CHN","Actor2":"PAKISTAN","Actor2_Country":"PAK","Code":111,"Class":3,"Action_Location":"Islamabad, Islamabad, Pakistan","Lat":33.7,"Long":73.1667,"Timestamp":20181105200000,"Source":"https:\/\/indianexpress.com\/article\/opinion\/editorials\/india-china-pakistan-relations-imran-khan-5435378\/"},{"ID":800231939,"Actor1":"CHINA","Actor1_Country":"CHN","Actor2":"SAUDI ARABIA","Actor2_Country":"SAU","Code":42,"Class":1,"Action_Location":"Beijing, Beijing, China","Lat":39.9289,"Long":116.388,"Timestamp":20181105200000,"Source":"https:\/\/indianexpress.com\/article\/opinion\/editorials\/india-china-pakistan-relations-imran-khan-5435378\/"},{"ID":800231940,"Actor1":"CHINA","Actor1_Country":"CHN","Actor2":"SAUDI ARABIA","Actor2_Country":"SAU","Code":42,"Class":1,"Action_Location":"Riyadh, Ar Riya?, Saudi Arabia","Lat":24.6408,"Long":46.7728,"Timestamp":20181105200000,"Source":"https:\/\/indianexpress.com\/article\/opinion\/editorials\/india-china-pakistan-relations-imran-khan-5435378\/"},{"ID":800231941,"Actor1":"CHINA","Actor1_Country":"CHN","Actor2":"RIYADH","Actor2_Country":"SAU","Code":71,"Class":2,"Action_Location":"Riyadh, Ar Riya?, Saudi Arabia","Lat":24.6408,"Long":46.7728,"Timestamp":20181105200000,"Source":"https:\/\/indianexpress.com\/article\/opinion\/editorials\/india-china-pakistan-relations-imran-khan-5435378\/"},{"ID":800231942,"Actor1":"CHINA","Actor1_Country":"CHN","Actor2":"UNITED STATES","Actor2_Country":"USA","Code":43,"Class":1,"Action_Location":"Shanghai, Shanghai, China","Lat":31.2222,"Long":121.458,"Timestamp":20181105200000,"Source":"http:\/\/www.wyomingpublicmedia.org\/post\/archives-air-80-american-china-murray-coggeshall-diary"},{"ID":800231943,"Actor1":"CHINA","Actor1_Country":"CHN","Actor2":"AMERICAN","Actor2_Country":"USA","Code":43,"Class":1,"Action_Location":"New York, United States","Lat":42.1497,"Long":-74.9384,"Timestamp":20181105200000,"Source":"http:\/\/www.wyomingpublicmedia.org\/post\/archives-air-80-american-china-murray-coggeshall-diary"},{"ID":800231944,"Actor1":"CHINA","Actor1_Country":"CHN","Actor2":"UNITED STATES","Actor2_Country":"USA","Code":190,"Class":4,"Action_Location":"Los Angeles, California, United States","Lat":34.0522,"Long":-118.244,"Timestamp":20181105200000,"Source":"https:\/\/www.bakersfield.com\/ap\/national\/china-s-make-or-break-program-sends-pandas-back-into\/article_249a17ae-9db1-5473-ad62-e2d062b27e97.html"},{"ID":800231945,"Actor1":"CHINA","Actor1_Country":"CHN","Actor2":"UNITED STATES","Actor2_Country":"USA","Code":190,"Class":4,"Action_Location":"Los Angeles, California, United States","Lat":34.0522,"Long":-118.244,"Timestamp":20181105200000,"Source":"https:\/\/www.bakersfield.com\/ap\/national\/china-s-make-or-break-program-sends-pandas-back-into\/article_249a17ae-9db1-5473-ad62-e2d062b27e97.html"},{"ID":800231947,"Actor1":"CHINA","Actor1_Country":"CHN","Actor2":"CHINA","Actor2_Country":"CHN","Code":43,"Class":1,"Action_Location":"Beijing, Beijing, China","Lat":39.9289,"Long":116.388,"Timestamp":20181105200000,"Source":"https:\/\/www.bakersfield.com\/ap\/national\/china-s-make-or-break-program-sends-pandas-back-into\/article_249a17ae-9db1-5473-ad62-e2d062b27e97.html"},{"ID":800231948,"Actor1":"CHINESE","Actor1_Country":"CHN","Actor2":"RESIDENTS","Actor2_Country":null,"Code":46,"Class":1,"Action_Location":"China","Lat":35.0,"Long":105.0,"Timestamp":20181105200000,"Source":"https:\/\/zambiareports.com\/2018\/11\/05\/83-arrested-kitwe-riots\/"},{"ID":800231950,"Actor1":"CHINA","Actor1_Country":"CHN","Actor2":"CHINA","Actor2_Country":"CHN","Code":42,"Class":1,"Action_Location":"Wuhan, Hubei, China","Lat":30.5833,"Long":114.267,"Timestamp":20181105200000,"Source":"https:\/\/indianexpress.com\/article\/opinion\/editorials\/india-china-pakistan-relations-imran-khan-5435378\/"},{"ID":800231951,"Actor1":"CHRISTIAN","Actor1_Country":null,"Actor2":"CALIFORNIA","Actor2_Country":"USA","Code":120,"Class":3,"Action_Location":"California, United States","Lat":36.17,"Long":-119.746,"Timestamp":20181105200000,"Source":"https:\/\/www.scpr.org\/programs\/take-two\/2018\/11\/05\/19115\/"},{"ID":800231952,"Actor1":"CHRISTIAN","Actor1_Country":null,"Actor2":"CALIFORNIA","Actor2_Country":"USA","Code":120,"Class":3,"Action_Location":"California, United States","Lat":36.17,"Long":-119.746,"Timestamp":20181105200000,"Source":"https:\/\/www.scpr.org\/programs\/take-two\/2018\/11\/05\/19115\/"},{"ID":800231953,"Actor1":"CHRISTIAN","Actor1_Country":null,"Actor2":"UNITED STATES","Actor2_Country":"USA","Code":120,"Class":3,"Action_Location":"California, United States","Lat":36.17,"Long":-119.746,"Timestamp":20181105200000,"Source":"https:\/\/www.scpr.org\/programs\/take-two\/2018\/11\/05\/19115\/"},{"ID":800231960,"Actor1":"PRESBYTERIAN","Actor1_Country":null,"Actor2":"FLORIDA","Actor2_Country":"USA","Code":51,"Class":1,"Action_Location":"Florida, United States","Lat":27.8333,"Long":-81.717,"Timestamp":20181105200000,"Source":"http:\/\/www.orlandosentinel.com\/news\/orange\/os-ne-july-perry-lynching-dirt-20181105-story.html"},{"ID":800231961,"Actor1":"PRESBYTERIAN","Actor1_Country":null,"Actor2":"FLORIDA","Actor2_Country":"USA","Code":51,"Class":1,"Action_Location":"Florida, United States","Lat":27.8333,"Long":-81.717,"Timestamp":20181105200000,"Source":"http:\/\/www.orlandosentinel.com\/news\/orange\/os-ne-july-perry-lynching-dirt-20181105-story.html"},{"ID":800231983,"Actor1":"POLICE","Actor1_Country":null,"Actor2":"CHINA","Actor2_Country":"CHN","Code":20,"Class":1,"Action_Location":"Zhengzhou, Henan, China","Lat":34.7578,"Long":113.649,"Timestamp":20181105200000,"Source":"https:\/\/www.deccanchronicle.com\/nation\/current-affairs\/051118\/rise-of-the-police-robots.html"},{"ID":800231984,"Actor1":"SECURITY OFFICER","Actor1_Country":null,"Actor2":"CHINA","Actor2_Country":"CHN","Code":193,"Class":4,"Action_Location":"China","Lat":35.0,"Long":105.0,"Timestamp":20181105200000,"Source":"https:\/\/zambiareports.com\/2018\/11\/05\/83-arrested-kitwe-riots\/"},{"ID":800231985,"Actor1":"SECURITY OFFICER","Actor1_Country":null,"Actor2":"CHINA","Actor2_Country":"CHN","Code":193,"Class":4,"Action_Location":"China","Lat":35.0,"Long":105.0,"Timestamp":20181105200000,"Source":"https:\/\/zambiareports.com\/2018\/11\/05\/83-arrested-kitwe-riots\/"},{"ID":800231986,"Actor1":"POLICE","Actor1_Country":null,"Actor2":"CRIMINAL","Actor2_Country":null,"Code":173,"Class":4,"Action_Location":"Moscow, Moskva, Russia","Lat":55.7522,"Long":37.6156,"Timestamp":20181105200000,"Source":"https:\/\/www.deccanchronicle.com\/nation\/current-affairs\/051118\/rise-of-the-police-robots.html"},{"ID":800231988,"Actor1":"POLICE","Actor1_Country":null,"Actor2":"PRAGUE","Actor2_Country":"CZE","Code":173,"Class":4,"Action_Location":"Warsaw, (PL67), Poland","Lat":52.25,"Long":21.0,"Timestamp":20181105200000,"Source":"https:\/\/www.thefirstnews.com\/article\/ombudsman-awarded-distinguished-rafto-prize-for-human-rights-3074"},{"ID":800231989,"Actor1":"POLICE","Actor1_Country":null,"Actor2":"PRAGUE","Actor2_Country":"CZE","Code":173,"Class":4,"Action_Location":"Warsaw, (PL67), Poland","Lat":52.25,"Long":21.0,"Timestamp":20181105200000,"Source":"https:\/\/www.thefirstnews.com\/article\/ombudsman-awarded-distinguished-rafto-prize-for-human-rights-3074"},{"ID":800231990,"Actor1":"POLICE","Actor1_Country":null,"Actor2":"PRAGUE","Actor2_Country":"CZE","Code":173,"Class":4,"Action_Location":"Norway","Lat":62.0,"Long":10.0,"Timestamp":20181105200000,"Source":"https:\/\/www.thefirstnews.com\/article\/ombudsman-awarded-distinguished-rafto-prize-for-human-rights-3074"},{"ID":800231991,"Actor1":"POLICE","Actor1_Country":null,"Actor2":"ATHENS","Actor2_Country":"GRC","Code":20,"Class":1,"Action_Location":"Athens, Attik\u00edR, Greece","Lat":37.9833,"Long":23.7333,"Timestamp":20181105200000,"Source":"https:\/\/www.ajc.com\/news\/crime--law\/just-injured-killed-shootout-athens-home\/D5KcCpM3By4eK5bIjATmkK\/"},{"ID":800231993,"Actor1":"POLICE","Actor1_Country":null,"Actor2":"MEERUT","Actor2_Country":"IND","Code":173,"Class":4,"Action_Location":"Meerut, Uttar Pradesh, India","Lat":28.9833,"Long":77.7,"Timestamp":20181105200000,"Source":"https:\/\/indianexpress.com\/article\/opinion\/columns\/hashimpura-massacre-case-verdict-anti-sink-riots-5435387\/"},{"ID":800231994,"Actor1":"DEPUTY","Actor1_Country":null,"Actor2":"IRAN","Actor2_Country":"IRN","Code":111,"Class":3,"Action_Location":"Tehran, Tehran, Iran","Lat":35.75,"Long":51.5148,"Timestamp":20181105200000,"Source":"https:\/\/jonathanturley.org\/2018\/11\/05\/the-great-satan-farrakhan-finds-his-happy-place-in-tehran\/comment-page-1\/"},{"ID":800231995,"Actor1":"PRISON","Actor1_Country":null,"Actor2":"DISTRICT COURT","Actor2_Country":null,"Code":173,"Class":4,"Action_Location":"South Carolina, United States","Lat":33.8191,"Long":-80.9066,"Timestamp":20181105200000,"Source":"http:\/\/www.theglobaldispatch.com\/romanian-national-and-two-others-charged-in-connection-with-atm-skimming-68000\/"},{"ID":800231996,"Actor1":"POLICE","Actor1_Country":null,"Actor2":"NEWSPAPER","Actor2_Country":null,"Code":190,"Class":4,"Action_Location":"Mississippi, United States","Lat":32.7673,"Long":-89.6812,"Timestamp":20181105200000,"Source":"http:\/\/www.orlandosentinel.com\/news\/orange\/os-ne-july-perry-lynching-dirt-20181105-story.html"},{"ID":800231997,"Actor1":"POLICE","Actor1_Country":null,"Actor2":"SPOKESMAN","Actor2_Country":null,"Code":190,"Class":4,"Action_Location":"Arizona, United States","Lat":33.7712,"Long":-111.388,"Timestamp":20181105200000,"Source":"https:\/\/www.nzherald.co.nz\/world\/news\/article.cfm?c_id=2&objectid=12155184"},{"ID":800231998,"Actor1":"POLICE","Actor1_Country":null,"Actor2":"PROTESTER","Actor2_Country":null,"Code":175,"Class":4,"Action_Location":"Lima, Lima, Peru","Lat":-12.05,"Long":-77.05,"Timestamp":20181105200000,"Source":"https:\/\/www.bbc.co.uk\/news\/av\/world-latin-america-46104453\/peru-police-clash-with-anti-bullfighting-protesters"},{"ID":800231999,"Actor1":"POLICE","Actor1_Country":null,"Actor2":"UNITED STATES","Actor2_Country":"USA","Code":10,"Class":1,"Action_Location":"Oklahoma, United States","Lat":35.5376,"Long":-96.9247,"Timestamp":20181105200000,"Source":"http:\/\/www.newson6.com\/story\/39419731\/man-wanted-in-okmulgee-shooting-two-women-in-custody"},{"ID":800232000,"Actor1":"POLICE","Actor1_Country":null,"Actor2":"UNITED STATES","Actor2_Country":"USA","Code":23,"Class":1,"Action_Location":"Weld County, Colorado, United States","Lat":40.6333,"Long":-104.534,"Timestamp":20181105200000,"Source":"http:\/\/www.timescall.com\/carbon-valley-news\/ci_32252342\/chris-watts-make-last-court-appearance-before-arraignment"},{"ID":800232001,"Actor1":"POLICE","Actor1_Country":null,"Actor2":"UNITED STATES","Actor2_Country":"USA","Code":23,"Class":1,"Action_Location":"Frederick Police Department, Colorado, United States","Lat":40.0989,"Long":-104.938,"Timestamp":20181105200000,"Source":"http:\/\/www.timescall.com\/carbon-valley-news\/ci_32252342\/chris-watts-make-last-court-appearance-before-arraignment"},{"ID":800232002,"Actor1":"DETECTIVE","Actor1_Country":null,"Actor2":"WASHINGTON","Actor2_Country":"USA","Code":42,"Class":1,"Action_Location":"Washington, District of Columbia, United States","Lat":38.8951,"Long":-77.0364,"Timestamp":20181105200000,"Source":"https:\/\/kxlf.com\/cnn-national\/2018\/11\/02\/what-we-know-about-the-saudi-sisters-found-dead-along-the-hudson-river\/"},{"ID":800232003,"Actor1":"DETECTIVE","Actor1_Country":null,"Actor2":"UNITED STATES","Actor2_Country":"USA","Code":42,"Class":1,"Action_Location":"Washington, District of Columbia, United States","Lat":38.8951,"Long":-77.0364,"Timestamp":20181105200000,"Source":"https:\/\/kxlf.com\/cnn-national\/2018\/11\/02\/what-we-know-about-the-saudi-sisters-found-dead-along-the-hudson-river\/"},{"ID":800232004,"Actor1":"POLICE","Actor1_Country":null,"Actor2":"UNITED STATES","Actor2_Country":"USA","Code":43,"Class":1,"Action_Location":"Massachusetts, United States","Lat":42.2373,"Long":-71.5314,"Timestamp":20181105200000,"Source":"https:\/\/www.masslive.com\/news\/worcester\/index.ssf\/2018\/11\/judge_doubles_bail_requested_f.html"},{"ID":800232005,"Actor1":"DEPUTY","Actor1_Country":null,"Actor2":"SAN DIEGO","Actor2_Country":"USA","Code":46,"Class":1,"Action_Location":"San Diego, California, United States","Lat":32.7153,"Long":-117.157,"Timestamp":20181105200000,"Source":"https:\/\/www.kusi.com\/what-to-know-about-investing-in-cryptocurrency\/"},{"ID":800232006,"Actor1":"POLICE","Actor1_Country":null,"Actor2":"UNITED STATES","Actor2_Country":"USA","Code":60,"Class":2,"Action_Location":"Weld County, Colorado, United States","Lat":40.6333,"Long":-104.534,"Timestamp":20181105200000,"Source":"http:\/\/www.timescall.com\/carbon-valley-news\/ci_32252342\/chris-watts-make-last-court-appearance-before-arraignment"},{"ID":800232007,"Actor1":"POLICE","Actor1_Country":null,"Actor2":"UNITED STATES","Actor2_Country":"USA","Code":60,"Class":2,"Action_Location":"Colorado, United States","Lat":39.0646,"Long":-105.327,"Timestamp":20181105200000,"Source":"http:\/\/www.timescall.com\/carbon-valley-news\/ci_32252342\/chris-watts-make-last-court-appearance-before-arraignment"},{"ID":800232008,"Actor1":"POLICE","Actor1_Country":null,"Actor2":"NORTH CAROLINA","Actor2_Country":"USA","Code":112,"Class":3,"Action_Location":"North Carolina, United States","Lat":35.6411,"Long":-79.8431,"Timestamp":20181105200000,"Source":"https:\/\/www.morganton.com\/news\/state\/police-accuse-man-in-north-carolina-of-threatening-synagogue-burning\/article_6925f3c7-cc99-595f-9f15-19a718369ab9.html"},{"ID":800232009,"Actor1":"POLICE","Actor1_Country":null,"Actor2":"UNITED STATES","Actor2_Country":"USA","Code":120,"Class":3,"Action_Location":"California, United States","Lat":36.17,"Long":-119.746,"Timestamp":20181105200000,"Source":"http:\/\/m.news9.com\/story\/39418575\/oklahoma-city-man-accused-of-threatening-mass-casualty-incident"},{"ID":800232010,"Actor1":"POLICE","Actor1_Country":null,"Actor2":"MASSACHUSETTS","Actor2_Country":"USA","Code":173,"Class":4,"Action_Location":"Cape Cod, Massachusetts, United States","Lat":41.7001,"Long":-70.0328,"Timestamp":20181105200000,"Source":"https:\/\/www.bostonglobe.com\/metro\/2018\/11\/05\/fisherman-arrested-gloucester-with-dozens-illegal-lobsters\/PVQt9UvKH5uypIRuUnAJSI\/story.html"},{"ID":800232011,"Actor1":"POLICE","Actor1_Country":null,"Actor2":"UNITED STATES","Actor2_Country":"USA","Code":173,"Class":4,"Action_Location":"Bedford, New York, United States","Lat":41.2043,"Long":-73.6437,"Timestamp":20181105200000,"Source":"https:\/\/heavy.com\/news\/2018\/11\/watch-teenagers-pole-synagogue-brooklyn\/"},{"ID":800232012,"Actor1":"POLICE","Actor1_Country":null,"Actor2":"UNITED STATES","Actor2_Country":"USA","Code":173,"Class":4,"Action_Location":"Australia","Lat":-25.0,"Long":135.0,"Timestamp":20181105200000,"Source":"https:\/\/www.havredailynews.com\/story\/2018\/11\/05\/local\/for-the-record-nov-5-2018\/521174.html"},{"ID":800232013,"Actor1":"POLICE","Actor1_Country":null,"Actor2":"UNITED STATES","Actor2_Country":"USA","Code":173,"Class":4,"Action_Location":"Australia","Lat":-25.0,"Long":135.0,"Timestamp":20181105200000,"Source":"https:\/\/www.havredailynews.com\/story\/2018\/11\/05\/local\/for-the-record-nov-5-2018\/521174.html"},{"ID":800232014,"Actor1":"POLICE","Actor1_Country":null,"Actor2":"UNITED STATES","Actor2_Country":"USA","Code":173,"Class":4,"Action_Location":"Massachusetts, United States","Lat":42.2373,"Long":-71.5314,"Timestamp":20181105200000,"Source":"https:\/\/www.masslive.com\/news\/worcester\/index.ssf\/2018\/11\/judge_doubles_bail_requested_f.html"},{"ID":800232015,"Actor1":"POLICE","Actor1_Country":null,"Actor2":"UNITED STATES","Actor2_Country":"USA","Code":173,"Class":4,"Action_Location":"Puerto Rico, United States","Lat":18.2766,"Long":-66.335,"Timestamp":20181105200000,"Source":"https:\/\/heavy.com\/news\/2018\/11\/watch-teenagers-pole-synagogue-brooklyn\/"},{"ID":800232016,"Actor1":"POLICE","Actor1_Country":null,"Actor2":"UNITED STATES","Actor2_Country":"USA","Code":190,"Class":4,"Action_Location":"Ocoee, Florida, United States","Lat":28.5692,"Long":-81.544,"Timestamp":20181105200000,"Source":"http:\/\/www.orlandosentinel.com\/news\/orange\/os-ne-july-perry-lynching-dirt-20181105-story.html"},{"ID":800232017,"Actor1":"POLICE","Actor1_Country":null,"Actor2":"UNITED STATES","Actor2_Country":"USA","Code":190,"Class":4,"Action_Location":"Ocoee, Florida, United States","Lat":28.5692,"Long":-81.544,"Timestamp":20181105200000,"Source":"http:\/\/www.orlandosentinel.com\/news\/orange\/os-ne-july-perry-lynching-dirt-20181105-story.html"},{"ID":800232018,"Actor1":"POLICE","Actor1_Country":null,"Actor2":"ZAMBIA","Actor2_Country":"ZMB","Code":153,"Class":4,"Action_Location":"Katanga, Copperbelt, Zambia","Lat":-14.4749,"Long":26.705,"Timestamp":20181105200000,"Source":"https:\/\/zambiareports.com\/2018\/11\/05\/83-arrested-kitwe-riots\/"},{"ID":800232019,"Actor1":"POLICE","Actor1_Country":null,"Actor2":"ZAMBIA","Actor2_Country":"ZMB","Code":173,"Class":4,"Action_Location":"Katanga, Copperbelt, Zambia","Lat":-14.4749,"Long":26.705,"Timestamp":20181105200000,"Source":"https:\/\/zambiareports.com\/2018\/11\/05\/83-arrested-kitwe-riots\/"},{"ID":800232026,"Actor1":"RUNNER","Actor1_Country":null,"Actor2":"ACTOR","Actor2_Country":null,"Code":51,"Class":1,"Action_Location":"California, United States","Lat":36.17,"Long":-119.746,"Timestamp":20181105200000,"Source":"https:\/\/www.etonline.com\/brad-pitt-makes-rare-public-appearance-at-hollywood-film-awards-113032"},{"ID":800232027,"Actor1":"FELON","Actor1_Country":null,"Actor2":"FRANCE","Actor2_Country":"FRA","Code":173,"Class":4,"Action_Location":"Paris, France (general), France","Lat":48.8667,"Long":2.33333,"Timestamp":20181105200000,"Source":"https:\/\/easttexasradio.com\/paris-police-report-for-monday-nov-5\/"},{"ID":800232028,"Actor1":"SMUGGLER","Actor1_Country":null,"Actor2":"AUTHORITIES","Actor2_Country":null,"Code":841,"Class":2,"Action_Location":"North Carolina, United States","Lat":35.6411,"Long":-79.8431,"Timestamp":20181105200000,"Source":"https:\/\/www.stuff.co.nz\/entertainment\/tv-radio\/108376048\/outlander-why-the-timetravel-romance-feels-more-timeless-and-timely-than-ever"},{"ID":800232029,"Actor1":"CRIMINAL","Actor1_Country":null,"Actor2":"ATTORNEY","Actor2_Country":null,"Code":15,"Class":1,"Action_Location":"Pennsylvania, United States","Lat":40.5773,"Long":-77.264,"Timestamp":20181105200000,"Source":"https:\/\/www.wealthmanagement.com\/people\/sec-bars-advisor-tax-free-car-rental-coal-mining-investments-fraud"},{"ID":800232030,"Actor1":"CARTEL","Actor1_Country":null,"Actor2":"REPRESENTATIVES","Actor2_Country":null,"Code":43,"Class":1,"Action_Location":"Ukraine","Lat":49.0,"Long":32.0,"Timestamp":20181105200000,"Source":"https:\/\/www.hollywoodreporter.com\/race\/documentary-directors-talk-challenges-at-savannah-film-festival-2018-1157709"},{"ID":800232032,"Actor1":"ILLEGAL IMMIGRANT","Actor1_Country":null,"Actor2":"WASHINGTON","Actor2_Country":"USA","Code":46,"Class":1,"Action_Location":"Missouri, United States","Lat":38.4623,"Long":-92.302,"Timestamp":20181105200000,"Source":"http:\/\/www.kbia.org\/post\/fact-check-mccaskill-voted-path-citizenship-its-stretch-call-it-amnesty"},{"ID":800232033,"Actor1":"ORGANIZED CRIME","Actor1_Country":null,"Actor2":"UNITED STATES","Actor2_Country":"USA","Code":46,"Class":1,"Action_Location":"Maria Teresa, Antioquia, Colombia","Lat":5.59446,"Long":-75.8738,"Timestamp":20181105200000,"Source":"https:\/\/www.msn.com\/en-us\/news\/crime\/billionaire-partner-of-imprisoned-chapo-consolidates-empire\/ar-BBPmhWa"},{"ID":800232034,"Actor1":"ORGANIZED CRIME","Actor1_Country":null,"Actor2":"UNITED STATES","Actor2_Country":"USA","Code":46,"Class":1,"Action_Location":"Sinaloa, Tabasco, Mexico","Lat":18.4917,"Long":-93.75,"Timestamp":20181105200000,"Source":"https:\/\/www.msn.com\/en-us\/news\/crime\/billionaire-partner-of-imprisoned-chapo-consolidates-empire\/ar-BBPmhWa"},{"ID":800232035,"Actor1":"ILLEGAL IMMIGRANT","Actor1_Country":null,"Actor2":"WASHINGTON","Actor2_Country":"USA","Code":46,"Class":1,"Action_Location":"Missouri, United States","Lat":38.4623,"Long":-92.302,"Timestamp":20181105200000,"Source":"http:\/\/www.kbia.org\/post\/fact-check-mccaskill-voted-path-citizenship-its-stretch-call-it-amnesty"},{"ID":800232036,"Actor1":"RUNNER","Actor1_Country":null,"Actor2":"UNITED STATES","Actor2_Country":"USA","Code":51,"Class":1,"Action_Location":"California, United States","Lat":36.17,"Long":-119.746,"Timestamp":20181105200000,"Source":"https:\/\/www.etonline.com\/brad-pitt-makes-rare-public-appearance-at-hollywood-film-awards-113032"},{"ID":800232081,"Actor1":"COMMUNITY","Actor1_Country":null,"Actor2":"ENTREPRENEUR","Actor2_Country":null,"Code":36,"Class":1,"Action_Location":"Toronto, Ontario, Canada","Lat":43.6667,"Long":-79.4167,"Timestamp":20181105200000,"Source":"http:\/\/www.digitaljournal.com\/business\/mesh-to-host-digital-transformation-meetup-nov-21-in-toronto\/article\/536190"},{"ID":800232082,"Actor1":"VILLAGER","Actor1_Country":null,"Actor2":"COMPANY","Actor2_Country":null,"Code":40,"Class":1,"Action_Location":"South Africa","Lat":-30.0,"Long":26.0,"Timestamp":20181105200000,"Source":"http:\/\/www.thevillager.com.na\/articles\/14192\/will-nandos-exit-trigger-investor-panic\/"},{"ID":800232083,"Actor1":"CITIZEN","Actor1_Country":null,"Actor2":"COMPANIES","Actor2_Country":null,"Code":57,"Class":1,"Action_Location":"Lisbon, Lisboa, Portugal","Lat":38.7167,"Long":-9.13333,"Timestamp":20181105200000,"Source":"https:\/\/www.cnet.com\/news\/tim-berners-lee-unveils-contract-to-protect-and-strengthen-the-web\/"},{"ID":800232084,"Actor1":"CITIZEN","Actor1_Country":null,"Actor2":"COMPANIES","Actor2_Country":null,"Code":57,"Class":1,"Action_Location":"London, London, City of, United Kingdom","Lat":51.5,"Long":-0.116667,"Timestamp":20181105200000,"Source":"https:\/\/www.cnet.com\/news\/tim-berners-lee-unveils-contract-to-protect-and-strengthen-the-web\/"},{"ID":800232085,"Actor1":"COMMUNITY","Actor1_Country":null,"Actor2":"CANADIAN","Actor2_Country":"CAN","Code":51,"Class":1,"Action_Location":"Canada","Lat":60.0,"Long":-96.0,"Timestamp":20181105200000,"Source":"https:\/\/www.theglobeandmail.com\/business\/commentary\/article-privacy-versus-quality-data-do-we-have-to-choose\/"},{"ID":800232086,"Actor1":"RESIDENTS","Actor1_Country":null,"Actor2":"CHINESE","Actor2_Country":"CHN","Code":46,"Class":1,"Action_Location":"China","Lat":35.0,"Long":105.0,"Timestamp":20181105200000,"Source":"https:\/\/zambiareports.com\/2018\/11\/05\/83-arrested-kitwe-riots\/"},{"ID":800232087,"Actor1":"RESIDENTS","Actor1_Country":null,"Actor2":"CHINESE","Actor2_Country":"CHN","Code":145,"Class":3,"Action_Location":"China","Lat":35.0,"Long":105.0,"Timestamp":20181105200000,"Source":"https:\/\/zambiareports.com\/2018\/11\/05\/83-arrested-kitwe-riots\/"},{"ID":800232088,"Actor1":"RESIDENTS","Actor1_Country":null,"Actor2":"CHINESE","Actor2_Country":"CHN","Code":46,"Class":1,"Action_Location":"China","Lat":35.0,"Long":105.0,"Timestamp":20181105200000,"Source":"https:\/\/zambiareports.com\/2018\/11\/05\/83-arrested-kitwe-riots\/"},{"ID":800232089,"Actor1":"RESIDENTS","Actor1_Country":null,"Actor2":"CHINESE","Actor2_Country":"CHN","Code":145,"Class":3,"Action_Location":"China","Lat":35.0,"Long":105.0,"Timestamp":20181105200000,"Source":"https:\/\/zambiareports.com\/2018\/11\/05\/83-arrested-kitwe-riots\/"},{"ID":800232090,"Actor1":"SCIENTIST","Actor1_Country":null,"Actor2":"ACADEMICS","Actor2_Country":null,"Code":57,"Class":1,"Action_Location":"Pinawa, Manitoba, Canada","Lat":50.15,"Long":-95.8833,"Timestamp":20181105200000,"Source":"https:\/\/www.newswire.ca\/news-releases\/top-scientists-writers-and-academics-sign-open-letter-backing-nuclear-to-tackle-climate-change-699682431.html"},{"ID":800232091,"Actor1":"VOTER","Actor1_Country":null,"Actor2":"PRESIDENT","Actor2_Country":null,"Code":14,"Class":1,"Action_Location":"Cape Girardeau, Missouri, United States","Lat":37.3059,"Long":-89.5182,"Timestamp":20181105200000,"Source":"http:\/\/insider.foxnews.com\/2018\/11\/05\/sean-hannity-interviews-president-trump-missouri-tonight-just-hours-midterm-elections"},{"ID":800232092,"Actor1":"VOTER","Actor1_Country":null,"Actor2":"PRESIDENT","Actor2_Country":null,"Code":14,"Class":1,"Action_Location":"Missouri, United States","Lat":38.4623,"Long":-92.302,"Timestamp":20181105200000,"Source":"http:\/\/insider.foxnews.com\/2018\/11\/05\/sean-hannity-interviews-president-trump-missouri-tonight-just-hours-midterm-elections"},{"ID":800232093,"Actor1":"CIVIL SOCIETY","Actor1_Country":null,"Actor2":"MINIST OF INTERIOR","Actor2_Country":null,"Code":17,"Class":1,"Action_Location":"Kherson, Khersons'ka Oblast', Ukraine","Lat":46.6558,"Long":32.6178,"Timestamp":20181105200000,"Source":"https:\/\/reliefweb.int\/report\/ukraine\/latest-osce-special-monitoring-mission-ukraine-smm-based-information-received-579"},{"ID":800232094,"Actor1":"CIVIL SOCIETY","Actor1_Country":null,"Actor2":"MINIST OF INTERIOR","Actor2_Country":null,"Code":17,"Class":1,"Action_Location":"Novoborovytsi, Luhans'ka Oblast', Ukraine","Lat":47.8645,"Long":39.5074,"Timestamp":20181105200000,"Source":"https:\/\/reliefweb.int\/report\/ukraine\/latest-osce-special-monitoring-mission-ukraine-smm-based-information-received-579"},{"ID":800232095,"Actor1":"CITIZEN","Actor1_Country":null,"Actor2":"GOVERNMENT","Actor2_Country":null,"Code":57,"Class":1,"Action_Location":"Lisbon, Lisboa, Portugal","Lat":38.7167,"Long":-9.13333,"Timestamp":20181105200000,"Source":"https:\/\/www.cnet.com\/news\/tim-berners-lee-unveils-contract-to-protect-and-strengthen-the-web\/"},{"ID":800232096,"Actor1":"CITIZEN","Actor1_Country":null,"Actor2":"GOVERNMENT","Actor2_Country":null,"Code":57,"Class":1,"Action_Location":"London, London, City of, United Kingdom","Lat":51.5,"Long":-0.116667,"Timestamp":20181105200000,"Source":"https:\/\/www.cnet.com\/news\/tim-berners-lee-unveils-contract-to-protect-and-strengthen-the-web\/"},{"ID":800232097,"Actor1":"CITIZEN","Actor1_Country":null,"Actor2":"GOVERNMENT","Actor2_Country":null,"Code":100,"Class":3,"Action_Location":"Lisbon, Lisboa, Portugal","Lat":38.7167,"Long":-9.13333,"Timestamp":20181105200000,"Source":"https:\/\/www.cnet.com\/news\/tim-berners-lee-unveils-contract-to-protect-and-strengthen-the-web\/"},{"ID":800232098,"Actor1":"CITIZEN","Actor1_Country":null,"Actor2":"GOVERNMENT","Actor2_Country":null,"Code":112,"Class":3,"Action_Location":"Lahore, Punjab, Pakistan","Lat":31.5497,"Long":74.3436,"Timestamp":20181105200000,"Source":"https:\/\/www.geo.tv\/latest\/217297-around-1800-arrested-in-countrywide-crackdown-on-rioters"},{"ID":800232100,"Actor1":"COMMUNITY","Actor1_Country":null,"Actor2":"HEALTH CARE PROVIDER","Actor2_Country":null,"Code":46,"Class":1,"Action_Location":"Oklahoma, United States","Lat":35.5376,"Long":-96.9247,"Timestamp":20181105200000,"Source":"http:\/\/www.kswo.com\/2018\/11\/05\/medwatch-national-diabetes-awareness-month\/"},{"ID":800232101,"Actor1":"ENGINEER","Actor1_Country":null,"Actor2":"ITALY","Actor2_Country":"ITA","Code":128,"Class":3,"Action_Location":"Italy","Lat":42.833333,"Long":12.833333,"Timestamp":20181105200000,"Source":"http:\/\/www.orlandosentinel.com\/classified\/realestate\/fl-bz-miami-condos-botanist-20181030-story.html"},{"ID":800232103,"Actor1":"VOTER","Actor1_Country":null,"Actor2":"JUDICIARY","Actor2_Country":null,"Code":14,"Class":1,"Action_Location":"Albuquerque, New Mexico, United States","Lat":35.0845,"Long":-106.651,"Timestamp":20181105200000,"Source":"https:\/\/www.lmtonline.com\/news\/article\/AP-News-Guide-Top-races-in-New-Mexico-s-general-13363505.php"},{"ID":800232104,"Actor1":"VOTER","Actor1_Country":null,"Actor2":"LAWMAKER","Actor2_Country":null,"Code":10,"Class":1,"Action_Location":"Oklahoma, United States","Lat":35.5376,"Long":-96.9247,"Timestamp":20181105200000,"Source":"http:\/\/www.kosu.org\/post\/teacher-walkouts-moved-these-educators-run-now-theyre-facing"},{"ID":800232105,"Actor1":"VOTER","Actor1_Country":null,"Actor2":"SENATE","Actor2_Country":null,"Code":14,"Class":1,"Action_Location":"Washington, District of Columbia, United States","Lat":38.8951,"Long":-77.0364,"Timestamp":20181105200000,"Source":"https:\/\/www.vox.com\/midterm-elections\/2018\/11\/5\/18064310\/2018-election-results-polls-trump"},{"ID":800232106,"Actor1":"VOTER","Actor1_Country":null,"Actor2":"WEBSITE","Actor2_Country":null,"Code":14,"Class":1,"Action_Location":"Florida, United States","Lat":27.8333,"Long":-81.717,"Timestamp":20181105200000,"Source":"http:\/\/www.orlandosentinel.com\/news\/politics\/os-ne-florida-voting-problems-polls-20181105-story.html"},{"ID":800232107,"Actor1":"VOTER","Actor1_Country":null,"Actor2":"KANSAS","Actor2_Country":"USA","Code":13,"Class":1,"Action_Location":"Kansas, United States","Lat":38.5111,"Long":-96.8005,"Timestamp":20181105200000,"Source":"http:\/\/www.salina.com\/news\/20181105\/kellys-closing-argument"},{"ID":800232108,"Actor1":"VOTER","Actor1_Country":null,"Actor2":"FLORIDA","Actor2_Country":"USA","Code":14,"Class":1,"Action_Location":"Duval County, Florida, United States","Lat":30.3569,"Long":-81.6315,"Timestamp":20181105200000,"Source":"https:\/\/www.jacksonville.com\/nationworld\/20181105\/with-5-million-votes-already-cast-democrats-lead-in-florida"},{"ID":800232109,"Actor1":"VOTER","Actor1_Country":null,"Actor2":"UNITED STATES","Actor2_Country":"USA","Code":20,"Class":1,"Action_Location":"Cincinnati, Ohio, United States","Lat":39.162,"Long":-84.4569,"Timestamp":20181105200000,"Source":"http:\/\/www.xinhuanet.com\/english\/2018-11\/06\/c_137584471.htm"},{"ID":800232110,"Actor1":"CITIZEN","Actor1_Country":null,"Actor2":"UNITED STATES","Actor2_Country":"USA","Code":40,"Class":1,"Action_Location":"New Jersey, United States","Lat":40.314,"Long":-74.5089,"Timestamp":20181105200000,"Source":"https:\/\/www.defenseone.com\/technology\/2018\/11\/how-estonia-secures-its-electronic-elections-kremlin-attacks\/152582\/"},{"ID":800232111,"Actor1":"VOTER","Actor1_Country":null,"Actor2":"KENTUCKY","Actor2_Country":"USA","Code":40,"Class":1,"Action_Location":"Mount Sterling, Kentucky, United States","Lat":38.0565,"Long":-83.9433,"Timestamp":20181105200000,"Source":"http:\/\/www.shorelinemedia.net\/ludington_daily_news\/news\/nation\/barr-looks-to-trumps-to-boost-turnout-in-kentucky-district\/article_bed58f7e-bc14-559d-b5a2-d28b1cac0d17.html"},{"ID":800232112,"Actor1":"VOTER","Actor1_Country":null,"Actor2":"KENTUCKY","Actor2_Country":"USA","Code":40,"Class":1,"Action_Location":"Mount Sterling, Kentucky, United States","Lat":38.0565,"Long":-83.9433,"Timestamp":20181105200000,"Source":"http:\/\/www.shorelinemedia.net\/ludington_daily_news\/news\/nation\/barr-looks-to-trumps-to-boost-turnout-in-kentucky-district\/article_bed58f7e-bc14-559d-b5a2-d28b1cac0d17.html"},{"ID":800232114,"Actor1":"VOTER","Actor1_Country":null,"Actor2":"UNITED STATES","Actor2_Country":"USA","Code":51,"Class":1,"Action_Location":"Kansas, United States","Lat":38.5111,"Long":-96.8005,"Timestamp":20181105200000,"Source":"http:\/\/www.salina.com\/news\/20181105\/kellys-closing-argument"},{"ID":800232115,"Actor1":"RESIDENTS","Actor1_Country":null,"Actor2":"UTAH","Actor2_Country":"USA","Code":51,"Class":1,"Action_Location":"Utah, United States","Lat":40.1135,"Long":-111.854,"Timestamp":20181105200000,"Source":"https:\/\/www.sltrib.com\/news\/politics\/2018\/11\/05\/hate-daylight-saving-time\/"},{"ID":800232116,"Actor1":"IMMIGRANT","Actor1_Country":null,"Actor2":"CALIFORNIA","Actor2_Country":"USA","Code":173,"Class":4,"Action_Location":"Arizona, United States","Lat":33.7712,"Long":-111.388,"Timestamp":20181105200000,"Source":"https:\/\/www.cnet.com\/news\/facebook-pulls-controversial-trump-anti-immigration-ad\/"},{"ID":800232117,"Actor1":"VOTER","Actor1_Country":null,"Actor2":"UNITED STATES","Actor2_Country":"USA","Code":190,"Class":4,"Action_Location":"University Of Kansas, Kansas, United States","Lat":38.9581,"Long":-95.2477,"Timestamp":20181105200000,"Source":"http:\/\/www.kbia.org\/post\/noonletter-nov-5-2018"},{"ID":800232118,"Actor1":"VOTER","Actor1_Country":null,"Actor2":"UNITED STATES","Actor2_Country":"USA","Code":190,"Class":4,"Action_Location":"University Of Kansas, Kansas, United States","Lat":38.9581,"Long":-95.2477,"Timestamp":20181105200000,"Source":"http:\/\/www.kbia.org\/post\/noonletter-nov-5-2018"},{"ID":800232119,"Actor1":"VOTER","Actor1_Country":null,"Actor2":"UNITED STATES","Actor2_Country":"USA","Code":14,"Class":1,"Action_Location":"Cape Girardeau, Missouri, United States","Lat":37.3059,"Long":-89.5182,"Timestamp":20181105200000,"Source":"http:\/\/insider.foxnews.com\/2018\/11\/05\/sean-hannity-interviews-president-trump-missouri-tonight-just-hours-midterm-elections"},{"ID":800232120,"Actor1":"VOTER","Actor1_Country":null,"Actor2":"OBAMA","Actor2_Country":"USA","Code":20,"Class":1,"Action_Location":"United States","Lat":39.828175,"Long":-98.5795,"Timestamp":20181105200000,"Source":"https:\/\/www.wsj.com\/articles\/americans-arent-just-happy-about-the-economy-1541446385"},{"ID":800232121,"Actor1":"VOTER","Actor1_Country":null,"Actor2":"BARACK OBAMA","Actor2_Country":"USA","Code":35,"Class":1,"Action_Location":"Georgia, United States","Lat":32.9866,"Long":-83.6487,"Timestamp":20181105200000,"Source":"https:\/\/foreignpolicy.com\/2018\/11\/05\/why-is-it-so-hard-to-vote-in-america\/"},{"ID":800232122,"Actor1":"VOTER","Actor1_Country":null,"Actor2":"AMERICAN CIVIL LIBERTIES UNION","Actor2_Country":"USA","Code":190,"Class":4,"Action_Location":"Kansas, United States","Lat":38.5111,"Long":-96.8005,"Timestamp":20181105200000,"Source":"http:\/\/www.kbia.org\/post\/noonletter-nov-5-2018"},{"ID":800232123,"Actor1":"SCIENTIST","Actor1_Country":null,"Actor2":"THE ASSOCIATED PRESS","Actor2_Country":"USA","Code":10,"Class":1,"Action_Location":"Miami, Florida, United States","Lat":25.7743,"Long":-80.1937,"Timestamp":20181105200000,"Source":"https:\/\/www.miamiok.com\/zz\/news\/20181105\/georgia-governors-race-awash-in-election-security-issue"},{"ID":800232128,"Actor1":"GERMANY","Actor1_Country":"DEU","Actor2":"BUSINESS","Actor2_Country":null,"Code":10,"Class":1,"Action_Location":"Hamburg, Hamburg, Germany","Lat":53.55,"Long":10.0,"Timestamp":20181105200000,"Source":"https:\/\/www.helmholtz.de\/en\/about_us\/helmholtz_centres\/centres_a_z\/zentrum\/detailansicht\/helmholtz_center_geesthacht_for_materials_and_coastal_research\/"},{"ID":800232129,"Actor1":"BERLIN","Actor1_Country":"DEU","Actor2":"FRENCH","Actor2_Country":"FRA","Code":120,"Class":3,"Action_Location":"Germany","Lat":51.5,"Long":10.5,"Timestamp":20181105200000,"Source":"https:\/\/www.outsidethebeltway.com\/birthright-citizenship-isnt-just-the-law-its-a-good-idea-too\/"},{"ID":800232130,"Actor1":"GERMANY","Actor1_Country":"DEU","Actor2":"RED CROSS","Actor2_Country":null,"Code":70,"Class":2,"Action_Location":"Berlin, Berlin, Germany","Lat":52.5167,"Long":13.4,"Timestamp":20181105200000,"Source":"https:\/\/www.dw.com\/en\/germany-boosts-foreign-aid-amid-rising-global-crises\/a-46165720"},{"ID":800232131,"Actor1":"GERMANY","Actor1_Country":"DEU","Actor2":"BUNDESTAG","Actor2_Country":"DEU","Code":71,"Class":2,"Action_Location":"Berlin, Berlin, Germany","Lat":52.5167,"Long":13.4,"Timestamp":20181105200000,"Source":"https:\/\/www.dw.com\/en\/germany-boosts-foreign-aid-amid-rising-global-crises\/a-46165720"},{"ID":800232148,"Actor1":"STUDENT","Actor1_Country":null,"Actor2":"ARMENIAN","Actor2_Country":"ARM","Code":42,"Class":1,"Action_Location":"Yerevan, Yerevan*, Armenia","Lat":40.1811,"Long":44.5136,"Timestamp":20181105200000,"Source":"https:\/\/armenianweekly.com\/2018\/11\/05\/notes-from-the-first-two-armenian-town-halls-in-new-york-city\/"},{"ID":800232149,"Actor1":"STUDENT","Actor1_Country":null,"Actor2":"ARMENIA","Actor2_Country":"ARM","Code":42,"Class":1,"Action_Location":"Washington, District of Columbia, United States","Lat":38.8951,"Long":-77.0364,"Timestamp":20181105200000,"Source":"https:\/\/armenianweekly.com\/2018\/11\/05\/notes-from-the-first-two-armenian-town-halls-in-new-york-city\/"},{"ID":800232150,"Actor1":"INTELLECTUAL","Actor1_Country":null,"Actor2":"COMPANIES","Actor2_Country":null,"Code":80,"Class":2,"Action_Location":"Shanghai, Shanghai, China","Lat":31.2222,"Long":121.458,"Timestamp":20181105200000,"Source":"http:\/\/www.atimes.com\/article\/xis-usual-rhetoric-leaves-us-eu-waiting-for-concrete-action\/"},{"ID":800232151,"Actor1":"INTELLECTUAL","Actor1_Country":null,"Actor2":"COMPANIES","Actor2_Country":null,"Code":80,"Class":2,"Action_Location":"White House, District of Columbia, United States","Lat":38.8951,"Long":-77.0364,"Timestamp":20181105200000,"Source":"http:\/\/www.atimes.com\/article\/xis-usual-rhetoric-leaves-us-eu-waiting-for-concrete-action\/"},{"ID":800232152,"Actor1":"SCHOOL","Actor1_Country":null,"Actor2":"COMPANIES","Actor2_Country":null,"Code":114,"Class":3,"Action_Location":"Brazil","Lat":-10.0,"Long":-55.0,"Timestamp":20181105200000,"Source":"http:\/\/www.bainbridgereview.com\/opinion\/give-us-not-our-daily-trump-steve-klinger\/"},{"ID":800232153,"Actor1":"STUDENT","Actor1_Country":null,"Actor2":"CHINA","Actor2_Country":"CHN","Code":42,"Class":1,"Action_Location":"Beijing, Beijing, China","Lat":39.9289,"Long":116.388,"Timestamp":20181105200000,"Source":"https:\/\/meaww.com\/police-let-chinese-billionaire-richard-liu-walk-free-despite-claims-from-student-raped-her"},{"ID":800232154,"Actor1":"STUDENT","Actor1_Country":null,"Actor2":"CHINA","Actor2_Country":"CHN","Code":42,"Class":1,"Action_Location":"Beijing, Beijing, China","Lat":39.9289,"Long":116.388,"Timestamp":20181105200000,"Source":"https:\/\/meaww.com\/police-let-chinese-billionaire-richard-liu-walk-free-despite-claims-from-student-raped-her"},{"ID":800232155,"Actor1":"STUDENT","Actor1_Country":null,"Actor2":"CHINA","Actor2_Country":"CHN","Code":43,"Class":1,"Action_Location":"Beijing, Beijing, China","Lat":39.9289,"Long":116.388,"Timestamp":20181105200000,"Source":"https:\/\/meaww.com\/police-let-chinese-billionaire-richard-liu-walk-free-despite-claims-from-student-raped-her"},{"ID":800232156,"Actor1":"ACADEMICS","Actor1_Country":null,"Actor2":"SCIENTIST","Actor2_Country":null,"Code":57,"Class":1,"Action_Location":"Pinawa, Manitoba, Canada","Lat":50.15,"Long":-95.8833,"Timestamp":20181105200000,"Source":"https:\/\/www.newswire.ca\/news-releases\/top-scientists-writers-and-academics-sign-open-letter-backing-nuclear-to-tackle-climate-change-699682431.html"},{"ID":800232158,"Actor1":"STUDENT","Actor1_Country":null,"Actor2":"PREMIER","Actor2_Country":null,"Code":20,"Class":1,"Action_Location":"Powai, Assam, India","Lat":27.35,"Long":95.65,"Timestamp":20181105200000,"Source":"https:\/\/timesofindia.indiatimes.com\/city\/mumbai\/trump-effect-us-offers-at-iits-may-dwindle-further-this-year\/articleshow\/66517207.cms"},{"ID":800232159,"Actor1":"UNIVERSITY","Actor1_Country":null,"Actor2":"WORKER","Actor2_Country":null,"Code":42,"Class":1,"Action_Location":"Palm Beach, Florida, United States","Lat":26.7056,"Long":-80.0364,"Timestamp":20181105200000,"Source":"http:\/\/www.wlrn.org\/post\/new-early-voting-site-florida-atlantic-university-sees-second-lowest-turnout-palm-beach-county"},{"ID":800232160,"Actor1":"ACADEMICS","Actor1_Country":null,"Actor2":"WRITER","Actor2_Country":null,"Code":57,"Class":1,"Action_Location":"Pinawa, Manitoba, Canada","Lat":50.15,"Long":-95.8833,"Timestamp":20181105200000,"Source":"https:\/\/www.newswire.ca\/news-releases\/top-scientists-writers-and-academics-sign-open-letter-backing-nuclear-to-tackle-climate-change-699682431.html"},{"ID":800232161,"Actor1":"SCHOOL","Actor1_Country":null,"Actor2":"MEXICAN","Actor2_Country":"MEX","Code":42,"Class":1,"Action_Location":"Idaho, United States","Lat":44.2394,"Long":-114.51,"Timestamp":20181105200000,"Source":"https:\/\/www.kgns.tv\/content\/news\/Teachers-who-dressed-as-border-wall-suspended-with-pay-499656441.html"},{"ID":800232162,"Actor1":"SCHOOL","Actor1_Country":null,"Actor2":"MILITARY","Actor2_Country":null,"Code":43,"Class":1,"Action_Location":"Hamburg, Hamburg, Germany","Lat":53.55,"Long":10.0,"Timestamp":20181105200000,"Source":"http:\/\/neatoday.org\/2018\/11\/05\/the-bittersweet-experience-of-teaching-overseas\/"},{"ID":800232163,"Actor1":"SCHOOL","Actor1_Country":null,"Actor2":"MILITARY","Actor2_Country":null,"Code":43,"Class":1,"Action_Location":"White House, District of Columbia, United States","Lat":38.8951,"Long":-77.0364,"Timestamp":20181105200000,"Source":"http:\/\/neatoday.org\/2018\/11\/05\/the-bittersweet-experience-of-teaching-overseas\/"},{"ID":800232164,"Actor1":"SCHOOL","Actor1_Country":null,"Actor2":"MILITARY","Actor2_Country":null,"Code":43,"Class":1,"Action_Location":"South Korea","Lat":37.0,"Long":127.5,"Timestamp":20181105200000,"Source":"http:\/\/neatoday.org\/2018\/11\/05\/the-bittersweet-experience-of-teaching-overseas\/"},{"ID":800232165,"Actor1":"STUDENT","Actor1_Country":null,"Actor2":"ARMENIAN ASSEMBLY OF AMERICA","Actor2_Country":"USA","Code":42,"Class":1,"Action_Location":"Washington, District of Columbia, United States","Lat":38.8951,"Long":-77.0364,"Timestamp":20181105200000,"Source":"https:\/\/armenianweekly.com\/2018\/11\/05\/notes-from-the-first-two-armenian-town-halls-in-new-york-city\/"},{"ID":800232166,"Actor1":"COLLEGE","Actor1_Country":null,"Actor2":"STOCKHOLM","Actor2_Country":"SWE","Code":43,"Class":1,"Action_Location":"London, London, City of, United Kingdom","Lat":51.5,"Long":-0.116667,"Timestamp":20181105200000,"Source":"https:\/\/www.nytimes.com\/2018\/11\/05\/t-magazine\/sauna-gotland-sweden-design.html"},{"ID":800232167,"Actor1":"COLLEGE","Actor1_Country":null,"Actor2":"STOCKHOLM","Actor2_Country":"SWE","Code":43,"Class":1,"Action_Location":"London, London, City of, United Kingdom","Lat":51.5,"Long":-0.116667,"Timestamp":20181105200000,"Source":"https:\/\/www.nytimes.com\/2018\/11\/05\/t-magazine\/sauna-gotland-sweden-design.html"},{"ID":800232168,"Actor1":"SCHOOL","Actor1_Country":null,"Actor2":"UNITED STATES","Actor2_Country":"USA","Code":10,"Class":1,"Action_Location":"Barnstable High School, Massachusetts, United States","Lat":41.6562,"Long":-70.3209,"Timestamp":20181105200000,"Source":"http:\/\/yarmouth.wickedlocal.com\/news\/20181105\/combat-vet-takes-on-hometown-boy-in-2nd-barnstable-race"},{"ID":800232169,"Actor1":"SCHOOL","Actor1_Country":null,"Actor2":"UNITED STATES","Actor2_Country":"USA","Code":10,"Class":1,"Action_Location":"Provincetown, Massachusetts, United States","Lat":42.0584,"Long":-70.1786,"Timestamp":20181105200000,"Source":"http:\/\/yarmouth.wickedlocal.com\/news\/20181105\/combat-vet-takes-on-hometown-boy-in-2nd-barnstable-race"},{"ID":800232170,"Actor1":"UNIVERSITY","Actor1_Country":null,"Actor2":"MIAMI","Actor2_Country":"USA","Code":14,"Class":1,"Action_Location":"Palm Beach, Florida, United States","Lat":26.7056,"Long":-80.0364,"Timestamp":20181105200000,"Source":"http:\/\/www.wlrn.org\/post\/new-early-voting-site-florida-atlantic-university-sees-second-lowest-turnout-palm-beach-county"},{"ID":800232171,"Actor1":"UNIVERSITY","Actor1_Country":null,"Actor2":"MIAMI","Actor2_Country":"USA","Code":14,"Class":1,"Action_Location":"Miami, Florida, United States","Lat":25.7743,"Long":-80.1937,"Timestamp":20181105200000,"Source":"http:\/\/www.wlrn.org\/post\/new-early-voting-site-florida-atlantic-university-sees-second-lowest-turnout-palm-beach-county"},{"ID":800232172,"Actor1":"UNIVERSITY","Actor1_Country":null,"Actor2":"OKLAHOMA","Actor2_Country":"USA","Code":20,"Class":1,"Action_Location":"Oklahoma, United States","Lat":35.5376,"Long":-96.9247,"Timestamp":20181105200000,"Source":"http:\/\/www.hpj.com\/ag_news\/agritourism-field-day-set-for-nov-in-tuttle\/article_549b2c26-e110-11e8-bcc0-e30b43e52ce4.html"},{"ID":800232173,"Actor1":"SCHOOL","Actor1_Country":null,"Actor2":"UNITED STATES","Actor2_Country":"USA","Code":36,"Class":1,"Action_Location":"Amagansett, New York, United States","Lat":40.9737,"Long":-72.1437,"Timestamp":20181105200000,"Source":"https:\/\/www.marinadockage.com\/boem-taking-comments-proposed-wind-farm-off-new-england\/"},{"ID":800232174,"Actor1":"SCHOOL","Actor1_Country":null,"Actor2":"UNITED STATES","Actor2_Country":"USA","Code":36,"Class":1,"Action_Location":"Amagansett, New York, United States","Lat":40.9737,"Long":-72.1437,"Timestamp":20181105200000,"Source":"https:\/\/www.marinadockage.com\/boem-taking-comments-proposed-wind-farm-off-new-england\/"},{"ID":800232175,"Actor1":"UNIVERSITY","Actor1_Country":null,"Actor2":"UNITED STATES","Actor2_Country":"USA","Code":36,"Class":1,"Action_Location":"Chile","Lat":-30.0,"Long":-71.0,"Timestamp":20181105200000,"Source":"http:\/\/www.newspressnow.com\/life\/runcie-club-enjoys-variety-of-educational-programs\/article_278b4ed1-0156-5866-a68b-3adcf3e57f37.html"},{"ID":800232176,"Actor1":"UNIVERSITY","Actor1_Country":null,"Actor2":"UNITED STATES","Actor2_Country":"USA","Code":42,"Class":1,"Action_Location":"Palm Beach, Florida, United States","Lat":26.7056,"Long":-80.0364,"Timestamp":20181105200000,"Source":"http:\/\/www.wlrn.org\/post\/new-early-voting-site-florida-atlantic-university-sees-second-lowest-turnout-palm-beach-county"},{"ID":800232177,"Actor1":"UNIVERSITY","Actor1_Country":null,"Actor2":"OKLAHOMA","Actor2_Country":"USA","Code":42,"Class":1,"Action_Location":"Oklahoma, United States","Lat":35.5376,"Long":-96.9247,"Timestamp":20181105200000,"Source":"http:\/\/www.hpj.com\/ag_news\/agritourism-field-day-set-for-nov-in-tuttle\/article_549b2c26-e110-11e8-bcc0-e30b43e52ce4.html"},