[{"ID":800240131,"Actor1":"UNITED NATIONS","Actor1_Country":null,"Actor2":"THE US","Actor2_Country":"USA","Code":100,"Class":3,"Action_Location":"Jerusalem, Israel (general), Israel","Lat":31.7667,"Long":35.2333,"Timestamp":20181105204500,"Source":"https:\/\/www.presstv.com\/Detail\/2018\/11\/05\/579142\/Israeli-forces-shoot-injure-Palestinian-man-over-alleged-stabbing-attack"},{"ID":800240132,"Actor1":"UNITED STATES","Actor1_Country":"USA","Actor2":"RESIDENTS","Actor2_Country":null,"Code":20,"Class":1,"Action_Location":"Kearny County Hospital, Kansas, United States","Lat":37.9467,"Long":-101.252,"Timestamp":20181105204500,"Source":"https:\/\/www.msn.com\/en-us\/news\/us\/kansas-nursing-homes-improve-on-overusing-sedatives-but-missouri-now-among-the-worst\/ar-BBPn3wd"},{"ID":800240133,"Actor1":"VIRGINIA","Actor1_Country":"USA","Actor2":"DELEGATE","Actor2_Country":null,"Code":51,"Class":1,"Action_Location":"Virginia, United States","Lat":37.768,"Long":-78.2057,"Timestamp":20181105204500,"Source":"https:\/\/www.thenation.com\/article\/2018-state-legislature-elections-democrats\/"},{"ID":800240134,"Actor1":"BRAZIL","Actor1_Country":"BRA","Actor2":"MEDIA","Actor2_Country":null,"Code":14,"Class":1,"Action_Location":"Brazil","Lat":-10.0,"Long":-55.0,"Timestamp":20181105204500,"Source":"https:\/\/www.nytimes.com\/2018\/11\/05\/us\/politics\/misinformation-election-day.html"},{"ID":800240138,"Actor1":"AFRICA","Actor1_Country":"AFR","Actor2":"MEDIA","Actor2_Country":null,"Code":164,"Class":4,"Action_Location":"Georgia, United States","Lat":32.9866,"Long":-83.6487,"Timestamp":20181105204500,"Source":"https:\/\/www.newsbusters.org\/blogs\/nb\/geoffrey-dickens\/2018\/11\/05\/medias-midterm-madness-trump-blame-everything-wrong"},{"ID":800240139,"Actor1":"EUROPEAN COMMISSION","Actor1_Country":"EUR","Actor2":"EUROPEAN","Actor2_Country":"EUR","Code":120,"Class":3,"Action_Location":"London, London, City of, United Kingdom","Lat":51.5,"Long":-0.116667,"Timestamp":20181105204500,"Source":"http:\/\/www.cityam.com\/268405\/eu-firms-scramble-stay-city-no-deal-brexit"},{"ID":800240140,"Actor1":"MEDIA","Actor1_Country":null,"Actor2":"AFRICA","Actor2_Country":"AFR","Code":164,"Class":4,"Action_Location":"New York, United States","Lat":42.1497,"Long":-74.9384,"Timestamp":20181105204500,"Source":"https:\/\/www.newsbusters.org\/blogs\/nb\/geoffrey-dickens\/2018\/11\/05\/medias-midterm-madness-trump-blame-everything-wrong"},{"ID":800240143,"Actor1":"BISHOP","Actor1_Country":null,"Actor2":"RUSSIA","Actor2_Country":"RUS","Code":10,"Class":1,"Action_Location":"Petersburg, Sankt-Peterburg, Russia","Lat":59.8944,"Long":30.2642,"Timestamp":20181105204500,"Source":"https:\/\/www.heraldtribune.com\/news\/20181105\/local-catholic-priest-under-investigation-bishop-says"},{"ID":800240146,"Actor1":"UNITED STATES","Actor1_Country":"USA","Actor2":"ADMINISTRATION","Actor2_Country":null,"Code":40,"Class":1,"Action_Location":"Washington, District of Columbia, United States","Lat":38.8951,"Long":-77.0364,"Timestamp":20181105204500,"Source":"https:\/\/www.jpost.com\/American-Politics\/Trump-yet-to-appoint-traditional-envoys-amid-antisemitism-crisis-571139"},{"ID":800240147,"Actor1":"PENNSYLVANIA","Actor1_Country":"USA","Actor2":"ADMINISTRATION","Actor2_Country":null,"Code":40,"Class":1,"Action_Location":"White House, District of Columbia, United States","Lat":38.8951,"Long":-77.0364,"Timestamp":20181105204500,"Source":"https:\/\/www.jpost.com\/American-Politics\/Trump-yet-to-appoint-traditional-envoys-amid-antisemitism-crisis-571139"},{"ID":800240148,"Actor1":"WASHINGTON","Actor1_Country":"USA","Actor2":"ADMINISTRATION","Actor2_Country":null,"Code":193,"Class":4,"Action_Location":"Jerusalem, Israel (general), Israel","Lat":31.7667,"Long":35.2333,"Timestamp":20181105204500,"Source":"https:\/\/www.jpost.com\/American-Politics\/Trump-yet-to-appoint-traditional-envoys-amid-antisemitism-crisis-571139"},{"ID":800240150,"Actor1":"MAITHRIPALA SIRISENA","Actor1_Country":"LKA","Actor2":"GOVERNMENT","Actor2_Country":null,"Code":100,"Class":3,"Action_Location":"India","Lat":20.0,"Long":77.0,"Timestamp":20181105204500,"Source":"http:\/\/www.island.lk\/index.php?page_cat=article-details&page=article-details&code_title=193951"},{"ID":800240151,"Actor1":"TAIWAN","Actor1_Country":"TWN","Actor2":"AMERICAN","Actor2_Country":"USA","Code":17,"Class":1,"Action_Location":"Taipei, T'ai-pei, Taiwan","Lat":25.0478,"Long":121.532,"Timestamp":20181105204500,"Source":"https:\/\/www.eyeontaiwan.com\/us-to-highlight-taiwans-positive-role-as-tra-turns-40"},{"ID":800240152,"Actor1":"TAIWAN","Actor1_Country":"TWN","Actor2":"AMERICAN","Actor2_Country":"USA","Code":17,"Class":1,"Action_Location":"Taipei, T'ai-pei, Taiwan","Lat":25.0478,"Long":121.532,"Timestamp":20181105204500,"Source":"https:\/\/www.eyeontaiwan.com\/us-to-highlight-taiwans-positive-role-as-tra-turns-40"},{"ID":800240153,"Actor1":"TAIWAN","Actor1_Country":"TWN","Actor2":"AMERICAN INSTITUTE IN TAIWAN","Actor2_Country":"USA","Code":17,"Class":1,"Action_Location":"Taipei, T'ai-pei, Taiwan","Lat":25.0478,"Long":121.532,"Timestamp":20181105204500,"Source":"https:\/\/www.eyeontaiwan.com\/us-to-highlight-taiwans-positive-role-as-tra-turns-40"},{"ID":800240328,"Actor1":"AFGHANISTAN","Actor1_Country":"AFG","Actor2":"AFGHANISTAN","Actor2_Country":"AFG","Code":190,"Class":4,"Action_Location":"Delaware, United States","Lat":39.3498,"Long":-75.5148,"Timestamp":20181105204500,"Source":"https:\/\/www.12news.com\/article\/news\/utah-mayor-killed-in-afghanistan-grew-up-in-arizona\/75-eaf5457a-d5a2-4246-ac0f-759f1c86dab7"},{"ID":800240329,"Actor1":"AFGHANISTAN","Actor1_Country":"AFG","Actor2":"PARLIAMENT","Actor2_Country":null,"Code":10,"Class":1,"Action_Location":"Afghanistan","Lat":33.0,"Long":66.0,"Timestamp":20181105204500,"Source":"http:\/\/www.island.lk\/index.php?page_cat=article-details&page=article-details&code_title=193952"},{"ID":800240330,"Actor1":"AFGHANISTAN","Actor1_Country":"AFG","Actor2":"PARLIAMENT","Actor2_Country":null,"Code":10,"Class":1,"Action_Location":"Afghanistan","Lat":33.0,"Long":66.0,"Timestamp":20181105204500,"Source":"http:\/\/www.island.lk\/index.php?page_cat=article-details&page=article-details&code_title=193952"},{"ID":800240331,"Actor1":"AFGHANISTAN","Actor1_Country":"AFG","Actor2":"PARLIAMENT","Actor2_Country":null,"Code":40,"Class":1,"Action_Location":"Afghanistan","Lat":33.0,"Long":66.0,"Timestamp":20181105204500,"Source":"http:\/\/www.island.lk\/index.php?page_cat=article-details&page=article-details&code_title=193952"},{"ID":800240332,"Actor1":"AFGHANISTAN","Actor1_Country":"AFG","Actor2":"UNITED STATES","Actor2_Country":"USA","Code":33,"Class":1,"Action_Location":"Helmand, Helmand, Afghanistan","Lat":31.0,"Long":64.0,"Timestamp":20181105204500,"Source":"https:\/\/www.deseretnews.com\/article\/900040423\/snl-under-fire-for-mocking-afghanistan-war-veteran-who-lost-his-eye.html"},{"ID":800240333,"Actor1":"AFGHANISTAN","Actor1_Country":"AFG","Actor2":"UNITED STATES","Actor2_Country":"USA","Code":111,"Class":3,"Action_Location":"Helmand, Helmand, Afghanistan","Lat":31.0,"Long":64.0,"Timestamp":20181105204500,"Source":"https:\/\/www.deseretnews.com\/article\/900040423\/snl-under-fire-for-mocking-afghanistan-war-veteran-who-lost-his-eye.html"},{"ID":800240334,"Actor1":"AFGHANISTAN","Actor1_Country":"AFG","Actor2":"UNITED STATES","Actor2_Country":"USA","Code":43,"Class":1,"Action_Location":"Kabul, Kabol, Afghanistan","Lat":34.5167,"Long":69.1833,"Timestamp":20181105204500,"Source":"https:\/\/www.12news.com\/article\/news\/utah-mayor-killed-in-afghanistan-grew-up-in-arizona\/75-eaf5457a-d5a2-4246-ac0f-759f1c86dab7"},{"ID":800240335,"Actor1":"AFGHANISTAN","Actor1_Country":"AFG","Actor2":"UNITED STATES","Actor2_Country":"USA","Code":190,"Class":4,"Action_Location":"Arizona, United States","Lat":33.7712,"Long":-111.388,"Timestamp":20181105204500,"Source":"https:\/\/www.sfgate.com\/nation\/article\/Killing-of-mayor-brings-grief-to-admiring-town-he-13364360.php"},{"ID":800240336,"Actor1":"AFGHANISTAN","Actor1_Country":"AFG","Actor2":"SAMI","Actor2_Country":null,"Code":186,"Class":4,"Action_Location":"Rawalpindi, Punjab, Pakistan","Lat":33.6,"Long":73.0667,"Timestamp":20181105204500,"Source":"http:\/\/pakistanlink.org\/Headlines\/Nov18\/04.htm"},{"ID":800240341,"Actor1":"AFRICA","Actor1_Country":"AFR","Actor2":"AFRICA","Actor2_Country":"AFR","Code":90,"Class":2,"Action_Location":"Potchefstroom, North-West, South Africa","Lat":-26.7167,"Long":27.1,"Timestamp":20181105204500,"Source":"https:\/\/www.dailymaverick.co.za\/article\/2018-11-05-stealing-the-crust-ii-all-the-players-in-a-heinous-sa-mining-fraud\/"},{"ID":800240345,"Actor1":"EMIRATI","Actor1_Country":"ARE","Actor2":"EGYPT","Actor2_Country":"EGY","Code":40,"Class":1,"Action_Location":"Egypt","Lat":27.0,"Long":30.0,"Timestamp":20181105204500,"Source":"https:\/\/www.eturbonews.com\/237132\/travel-tourism-rolls-out-the-strongest-welcome-mat-in-the-world"},{"ID":800240346,"Actor1":"UNITED ARAB EMIRATES","Actor1_Country":"ARE","Actor2":"TURKEY","Actor2_Country":"TUR","Code":42,"Class":1,"Action_Location":"Turkey","Lat":39.059012,"Long":34.911546,"Timestamp":20181105204500,"Source":"https:\/\/m.gulfnews.com\/leisure\/breastfeeding-for-working-mums-1.2297627"},{"ID":800240348,"Actor1":"ARGENTINA","Actor1_Country":"ARG","Actor2":"BAHAMA","Actor2_Country":"BHS","Code":51,"Class":1,"Action_Location":"Argentina","Lat":-34.0,"Long":-64.0,"Timestamp":20181105204500,"Source":"http:\/\/www.tribune242.com\/news\/2018\/nov\/05\/few-prosecutions-show-anti-financial-crime-regime\/"},{"ID":800240356,"Actor1":"AUSTRALIA","Actor1_Country":"AUS","Actor2":"AUSTRALIA","Actor2_Country":"AUS","Code":43,"Class":1,"Action_Location":"Sunshine Coast, Queensland, Australia","Lat":-26.5,"Long":153.0,"Timestamp":20181105204500,"Source":"https:\/\/www.kiamaindependent.com.au\/story\/5741796\/coalition-mps-mull-two-elections-in-2019\/"},{"ID":800240357,"Actor1":"AUSTRALIA","Actor1_Country":"AUS","Actor2":"INDUSTRY","Actor2_Country":null,"Code":1124,"Class":3,"Action_Location":"Australia","Lat":-25.0,"Long":135.0,"Timestamp":20181105204500,"Source":"https:\/\/www.brokernews.com.au\/news\/breaking-news\/majors-profits-fall-in-restructures-256975.aspx"},{"ID":800240358,"Actor1":"VICTORIA","Actor1_Country":"AUS","Actor2":"GERMAN","Actor2_Country":"DEU","Code":193,"Class":4,"Action_Location":"Germany","Lat":51.5,"Long":10.5,"Timestamp":20181105204500,"Source":"https:\/\/www.metro.news\/erics-epic-journey-to-honour-war-dead\/1298621\/"},{"ID":800240360,"Actor1":"AUSTRALIA","Actor1_Country":"AUS","Actor2":"AUSTRALIA","Actor2_Country":"AUS","Code":42,"Class":1,"Action_Location":"Sunshine Coast, Queensland, Australia","Lat":-26.5,"Long":153.0,"Timestamp":20181105204500,"Source":"https:\/\/www.kiamaindependent.com.au\/story\/5741796\/coalition-mps-mull-two-elections-in-2019\/"},{"ID":800240361,"Actor1":"BELGIAN","Actor1_Country":"BEL","Actor2":"BELGIAN","Actor2_Country":"BEL","Code":190,"Class":4,"Action_Location":"Brussels, Bruxelles-Capitale, Belgium","Lat":50.8333,"Long":4.33333,"Timestamp":20181105204500,"Source":"http:\/\/morungexpress.com\/court-orders-belgian-ex-king-to-take-paternity-test\/"},{"ID":800240362,"Actor1":"BELGIAN","Actor1_Country":"BEL","Actor2":"BELGIUM","Actor2_Country":"BEL","Code":190,"Class":4,"Action_Location":"Brussels, Bruxelles-Capitale, Belgium","Lat":50.8333,"Long":4.33333,"Timestamp":20181105204500,"Source":"http:\/\/morungexpress.com\/court-orders-belgian-ex-king-to-take-paternity-test\/"},{"ID":800240364,"Actor1":"BRUSSELS","Actor1_Country":"BEL","Actor2":"FINANCE MINIST","Actor2_Country":null,"Code":30,"Class":1,"Action_Location":"Brussels, Bruxelles-Capitale, Belgium","Lat":50.8333,"Long":4.33333,"Timestamp":20181105204500,"Source":"https:\/\/www.freemalaysiatoday.com\/category\/business\/2018\/11\/05\/eurozone-ministers-face-defiant-italy-on-budget\/"},{"ID":800240365,"Actor1":"BELGIUM","Actor1_Country":"BEL","Actor2":"CHIEF EXECUTIVE","Actor2_Country":null,"Code":61,"Class":2,"Action_Location":"Karachi, Sindh, Pakistan","Lat":24.8667,"Long":67.05,"Timestamp":20181105204500,"Source":"https:\/\/www.urdupoint.com\/en\/pakistan\/sindh-govt-belgium-state-agency-sign-mou-for-473478.html"},{"ID":800240366,"Actor1":"BELGIUM","Actor1_Country":"BEL","Actor2":"CHIEF EXECUTIVE","Actor2_Country":null,"Code":61,"Class":2,"Action_Location":"Wallonia, Waals Gewest, Belgium","Lat":50.5,"Long":4.75,"Timestamp":20181105204500,"Source":"https:\/\/www.urdupoint.com\/en\/pakistan\/sindh-govt-belgium-state-agency-sign-mou-for-473478.html"},{"ID":800240367,"Actor1":"BRUSSELS","Actor1_Country":"BEL","Actor2":"ITALY","Actor2_Country":"ITA","Code":30,"Class":1,"Action_Location":"Brussels, Bruxelles-Capitale, Belgium","Lat":50.8333,"Long":4.33333,"Timestamp":20181105204500,"Source":"https:\/\/www.freemalaysiatoday.com\/category\/business\/2018\/11\/05\/eurozone-ministers-face-defiant-italy-on-budget\/"},{"ID":800240368,"Actor1":"BELGIAN","Actor1_Country":"BEL","Actor2":"BELGIAN","Actor2_Country":"BEL","Code":190,"Class":4,"Action_Location":"Brussels, Bruxelles-Capitale, Belgium","Lat":50.8333,"Long":4.33333,"Timestamp":20181105204500,"Source":"http:\/\/morungexpress.com\/court-orders-belgian-ex-king-to-take-paternity-test\/"},{"ID":800240369,"Actor1":"BANGLADESH","Actor1_Country":"BGD","Actor2":"BANGLADESH","Actor2_Country":"BGD","Code":40,"Class":1,"Action_Location":"Bangladesh","Lat":24.0,"Long":90.0,"Timestamp":20181105204500,"Source":"https:\/\/www.dhakatribune.com\/bangladesh\/foreign-affairs\/2018\/11\/05\/singapore-fm-long-arduous-road-ahead-on-rohingya-repatriation"},{"ID":800240370,"Actor1":"BANGLADESH","Actor1_Country":"BGD","Actor2":"FOREIGN MINIST","Actor2_Country":null,"Code":40,"Class":1,"Action_Location":"Bangladesh","Lat":24.0,"Long":90.0,"Timestamp":20181105204500,"Source":"https:\/\/www.dhakatribune.com\/bangladesh\/foreign-affairs\/2018\/11\/05\/singapore-fm-long-arduous-road-ahead-on-rohingya-repatriation"},{"ID":800240371,"Actor1":"BANGLADESH","Actor1_Country":"BGD","Actor2":"BANGLADESH","Actor2_Country":"BGD","Code":40,"Class":1,"Action_Location":"Bangladesh","Lat":24.0,"Long":90.0,"Timestamp":20181105204500,"Source":"https:\/\/www.dhakatribune.com\/bangladesh\/foreign-affairs\/2018\/11\/05\/singapore-fm-long-arduous-road-ahead-on-rohingya-repatriation"},{"ID":800240372,"Actor1":"SOFIA","Actor1_Country":"BGR","Actor2":"UNIVERSITY","Actor2_Country":null,"Code":36,"Class":1,"Action_Location":"Ireland","Lat":53.0,"Long":-8.0,"Timestamp":20181105204500,"Source":"http:\/\/www.universitytimes.ie\/2018\/11\/samantha-power-rainbow-week-and-david-swensen-your-week-ahead\/"},{"ID":800240373,"Actor1":"BULGARIA","Actor1_Country":"BGR","Actor2":"GOVERNMENT","Actor2_Country":null,"Code":51,"Class":1,"Action_Location":"Bulgaria","Lat":43.0,"Long":25.0,"Timestamp":20181105204500,"Source":"https:\/\/www.eturbonews.com\/237132\/travel-tourism-rolls-out-the-strongest-welcome-mat-in-the-world"},{"ID":800240380,"Actor1":"BAHAMA","Actor1_Country":"BHS","Actor2":"BUSINESS","Actor2_Country":null,"Code":13,"Class":1,"Action_Location":"Bahamas, The","Lat":24.0,"Long":-76.0,"Timestamp":20181105204500,"Source":"http:\/\/www.tribune242.com\/news\/2018\/nov\/05\/re-hired-nhi-consultants-fee-not-in-83m-ball-park\/"},{"ID":800240381,"Actor1":"BAHAMA","Actor1_Country":"BHS","Actor2":"INVESTOR","Actor2_Country":null,"Code":20,"Class":1,"Action_Location":"Bahamas, The","Lat":24.0,"Long":-76.0,"Timestamp":20181105204500,"Source":"http:\/\/www.tribune242.com\/news\/2018\/nov\/05\/bahamas-developers-blast-oecds-cynical-targeting\/"},{"ID":800240382,"Actor1":"BAHAMA","Actor1_Country":"BHS","Actor2":"AUTHORITIES","Actor2_Country":null,"Code":10,"Class":1,"Action_Location":"Bahamas, The","Lat":24.0,"Long":-76.0,"Timestamp":20181105204500,"Source":"http:\/\/www.tribune242.com\/news\/2018\/nov\/05\/few-prosecutions-show-anti-financial-crime-regime\/"},{"ID":800240383,"Actor1":"BAHAMA","Actor1_Country":"BHS","Actor2":"AUTHORITIES","Actor2_Country":null,"Code":311,"Class":1,"Action_Location":"Bahamas, The","Lat":24.0,"Long":-76.0,"Timestamp":20181105204500,"Source":"http:\/\/www.tribune242.com\/news\/2018\/nov\/05\/few-prosecutions-show-anti-financial-crime-regime\/"},{"ID":800240384,"Actor1":"BAHAMIAN","Actor1_Country":"BHS","Actor2":"GOOGLE","Actor2_Country":"USA","Code":43,"Class":1,"Action_Location":"Freeport, West Grand Bahama, Bahamas, The","Lat":26.5333,"Long":-78.7,"Timestamp":20181105204500,"Source":"http:\/\/www.thebahamasweekly.com\/publish\/bis-news-updates\/Education_Minister_Leads_Impressive_list_of_speakers_at_2nd_annual_GB_Tech_Summit59939.shtml"},{"ID":800240385,"Actor1":"BAHAMIAN","Actor1_Country":"BHS","Actor2":"FLORIDA","Actor2_Country":"USA","Code":192,"Class":4,"Action_Location":"Bahamas, The","Lat":24.0,"Long":-76.0,"Timestamp":20181105204500,"Source":"http:\/\/www.tribune242.com\/news\/2018\/nov\/05\/doctors-insurers-told-cut-fees-for-viable-nhi\/"},{"ID":800240386,"Actor1":"BAHAMIAN","Actor1_Country":"BHS","Actor2":"FLORIDA","Actor2_Country":"USA","Code":192,"Class":4,"Action_Location":"Bahamas, The","Lat":24.0,"Long":-76.0,"Timestamp":20181105204500,"Source":"http:\/\/www.tribune242.com\/news\/2018\/nov\/05\/doctors-insurers-told-cut-fees-for-viable-nhi\/"},{"ID":800240391,"Actor1":"MADEIRA","Actor1_Country":"BRA","Actor2":"UNITED STATES","Actor2_Country":"USA","Code":10,"Class":1,"Action_Location":"Tennessee, United States","Lat":35.7449,"Long":-86.7489,"Timestamp":20181105204500,"Source":"https:\/\/www.charlotteobserver.com\/news\/local\/article221135700.html"},{"ID":800240421,"Actor1":"BANK","Actor1_Country":null,"Actor2":"AFRICA","Actor2_Country":"AFR","Code":71,"Class":2,"Action_Location":"Dwaalboom, Limpopo, South Africa","Lat":-24.7247,"Long":26.8123,"Timestamp":20181105204500,"Source":"https:\/\/www.dailymaverick.co.za\/article\/2018-11-05-stealing-the-crust-ii-all-the-players-in-a-heinous-sa-mining-fraud\/"},{"ID":800240422,"Actor1":"BANK","Actor1_Country":null,"Actor2":"FARMER","Actor2_Country":null,"Code":130,"Class":3,"Action_Location":"Cornell University, New York, United States","Lat":42.447,"Long":-76.483,"Timestamp":20181105204500,"Source":"https:\/\/www.nextgov.com\/cio-briefing\/2018\/11\/us-desperately-needs-tech-savvy-lawmakers-midterms-are-unlikely-deliver\/152576\/"},{"ID":800240423,"Actor1":"BANK","Actor1_Country":null,"Actor2":"FARMER","Actor2_Country":null,"Code":130,"Class":3,"Action_Location":"California, United States","Lat":36.17,"Long":-119.746,"Timestamp":20181105204500,"Source":"https:\/\/www.nextgov.com\/cio-briefing\/2018\/11\/us-desperately-needs-tech-savvy-lawmakers-midterms-are-unlikely-deliver\/152576\/"},{"ID":800240424,"Actor1":"BANK","Actor1_Country":null,"Actor2":"BAHAMA","Actor2_Country":"BHS","Code":10,"Class":1,"Action_Location":"Bahamas, The","Lat":24.0,"Long":-76.0,"Timestamp":20181105204500,"Source":"https:\/\/www.cryptoglobe.com\/latest\/2018\/11\/chairman-of-deltec-bank-the-letter-published-by-tether-is-authentic\/"},{"ID":800240425,"Actor1":"BANK","Actor1_Country":null,"Actor2":"POLICE","Actor2_Country":null,"Code":20,"Class":1,"Action_Location":"Houston, Texas, United States","Lat":29.7633,"Long":-95.3633,"Timestamp":20181105204500,"Source":"https:\/\/www.enidnews.com\/news\/local_news\/fbi-warns-public-of-cyberstalking\/article_9ecfb408-51aa-5cb5-82f5-db98607d7524.html"},{"ID":800240426,"Actor1":"BANK","Actor1_Country":null,"Actor2":"POLICE","Actor2_Country":null,"Code":20,"Class":1,"Action_Location":"Oklahoma, United States","Lat":35.5376,"Long":-96.9247,"Timestamp":20181105204500,"Source":"https:\/\/www.enidnews.com\/news\/local_news\/fbi-warns-public-of-cyberstalking\/article_9ecfb408-51aa-5cb5-82f5-db98607d7524.html"},{"ID":800240428,"Actor1":"TOURISM INDUSTRY","Actor1_Country":null,"Actor2":"TOURIST","Actor2_Country":null,"Code":42,"Class":1,"Action_Location":"Costa Del Sol, Spain (general), Spain","Lat":36.6833,"Long":-4.0,"Timestamp":20181105204500,"Source":"http:\/\/www.surinenglish.com\/national\/201811\/05\/andalucia-expects-reach-milestone-20181105173110.html"},{"ID":800240429,"Actor1":"COMPANY","Actor1_Country":null,"Actor2":"VOTER","Actor2_Country":null,"Code":42,"Class":1,"Action_Location":"East Tennessee State University, Tennessee, United States","Lat":36.3034,"Long":-82.369,"Timestamp":20181105204500,"Source":"https:\/\/www.newschannel5.com\/news\/election\/congressional-races\/blackburn-campaigns-across-tennessee-in-last-minute-push"},{"ID":800240430,"Actor1":"BUSINESS","Actor1_Country":null,"Actor2":"PROPERTY OWNER","Actor2_Country":null,"Code":46,"Class":1,"Action_Location":"North Carolina, United States","Lat":35.6411,"Long":-79.8431,"Timestamp":20181105204500,"Source":"https:\/\/www.coastalnewstoday.com\/podcasts\/emeritus-professor-paul-komar-from-the-asbpa-nat"},{"ID":800240431,"Actor1":"CORPORATION","Actor1_Country":null,"Actor2":"SAGA","Actor2_Country":"JPN","Code":110,"Class":3,"Action_Location":"Washington, United States","Lat":47.3917,"Long":-121.571,"Timestamp":20181105204500,"Source":"https:\/\/kafe.com\/2018\/11\/01\/kafe-chocolate-connection-3\/"},{"ID":800240432,"Actor1":"COMPANY","Actor1_Country":null,"Actor2":"EMPLOYEE","Actor2_Country":null,"Code":90,"Class":2,"Action_Location":"Nebraska, United States","Lat":41.1289,"Long":-98.2883,"Timestamp":20181105204500,"Source":"https:\/\/www.technologyreview.com\/the-download\/612382\/this-robotic-cowboy-is-waving-trash-bags-to-keep-people-from-being-kicked-by\/"},{"ID":800240433,"Actor1":"COMPANY","Actor1_Country":null,"Actor2":"WEBSITE","Actor2_Country":null,"Code":10,"Class":1,"Action_Location":"Salt Lake City, Utah, United States","Lat":40.7608,"Long":-111.891,"Timestamp":20181105204500,"Source":"https:\/\/www.dailypolitical.com\/2018\/11\/05\/extra-space-storage-inc-exr-shares-sold-by-texas-permanent-school-fund.html"},{"ID":800240434,"Actor1":"CHAMBER OF COMMERCE AND INDUSTRY","Actor1_Country":null,"Actor2":"OMANI","Actor2_Country":"OMN","Code":45,"Class":1,"Action_Location":"Duqm, Al Wust\u00e1U, Oman","Lat":19.65,"Long":57.7,"Timestamp":20181105204500,"Source":"https:\/\/www.stiripesurse.ro\/pm-dancila-romania-has-an-attractive-business-environment-improved-by-recent-legislative-changes_1301742.html"},{"ID":800240435,"Actor1":"CHAMBER OF COMMERCE AND INDUSTRY","Actor1_Country":null,"Actor2":"OMANI","Actor2_Country":"OMN","Code":45,"Class":1,"Action_Location":"Duqm, Al Wust\u00e1U, Oman","Lat":19.65,"Long":57.7,"Timestamp":20181105204500,"Source":"https:\/\/www.stiripesurse.ro\/pm-dancila-romania-has-an-attractive-business-environment-improved-by-recent-legislative-changes_1301742.html"},{"ID":800240436,"Actor1":"CHAMBER OF COMMERCE AND INDUSTRY","Actor1_Country":null,"Actor2":"ROMANIA","Actor2_Country":null,"Code":311,"Class":1,"Action_Location":"Duqm, Al Wust\u00e1U, Oman","Lat":19.65,"Long":57.7,"Timestamp":20181105204500,"Source":"https:\/\/www.stiripesurse.ro\/pm-dancila-romania-has-an-attractive-business-environment-improved-by-recent-legislative-changes_1301742.html"},{"ID":800240437,"Actor1":"CHAMBER OF COMMERCE AND INDUSTRY","Actor1_Country":null,"Actor2":"ROMANIA","Actor2_Country":null,"Code":311,"Class":1,"Action_Location":"Duqm, Al Wust\u00e1U, Oman","Lat":19.65,"Long":57.7,"Timestamp":20181105204500,"Source":"https:\/\/www.stiripesurse.ro\/pm-dancila-romania-has-an-attractive-business-environment-improved-by-recent-legislative-changes_1301742.html"},{"ID":800240438,"Actor1":"CHAMBER OF COMMERCE AND INDUSTRY","Actor1_Country":null,"Actor2":"ROMANIA","Actor2_Country":null,"Code":311,"Class":1,"Action_Location":"Romania","Lat":46.0,"Long":25.0,"Timestamp":20181105204500,"Source":"https:\/\/www.stiripesurse.ro\/pm-dancila-romania-has-an-attractive-business-environment-improved-by-recent-legislative-changes_1301742.html"},{"ID":800240439,"Actor1":"BUSINESS","Actor1_Country":null,"Actor2":"ROMANIA","Actor2_Country":null,"Code":43,"Class":1,"Action_Location":"Romania","Lat":46.0,"Long":25.0,"Timestamp":20181105204500,"Source":"https:\/\/www.stiripesurse.ro\/pm-dancila-romania-has-an-attractive-business-environment-improved-by-recent-legislative-changes_1301742.html"},{"ID":800240440,"Actor1":"BUSINESS","Actor1_Country":null,"Actor2":"ROMANIA","Actor2_Country":null,"Code":43,"Class":1,"Action_Location":"Romania","Lat":46.0,"Long":25.0,"Timestamp":20181105204500,"Source":"https:\/\/www.stiripesurse.ro\/pm-dancila-romania-has-an-attractive-business-environment-improved-by-recent-legislative-changes_1301742.html"},{"ID":800240441,"Actor1":"PRODUCER","Actor1_Country":null,"Actor2":"UNITED STATES","Actor2_Country":"USA","Code":10,"Class":1,"Action_Location":"West Hollywood, California, United States","Lat":34.09,"Long":-118.362,"Timestamp":20181105204500,"Source":"https:\/\/www.wehoville.com\/2018\/11\/05\/the-1111-successor-to-macha-theatre-opens-with-famous\/"},{"ID":800240442,"Actor1":"BUSINESS","Actor1_Country":null,"Actor2":"UNITED STATES","Actor2_Country":"USA","Code":20,"Class":1,"Action_Location":"Mountain View, California, United States","Lat":34.5064,"Long":-117.359,"Timestamp":20181105204500,"Source":"https:\/\/www.nextgov.com\/emerging-tech\/2018\/11\/tech-billionaires-obligation-cities-around-them\/152577\/"},{"ID":800240443,"Actor1":"COMPANY","Actor1_Country":null,"Actor2":"NEW YORK CITY","Actor2_Country":"USA","Code":331,"Class":1,"Action_Location":"New York, United States","Lat":42.1497,"Long":-74.9384,"Timestamp":20181105204500,"Source":"https:\/\/www.kcra.com\/article\/amazons-hq2-may-be-split-between-two-cities-reports-say\/24681126"},{"ID":800240444,"Actor1":"INDUSTRY","Actor1_Country":null,"Actor2":"PHOENIX","Actor2_Country":"USA","Code":40,"Class":1,"Action_Location":"Idaho, United States","Lat":44.2394,"Long":-114.51,"Timestamp":20181105204500,"Source":"http:\/\/www.capitalpress.com\/Dairy\/20181105\/idaho-dairyman-honored-for-contributions-to-dairy-promotion"},{"ID":800240445,"Actor1":"INDUSTRY","Actor1_Country":null,"Actor2":"PHOENIX","Actor2_Country":"USA","Code":40,"Class":1,"Action_Location":"Idaho, United States","Lat":44.2394,"Long":-114.51,"Timestamp":20181105204500,"Source":"http:\/\/www.capitalpress.com\/Dairy\/20181105\/idaho-dairyman-honored-for-contributions-to-dairy-promotion"},{"ID":800240446,"Actor1":"COMPANY","Actor1_Country":null,"Actor2":"MISSOURI","Actor2_Country":"USA","Code":42,"Class":1,"Action_Location":"Canada","Lat":60.0,"Long":-96.0,"Timestamp":20181105204500,"Source":"https:\/\/www.thetelegraph.com\/news\/article\/Lowe-8217-s-to-shutter-Granite-City-location-as-13363717.php"},{"ID":800240447,"Actor1":"BANK","Actor1_Country":null,"Actor2":"TEXAS","Actor2_Country":"USA","Code":46,"Class":1,"Action_Location":"Lubbock, Texas, United States","Lat":33.5779,"Long":-101.855,"Timestamp":20181105204500,"Source":"https:\/\/www.everythinglubbock.com\/news\/local-news\/lubbock-national-acquired-by-amarillo-national-bank\/1574035637"},{"ID":800240448,"Actor1":"COMPANY","Actor1_Country":null,"Actor2":"TEXAS","Actor2_Country":"USA","Code":71,"Class":2,"Action_Location":"Florida, United States","Lat":27.8333,"Long":-81.717,"Timestamp":20181105204500,"Source":"https:\/\/www.lmtonline.com\/neighborhood\/galveston\/article\/NASA-conducting-quiet-sonic-boom-tests-in-13364152.php"},{"ID":800240449,"Actor1":"BUSINESS","Actor1_Country":null,"Actor2":"UNITED STATES","Actor2_Country":"USA","Code":71,"Class":2,"Action_Location":"New York, United States","Lat":42.1497,"Long":-74.9384,"Timestamp":20181105204500,"Source":"https:\/\/www.nextgov.com\/emerging-tech\/2018\/11\/tech-billionaires-obligation-cities-around-them\/152577\/"},{"ID":800240450,"Actor1":"COMPANY","Actor1_Country":null,"Actor2":"TEXAS","Actor2_Country":"USA","Code":71,"Class":2,"Action_Location":"Texas, United States","Lat":31.106,"Long":-97.6475,"Timestamp":20181105204500,"Source":"https:\/\/www.lmtonline.com\/neighborhood\/galveston\/article\/NASA-conducting-quiet-sonic-boom-tests-in-13364152.php"},{"ID":800240451,"Actor1":"COMPANY","Actor1_Country":null,"Actor2":"BOSTON","Actor2_Country":"USA","Code":90,"Class":2,"Action_Location":"Massachusetts, United States","Lat":42.2373,"Long":-71.5314,"Timestamp":20181105204500,"Source":"https:\/\/www.bostonglobe.com\/business\/2018\/11\/05\/amazon-reportedly-planning-split-between-two-cities\/xc75zWwBYhiBrKXNaSKK7N\/story.html"},{"ID":800240452,"Actor1":"COMPANIES","Actor1_Country":null,"Actor2":"UNITED STATES","Actor2_Country":"USA","Code":120,"Class":3,"Action_Location":"Douglas County, Kansas, United States","Lat":38.8667,"Long":-95.2336,"Timestamp":20181105204500,"Source":"http:\/\/www2.ljworld.com\/news\/general-news\/2018\/nov\/05\/douglas-county-consumers-only-have-one-aca-insurance-option-for-2019-but-wont-be-fined-for-not-enrolling\/"},{"ID":800240461,"Actor1":"SASKATCHEWAN","Actor1_Country":"CAN","Actor2":"POLICE","Actor2_Country":null,"Code":84,"Class":2,"Action_Location":"Saskatchewan, Manitoba, Canada","Lat":52.15,"Long":-97.7167,"Timestamp":20181105204500,"Source":"https:\/\/www.brandonsun.com\/national\/breaking-news\/saskatchewan-to-let-police-release-domestic-violence-records-to-people-at-risk-499695471.html"},{"ID":800240462,"Actor1":"OTTAWA","Actor1_Country":"CAN","Actor2":"FRANCE","Actor2_Country":"FRA","Code":17,"Class":1,"Action_Location":"Paris, France (general), France","Lat":48.8667,"Long":2.33333,"Timestamp":20181105204500,"Source":"https:\/\/www.brandonsun.com\/national\/breaking-news\/trudeau-to-visit-vimy-ridge-paris-for-first-world-war-anniversary-events-499688061.html"},{"ID":800240463,"Actor1":"OTTAWA","Actor1_Country":"CAN","Actor2":"FRANCE","Actor2_Country":"FRA","Code":17,"Class":1,"Action_Location":"Paris, France (general), France","Lat":48.8667,"Long":2.33333,"Timestamp":20181105204500,"Source":"https:\/\/www.brandonsun.com\/national\/breaking-news\/trudeau-to-visit-vimy-ridge-paris-for-first-world-war-anniversary-events-499688061.html"},{"ID":800240464,"Actor1":"CANADIAN","Actor1_Country":"CAN","Actor2":"UNITED KINGDOM","Actor2_Country":"GBR","Code":10,"Class":1,"Action_Location":"London, London, City of, United Kingdom","Lat":51.5,"Long":-0.116667,"Timestamp":20181105204500,"Source":"https:\/\/lfpress.com\/news\/local-news\/name-by-name-database-fills-in-gaps-for-london-efforts-to-aid-homeless"},{"ID":800240465,"Actor1":"CANADIAN","Actor1_Country":"CAN","Actor2":"UNITED KINGDOM","Actor2_Country":"GBR","Code":10,"Class":1,"Action_Location":"Toronto, Ontario, Canada","Lat":43.6667,"Long":-79.4167,"Timestamp":20181105204500,"Source":"https:\/\/lfpress.com\/news\/local-news\/name-by-name-database-fills-in-gaps-for-london-efforts-to-aid-homeless"},{"ID":800240466,"Actor1":"OTTAWA","Actor1_Country":"CAN","Actor2":"WORKER","Actor2_Country":null,"Code":43,"Class":1,"Action_Location":"Ottawa, Ontario, Canada","Lat":45.4167,"Long":-75.7,"Timestamp":20181105204500,"Source":"https:\/\/www.nationalobserver.com\/2018\/11\/05\/news\/federal-panel-privately-urges-trudeau-government-do-more-coal-workers"},{"ID":800240469,"Actor1":"CANADA","Actor1_Country":"CAN","Actor2":"WEBSITE","Actor2_Country":null,"Code":46,"Class":1,"Action_Location":"Port Colborne, Ontario, Canada","Lat":42.8833,"Long":-79.2333,"Timestamp":20181105204500,"Source":"https:\/\/www.niagarafallsreview.ca\/news-story\/9006995-postal-strike-hits-niagara\/"},{"ID":800240470,"Actor1":"NEW BRUNSWICK","Actor1_Country":"CAN","Actor2":"LIEUTENANT","Actor2_Country":null,"Code":40,"Class":1,"Action_Location":"Canada","Lat":60.0,"Long":-96.0,"Timestamp":20181105204500,"Source":"https:\/\/www.brandonsun.com\/national\/breaking-news\/progressive-conservatives-set-to-take-power-friday-in-new-brunswick-499694161.html"},{"ID":800240471,"Actor1":"OTTAWA","Actor1_Country":"CAN","Actor2":"FRANCE","Actor2_Country":"FRA","Code":17,"Class":1,"Action_Location":"Germany","Lat":51.5,"Long":10.5,"Timestamp":20181105204500,"Source":"http:\/\/www.chroniclejournal.com\/news\/national\/trudeau-to-visit-vimy-ridge-paris-for-first-world-war\/article_04605825-519a-520a-a72c-02914fee3dff.html"},{"ID":800240472,"Actor1":"OTTAWA","Actor1_Country":"CAN","Actor2":"FRANCE","Actor2_Country":"FRA","Code":17,"Class":1,"Action_Location":"Paris, France (general), France","Lat":48.8667,"Long":2.33333,"Timestamp":20181105204500,"Source":"https:\/\/www.brandonsun.com\/national\/breaking-news\/trudeau-to-visit-vimy-ridge-paris-for-first-world-war-anniversary-events-499688061.html"},{"ID":800240473,"Actor1":"SWISS","Actor1_Country":"CHE","Actor2":"SWITZERLAND","Actor2_Country":"CHE","Code":10,"Class":1,"Action_Location":"Bern, Bern, Switzerland","Lat":46.9167,"Long":7.46667,"Timestamp":20181105204500,"Source":"https:\/\/www.oann.com\/were-glad-to-be-boring-in-era-of-brexit-and-trump-swiss-president-jokes\/"},{"ID":800240476,"Actor1":"CHINESE","Actor1_Country":"CHN","Actor2":"PRIME MINISTER","Actor2_Country":null,"Code":40,"Class":1,"Action_Location":"Raza Muhammad Khan, Balochistan, Pakistan","Lat":28.4272,"Long":68.7285,"Timestamp":20181105204500,"Source":"http:\/\/www.radio.gov.pk\/05-11-2018\/pm-imran-khans-visit-to-china-eliminated-rumors-misconceptions-about-cpec-analysts"},{"ID":800240477,"Actor1":"CHINA","Actor1_Country":"CHN","Actor2":"PRIME MINISTER","Actor2_Country":null,"Code":40,"Class":1,"Action_Location":"Russia","Lat":60.0,"Long":100.0,"Timestamp":20181105204500,"Source":"http:\/\/www.radio.gov.pk\/expertview\/262"},{"ID":800240478,"Actor1":"CHINA","Actor1_Country":"CHN","Actor2":"PRIME MINISTER","Actor2_Country":null,"Code":40,"Class":1,"Action_Location":"Russia","Lat":60.0,"Long":100.0,"Timestamp":20181105204500,"Source":"http:\/\/www.radio.gov.pk\/expertview\/262"},{"ID":800240479,"Actor1":"CHINESE","Actor1_Country":"CHN","Actor2":"INDONESIA","Actor2_Country":"IDN","Code":43,"Class":1,"Action_Location":"Indonesia","Lat":-5.0,"Long":120.0,"Timestamp":20181105204500,"Source":"https:\/\/www.thenation.com\/article\/trade-war-tariff-lobster-china-maine\/"},{"ID":800240480,"Actor1":"CHINESE","Actor1_Country":"CHN","Actor2":"INDONESIA","Actor2_Country":"IDN","Code":43,"Class":1,"Action_Location":"Thailand","Lat":15.0,"Long":100.0,"Timestamp":20181105204500,"Source":"https:\/\/www.thenation.com\/article\/trade-war-tariff-lobster-china-maine\/"},{"ID":800240481,"Actor1":"CHINA","Actor1_Country":"CHN","Actor2":"PAKISTAN","Actor2_Country":"PAK","Code":30,"Class":1,"Action_Location":"Raza Muhammad Khan, Balochistan, Pakistan","Lat":28.4272,"Long":68.7285,"Timestamp":20181105204500,"Source":"http:\/\/www.radio.gov.pk\/05-11-2018\/pm-imran-khans-visit-to-china-eliminated-rumors-misconceptions-about-cpec-analysts"},{"ID":800240482,"Actor1":"CHINA","Actor1_Country":"CHN","Actor2":"PAKISTAN","Actor2_Country":"PAK","Code":30,"Class":1,"Action_Location":"Raza Muhammad Khan, Balochistan, Pakistan","Lat":28.4272,"Long":68.7285,"Timestamp":20181105204500,"Source":"http:\/\/www.radio.gov.pk\/05-11-2018\/pm-imran-khans-visit-to-china-eliminated-rumors-misconceptions-about-cpec-analysts"},{"ID":800240483,"Actor1":"CHINA","Actor1_Country":"CHN","Actor2":"PAKISTAN","Actor2_Country":"PAK","Code":30,"Class":1,"Action_Location":"United States","Lat":39.828175,"Long":-98.5795,"Timestamp":20181105204500,"Source":"http:\/\/www.radio.gov.pk\/05-11-2018\/pm-imran-khans-visit-to-china-eliminated-rumors-misconceptions-about-cpec-analysts"},{"ID":800240484,"Actor1":"CHINA","Actor1_Country":"CHN","Actor2":"PAKISTAN","Actor2_Country":"PAK","Code":33,"Class":1,"Action_Location":"Beijing, Beijing, China","Lat":39.9289,"Long":116.388,"Timestamp":20181105204500,"Source":"http:\/\/in.newshub.org\/pak-channel-trolled-showing-imran-khan-begging-he-beijing-29233049.html"},{"ID":800240485,"Actor1":"CHINA","Actor1_Country":"CHN","Actor2":"PAKISTAN","Actor2_Country":"PAK","Code":43,"Class":1,"Action_Location":"Shanghai, Shanghai, China","Lat":31.2222,"Long":121.458,"Timestamp":20181105204500,"Source":"http:\/\/www.radio.gov.pk\/05-11-2018\/pm-imran-khans-visit-to-china-eliminated-rumors-misconceptions-about-cpec-analysts"},{"ID":800240486,"Actor1":"CHINA","Actor1_Country":"CHN","Actor2":"PAKISTAN","Actor2_Country":"PAK","Code":43,"Class":1,"Action_Location":"China","Lat":35.0,"Long":105.0,"Timestamp":20181105204500,"Source":"http:\/\/www.radio.gov.pk\/expertview\/260"},{"ID":800240487,"Actor1":"CHINA","Actor1_Country":"CHN","Actor2":"PAKISTAN","Actor2_Country":"PAK","Code":50,"Class":1,"Action_Location":"China","Lat":35.0,"Long":105.0,"Timestamp":20181105204500,"Source":"http:\/\/pakistanlink.org\/Headlines\/Nov18\/04.htm"},{"ID":800240488,"Actor1":"CHINA","Actor1_Country":"CHN","Actor2":"ISLAMABAD","Actor2_Country":"PAK","Code":50,"Class":1,"Action_Location":"China","Lat":35.0,"Long":105.0,"Timestamp":20181105204500,"Source":"http:\/\/pakistanlink.org\/Headlines\/Nov18\/04.htm"},{"ID":800240489,"Actor1":"CHINA","Actor1_Country":"CHN","Actor2":"PAKISTAN","Actor2_Country":"PAK","Code":51,"Class":1,"Action_Location":"Pakistan","Lat":30.0,"Long":70.0,"Timestamp":20181105204500,"Source":"http:\/\/pakistanlink.org\/Headlines\/Nov18\/05\/11.htm"},{"ID":800240490,"Actor1":"CHINA","Actor1_Country":"CHN","Actor2":"PAKISTAN","Actor2_Country":"PAK","Code":57,"Class":1,"Action_Location":"Raza Muhammad Khan, Balochistan, Pakistan","Lat":28.4272,"Long":68.7285,"Timestamp":20181105204500,"Source":"http:\/\/www.radio.gov.pk\/05-11-2018\/pm-imran-khans-visit-to-china-eliminated-rumors-misconceptions-about-cpec-analysts"},{"ID":800240491,"Actor1":"CHINA","Actor1_Country":"CHN","Actor2":"PAKISTAN","Actor2_Country":"PAK","Code":57,"Class":1,"Action_Location":"China","Lat":35.0,"Long":105.0,"Timestamp":20181105204500,"Source":"http:\/\/pakistanlink.org\/Headlines\/Nov18\/04.htm"},{"ID":800240492,"Actor1":"CHINA","Actor1_Country":"CHN","Actor2":"PAKISTAN","Actor2_Country":"PAK","Code":57,"Class":1,"Action_Location":"Raza Muhammad Khan, Balochistan, Pakistan","Lat":28.4272,"Long":68.7285,"Timestamp":20181105204500,"Source":"http:\/\/www.radio.gov.pk\/05-11-2018\/pm-imran-khans-visit-to-china-eliminated-rumors-misconceptions-about-cpec-analysts"},{"ID":800240493,"Actor1":"CHINA","Actor1_Country":"CHN","Actor2":"PAKISTAN","Actor2_Country":"PAK","Code":57,"Class":1,"Action_Location":"United States","Lat":39.828175,"Long":-98.5795,"Timestamp":20181105204500,"Source":"http:\/\/www.radio.gov.pk\/05-11-2018\/pm-imran-khans-visit-to-china-eliminated-rumors-misconceptions-about-cpec-analysts"},{"ID":800240494,"Actor1":"CHINA","Actor1_Country":"CHN","Actor2":"UNITED STATES","Actor2_Country":"USA","Code":42,"Class":1,"Action_Location":"New York, United States","Lat":42.1497,"Long":-74.9384,"Timestamp":20181105204500,"Source":"https:\/\/theslanted.com\/2018\/11\/31208\/elsa-hosk-fantasy-bra-victorias-secret-fashion-holiday\/"},{"ID":800240495,"Actor1":"SHANGHAI","Actor1_Country":"CHN","Actor2":"NEW YORK CITY","Actor2_Country":"USA","Code":42,"Class":1,"Action_Location":"New York, United States","Lat":42.1497,"Long":-74.9384,"Timestamp":20181105204500,"Source":"https:\/\/theslanted.com\/2018\/11\/31208\/elsa-hosk-fantasy-bra-victorias-secret-fashion-holiday\/"},{"ID":800240496,"Actor1":"SHANGHAI","Actor1_Country":"CHN","Actor2":"NEW YORK","Actor2_Country":"USA","Code":42,"Class":1,"Action_Location":"New York, United States","Lat":42.1497,"Long":-74.9384,"Timestamp":20181105204500,"Source":"https:\/\/theslanted.com\/2018\/11\/31208\/elsa-hosk-fantasy-bra-victorias-secret-fashion-holiday\/"},{"ID":800240497,"Actor1":"CHINA","Actor1_Country":"CHN","Actor2":"UNITED STATES","Actor2_Country":"USA","Code":61,"Class":2,"Action_Location":"United States","Lat":39.828175,"Long":-98.5795,"Timestamp":20181105204500,"Source":"http:\/\/the-japan-news.com\/news\/article\/0004942023"},{"ID":800240498,"Actor1":"CHINA","Actor1_Country":"CHN","Actor2":"MONTANA","Actor2_Country":"USA","Code":13,"Class":1,"Action_Location":"China","Lat":35.0,"Long":105.0,"Timestamp":20181105204500,"Source":"http:\/\/www.cantondailyledger.com\/zz\/news\/20181105\/nothing-certain-on-eve-of-first-trump-era-elections"},{"ID":800240499,"Actor1":"CHINA","Actor1_Country":"CHN","Actor2":"MONTANA","Actor2_Country":"USA","Code":13,"Class":1,"Action_Location":"Montana, United States","Lat":46.9048,"Long":-110.326,"Timestamp":20181105204500,"Source":"http:\/\/www.cantondailyledger.com\/zz\/news\/20181105\/nothing-certain-on-eve-of-first-trump-era-elections"},{"ID":800240500,"Actor1":"CHINA","Actor1_Country":"CHN","Actor2":"UNITED STATES","Actor2_Country":"USA","Code":20,"Class":1,"Action_Location":"Florida, United States","Lat":27.8333,"Long":-81.717,"Timestamp":20181105204500,"Source":"http:\/\/www.cantondailyledger.com\/zz\/news\/20181105\/nothing-certain-on-eve-of-first-trump-era-elections"},{"ID":800240501,"Actor1":"CHINA","Actor1_Country":"CHN","Actor2":"UNITED STATES","Actor2_Country":"USA","Code":110,"Class":3,"Action_Location":"Montana, United States","Lat":46.9048,"Long":-110.326,"Timestamp":20181105204500,"Source":"http:\/\/www.cantondailyledger.com\/zz\/news\/20181105\/nothing-certain-on-eve-of-first-trump-era-elections"},{"ID":800240504,"Actor1":"CHRISTIAN","Actor1_Country":null,"Actor2":"SCHOOL","Actor2_Country":null,"Code":51,"Class":1,"Action_Location":"Naperville, Illinois, United States","Lat":41.7859,"Long":-88.1473,"Timestamp":20181105204500,"Source":"http:\/\/www.chicagotribune.com\/suburbs\/naperville-sun\/news\/ct-nvs-interdenomination-gathering-naperville-synogogue-st-1107-story.html"},{"ID":800240505,"Actor1":"CHRISTIAN","Actor1_Country":null,"Actor2":"SPAIN","Actor2_Country":"ESP","Code":42,"Class":1,"Action_Location":"Spain","Lat":40.0,"Long":-4.0,"Timestamp":20181105204500,"Source":"https:\/\/www.dispatch.com\/news\/20181105\/ohio-nursery-school-teacher-nears-50-years-on-job"},{"ID":800240506,"Actor1":"CHRISTIAN","Actor1_Country":null,"Actor2":"UNITED STATES","Actor2_Country":"USA","Code":51,"Class":1,"Action_Location":"Naperville, Illinois, United States","Lat":41.7859,"Long":-88.1473,"Timestamp":20181105204500,"Source":"http:\/\/www.chicagotribune.com\/suburbs\/naperville-sun\/news\/ct-nvs-interdenomination-gathering-naperville-synogogue-st-1107-story.html"},{"ID":800240509,"Actor1":"CATHOLIC","Actor1_Country":null,"Actor2":"UNITED STATES","Actor2_Country":"USA","Code":42,"Class":1,"Action_Location":"Naperville, Illinois, United States","Lat":41.7859,"Long":-88.1473,"Timestamp":20181105204500,"Source":"http:\/\/www.chicagotribune.com\/suburbs\/naperville-sun\/news\/ct-nvs-interdenomination-gathering-naperville-synogogue-st-1107-story.html"},{"ID":800240510,"Actor1":"CATHOLIC","Actor1_Country":null,"Actor2":"UNITED STATES","Actor2_Country":"USA","Code":110,"Class":3,"Action_Location":"Le Mars, Iowa, United States","Lat":42.7942,"Long":-96.1656,"Timestamp":20181105204500,"Source":"http:\/\/klem1410.com\/2018\/11\/05\/monday-afternoon-news-november-5th\/"},{"ID":800240512,"Actor1":"LUTHERAN","Actor1_Country":null,"Actor2":"CITIZEN","Actor2_Country":null,"Code":51,"Class":1,"Action_Location":"Taiwan","Lat":24.0,"Long":121.0,"Timestamp":20181105204500,"Source":"http:\/\/www.newtondailynews.com\/2018\/10\/31\/open-to-host-pasta-dinner-thursday\/a55zny\/"},{"ID":800240513,"Actor1":"LUTHERAN","Actor1_Country":null,"Actor2":"UNITED STATES","Actor2_Country":"USA","Code":40,"Class":1,"Action_Location":"Bethel Baptist Church, Florida, United States","Lat":28.5669,"Long":-81.5915,"Timestamp":20181105204500,"Source":"https:\/\/www.alamogordonews.com\/story\/news\/2018\/11\/05\/community-calendar-nov-nov\/38400587\/"},{"ID":800240514,"Actor1":"LUTHERAN","Actor1_Country":null,"Actor2":"UNITED STATES","Actor2_Country":"USA","Code":40,"Class":1,"Action_Location":"Lutheran Church, Florida, United States","Lat":28.5531,"Long":-81.3742,"Timestamp":20181105204500,"Source":"https:\/\/www.alamogordonews.com\/story\/news\/2018\/11\/05\/community-calendar-nov-nov\/38400587\/"},{"ID":800240515,"Actor1":"CAMEROON","Actor1_Country":"CMR","Actor2":"SCHOOL","Actor2_Country":null,"Code":181,"Class":4,"Action_Location":"Bamenda, Nord-Ouest, Cameroon","Lat":5.95265,"Long":10.1582,"Timestamp":20181105204500,"Source":"https:\/\/m.gulfnews.com\/news\/africa\/78-people-mostly-school-children-kidnapped-in-cameroon-1.2298074"},{"ID":800240516,"Actor1":"DR CONGO","Actor1_Country":"COD","Actor2":"DIRECTOR GENERAL","Actor2_Country":null,"Code":43,"Class":1,"Action_Location":"Democratic Republic Of The Congo","Lat":0.0,"Long":25.0,"Timestamp":20181105204500,"Source":"https:\/\/appablog.wordpress.com\/2018\/11\/05\/media-advisory-un-under-secretary-general-and-who-director-general-visit-to-dr-congo\/"},{"ID":800240517,"Actor1":"COLOMBIA","Actor1_Country":"COL","Actor2":"LOCAL MEDIA","Actor2_Country":null,"Code":13,"Class":1,"Action_Location":"Cuba","Lat":22.0,"Long":-79.5,"Timestamp":20181105204500,"Source":"https:\/\/www.thesun.co.uk\/news\/7665890\/ten-year-old-girl-who-got-pregnant-after-being-raped-by-her-older-brother-gives-birth-to-a-baby-boy-in-colombia\/"},{"ID":800240530,"Actor1":"POLICE","Actor1_Country":null,"Actor2":"BUSINESS","Actor2_Country":null,"Code":64,"Class":2,"Action_Location":"Kennebunk, Maine, United States","Lat":43.384,"Long":-70.5448,"Timestamp":20181105204500,"Source":"https:\/\/www.pressherald.com\/2018\/11\/05\/kennebunk-man-charged-with-terrorizing-threatened-to-shoot-up-business\/"},{"ID":800240531,"Actor1":"POLICE","Actor1_Country":null,"Actor2":"CANTON","Actor2_Country":"CHN","Code":173,"Class":4,"Action_Location":"China","Lat":35.0,"Long":105.0,"Timestamp":20181105204500,"Source":"http:\/\/www.thesuburbanite.com\/news\/20181102\/canton-man-charged-with-jackson-township-hotel-robbery"},{"ID":800240532,"Actor1":"POLICE","Actor1_Country":null,"Actor2":"CANTON","Actor2_Country":"CHN","Code":60,"Class":2,"Action_Location":"China","Lat":35.0,"Long":105.0,"Timestamp":20181105204500,"Source":"http:\/\/www.thesuburbanite.com\/news\/20181102\/canton-man-charged-with-jackson-township-hotel-robbery"},{"ID":800240533,"Actor1":"POLICE","Actor1_Country":null,"Actor2":"CANTON","Actor2_Country":"CHN","Code":90,"Class":2,"Action_Location":"China","Lat":35.0,"Long":105.0,"Timestamp":20181105204500,"Source":"http:\/\/www.thesuburbanite.com\/news\/20181102\/canton-man-charged-with-jackson-township-hotel-robbery"},{"ID":800240534,"Actor1":"DEPUTY","Actor1_Country":null,"Actor2":"DEPUTY","Actor2_Country":null,"Code":40,"Class":1,"Action_Location":"Denmark","Lat":56.0,"Long":10.0,"Timestamp":20181105204500,"Source":"http:\/\/www.somalilandsun.com\/somaliland-government-endorses-the-informal-trade-and-economy-study-report\/"},{"ID":800240535,"Actor1":"POLICE","Actor1_Country":null,"Actor2":"AUTHORITIES","Actor2_Country":null,"Code":20,"Class":1,"Action_Location":"Sacramento, California, United States","Lat":38.5816,"Long":-121.494,"Timestamp":20181105204500,"Source":"https:\/\/sacramento.cbslocal.com\/2018\/11\/05\/da-woman-kills-5-year-old-daughter-by-pushing-her-down-stairs-on-halloween\/"},{"ID":800240536,"Actor1":"POLICE","Actor1_Country":null,"Actor2":"EMPLOYEE","Actor2_Country":null,"Code":40,"Class":1,"Action_Location":"Kennebunk, Maine, United States","Lat":43.384,"Long":-70.5448,"Timestamp":20181105204500,"Source":"https:\/\/www.pressherald.com\/2018\/11\/05\/kennebunk-man-charged-with-terrorizing-threatened-to-shoot-up-business\/"},{"ID":800240537,"Actor1":"POLICE","Actor1_Country":null,"Actor2":"EMPLOYEE","Actor2_Country":null,"Code":40,"Class":1,"Action_Location":"Maine, United States","Lat":44.6074,"Long":-69.3977,"Timestamp":20181105204500,"Source":"https:\/\/www.pressherald.com\/2018\/11\/05\/kennebunk-man-charged-with-terrorizing-threatened-to-shoot-up-business\/"},{"ID":800240538,"Actor1":"DEPUTIES","Actor1_Country":null,"Actor2":"MALE","Actor2_Country":"MDV","Code":190,"Class":4,"Action_Location":"Marin County, California, United States","Lat":38.0666,"Long":-122.734,"Timestamp":20181105204500,"Source":"https:\/\/www.mysanantonio.com\/crime\/article\/1-dead-2-injured-in-rehab-center-shooting-in-San-13363386.php"},{"ID":800240539,"Actor1":"DEPUTIES","Actor1_Country":null,"Actor2":"MALE","Actor2_Country":"MDV","Code":190,"Class":4,"Action_Location":"Sonoma, California, United States","Lat":38.2919,"Long":-122.458,"Timestamp":20181105204500,"Source":"https:\/\/www.mysanantonio.com\/crime\/article\/1-dead-2-injured-in-rehab-center-shooting-in-San-13363386.php"},{"ID":800240540,"Actor1":"DEPUTY","Actor1_Country":null,"Actor2":"SOMALIA","Actor2_Country":"SOM","Code":40,"Class":1,"Action_Location":"Somalia","Lat":6.0,"Long":48.0,"Timestamp":20181105204500,"Source":"http:\/\/www.somalilandsun.com\/somaliland-government-endorses-the-informal-trade-and-economy-study-report\/"},{"ID":800240541,"Actor1":"POLICE","Actor1_Country":null,"Actor2":"NEW MEXICO","Actor2_Country":"USA","Code":30,"Class":1,"Action_Location":"Alamogordo, New Mexico, United States","Lat":32.8995,"Long":-105.96,"Timestamp":20181105204500,"Source":"https:\/\/www.alamogordonews.com\/story\/news\/local\/community\/2018\/11\/05\/former-alamogordo-police-detective-appeals-termination\/1834573002\/"},{"ID":800240542,"Actor1":"POLICE","Actor1_Country":null,"Actor2":"NEW MEXICO","Actor2_Country":"USA","Code":30,"Class":1,"Action_Location":"New Mexico, United States","Lat":34.8375,"Long":-106.237,"Timestamp":20181105204500,"Source":"https:\/\/www.alamogordonews.com\/story\/news\/local\/community\/2018\/11\/05\/former-alamogordo-police-detective-appeals-termination\/1834573002\/"},{"ID":800240543,"Actor1":"POLICE","Actor1_Country":null,"Actor2":"UNITED STATES","Actor2_Country":"USA","Code":173,"Class":4,"Action_Location":"Etowah, North Carolina, United States","Lat":35.3176,"Long":-82.5943,"Timestamp":20181105204500,"Source":"http:\/\/www.dailypostathenian.com\/police_reports\/article_170a082d-80cf-5785-af06-5ea938a65f99.html"},{"ID":800240544,"Actor1":"POLICE","Actor1_Country":null,"Actor2":"UNITED STATES","Actor2_Country":"USA","Code":173,"Class":4,"Action_Location":"Sweetwater, North Carolina, United States","Lat":35.7307,"Long":-81.2995,"Timestamp":20181105204500,"Source":"http:\/\/www.dailypostathenian.com\/police_reports\/article_170a082d-80cf-5785-af06-5ea938a65f99.html"},{"ID":800240545,"Actor1":"POLICE","Actor1_Country":null,"Actor2":"BOSTON","Actor2_Country":"USA","Code":173,"Class":4,"Action_Location":"Jamaica Plain, Massachusetts, United States","Lat":42.3098,"Long":-71.1203,"Timestamp":20181105204500,"Source":"https:\/\/www.wcvb.com\/article\/man-fights-off-stabbing-with-trash-barrel-police-say\/24667831"},{"ID":800240546,"Actor1":"POLICE","Actor1_Country":null,"Actor2":"CHICAGO","Actor2_Country":"USA","Code":173,"Class":4,"Action_Location":"Indiana, United States","Lat":39.8647,"Long":-86.2604,"Timestamp":20181105204500,"Source":"https:\/\/www.thetelegraph.com\/news\/crime\/article\/Man-captured-a-month-after-Chicago-crash-kills-3-13363759.php"},{"ID":800240547,"Actor1":"POLICE","Actor1_Country":null,"Actor2":"WISCONSIN","Actor2_Country":"USA","Code":190,"Class":4,"Action_Location":"Halmstad Elementary School, Wisconsin, United States","Lat":44.9144,"Long":-91.3793,"Timestamp":20181105204500,"Source":"https:\/\/www.bbc.co.uk\/news\/world-us-canada-46102804"},{"ID":800240548,"Actor1":"POLICE","Actor1_Country":null,"Actor2":"WISCONSIN","Actor2_Country":"USA","Code":190,"Class":4,"Action_Location":"Lake Hallie, Wisconsin, United States","Lat":44.8758,"Long":-91.4407,"Timestamp":20181105204500,"Source":"https:\/\/www.bbc.co.uk\/news\/world-us-canada-46102804"},{"ID":800240549,"Actor1":"POLICE","Actor1_Country":null,"Actor2":"MICHIGAN","Actor2_Country":"USA","Code":190,"Class":4,"Action_Location":"Muskegon County, Michigan, United States","Lat":43.3,"Long":-86.1334,"Timestamp":20181105204500,"Source":"https:\/\/www.freep.com\/story\/news\/local\/michigan\/2018\/11\/05\/woman-crashes-suv-muskegon-heights-liquor-store\/1892551002\/"},{"ID":800240550,"Actor1":"POLICE","Actor1_Country":null,"Actor2":"MICHIGAN","Actor2_Country":"USA","Code":190,"Class":4,"Action_Location":"Grand Rapids, Michigan, United States","Lat":42.9634,"Long":-85.6681,"Timestamp":20181105204500,"Source":"https:\/\/www.freep.com\/story\/news\/local\/michigan\/2018\/11\/05\/woman-crashes-suv-muskegon-heights-liquor-store\/1892551002\/"},{"ID":800240551,"Actor1":"POLICE","Actor1_Country":null,"Actor2":"UNITED STATES","Actor2_Country":"USA","Code":190,"Class":4,"Action_Location":"Lakeland, Michigan, United States","Lat":42.4634,"Long":-83.8441,"Timestamp":20181105204500,"Source":"https:\/\/www.dailymail.co.uk\/news\/article-6355007\/Michigan-K-9-killed-shootout-near-baby-shower.html"},{"ID":800240552,"Actor1":"DEPUTY","Actor1_Country":null,"Actor2":"DEPUTY","Actor2_Country":null,"Code":40,"Class":1,"Action_Location":"Denmark","Lat":56.0,"Long":10.0,"Timestamp":20181105204500,"Source":"http:\/\/www.somalilandsun.com\/somaliland-government-endorses-the-informal-trade-and-economy-study-report\/"},{"ID":800240553,"Actor1":"DEPUTY","Actor1_Country":null,"Actor2":"MINISTRY","Actor2_Country":null,"Code":51,"Class":1,"Action_Location":"Denmark","Lat":56.0,"Long":10.0,"Timestamp":20181105204500,"Source":"http:\/\/www.somalilandsun.com\/somaliland-government-endorses-the-informal-trade-and-economy-study-report\/"},{"ID":800240554,"Actor1":"DEPUTY","Actor1_Country":null,"Actor2":"MINISTRY","Actor2_Country":null,"Code":51,"Class":1,"Action_Location":"Somalia","Lat":6.0,"Long":48.0,"Timestamp":20181105204500,"Source":"http:\/\/www.somalilandsun.com\/somaliland-government-endorses-the-informal-trade-and-economy-study-report\/"},{"ID":800240555,"Actor1":"DEPUTY","Actor1_Country":null,"Actor2":"STATE SECRETARY","Actor2_Country":null,"Code":60,"Class":2,"Action_Location":"Chemnitz, Sachsen, Germany","Lat":50.8333,"Long":12.9167,"Timestamp":20181105204500,"Source":"https:\/\/www.european-views.com\/member-state-monitor\/german-ex-intelligence-chief-forced-into-retirement-after-blasting-radical-left-in-farewell-speech\/"},{"ID":800240558,"Actor1":"GANG","Actor1_Country":null,"Actor2":"STUDENT","Actor2_Country":null,"Code":1821,"Class":4,"Action_Location":"United States","Lat":39.828175,"Long":-98.5795,"Timestamp":20181105204500,"Source":"https:\/\/www.zerohedge.com\/news\/2018-11-05\/what-causes-normal-election-spiral-tribal-warfare"},{"ID":800240559,"Actor1":"CROOK","Actor1_Country":null,"Actor2":"UNITED STATES","Actor2_Country":"USA","Code":112,"Class":3,"Action_Location":"Ohio, United States","Lat":40.3736,"Long":-82.7755,"Timestamp":20181105204500,"Source":"https:\/\/www.newstimes.com\/news\/politics\/article\/Trump-accuser-s-election-bid-is-about-more-than-13354783.php"},{"ID":800240560,"Actor1":"FELON","Actor1_Country":null,"Actor2":"UNITED STATES","Actor2_Country":"USA","Code":173,"Class":4,"Action_Location":"Paris, France (general), France","Lat":48.8667,"Long":2.33333,"Timestamp":20181105204500,"Source":"http:\/\/theparisnews.com\/news\/article_aa4ba9cc-e122-11e8-b810-3b2561264e0b.html"},{"ID":800240561,"Actor1":"CROOK","Actor1_Country":null,"Actor2":"OHIO","Actor2_Country":"USA","Code":112,"Class":3,"Action_Location":"Ohio, United States","Lat":40.3736,"Long":-82.7755,"Timestamp":20181105204500,"Source":"https:\/\/www.newstimes.com\/news\/politics\/article\/Trump-accuser-s-election-bid-is-about-more-than-13354783.php"},{"ID":800240594,"Actor1":"SETTLEMENT","Actor1_Country":null,"Actor2":"BANK","Actor2_Country":null,"Code":10,"Class":1,"Action_Location":"Rustenburg Platinum Mines, Limpopo, South Africa","Lat":-24.9354,"Long":27.1708,"Timestamp":20181105204500,"Source":"https:\/\/www.dailymaverick.co.za\/article\/2018-11-05-stealing-the-crust-ii-all-the-players-in-a-heinous-sa-mining-fraud\/"},{"ID":800240595,"Actor1":"RESIDENTS","Actor1_Country":null,"Actor2":"COMPANIES","Actor2_Country":null,"Code":231,"Class":1,"Action_Location":"East Palo Alto, California, United States","Lat":37.4688,"Long":-122.141,"Timestamp":20181105204500,"Source":"https:\/\/www.nextgov.com\/emerging-tech\/2018\/11\/tech-billionaires-obligation-cities-around-them\/152577\/"},{"ID":800240596,"Actor1":"TOURIST","Actor1_Country":null,"Actor2":"TOURISM INDUSTRY","Actor2_Country":null,"Code":43,"Class":1,"Action_Location":"London, London, City of, United Kingdom","Lat":51.5,"Long":-0.116667,"Timestamp":20181105204500,"Source":"http:\/\/www.surinenglish.com\/national\/201811\/05\/andalucia-expects-reach-milestone-20181105173110.html"},{"ID":800240597,"Actor1":"VOTER","Actor1_Country":null,"Actor2":"COMPANY","Actor2_Country":null,"Code":43,"Class":1,"Action_Location":"Tennessee, United States","Lat":35.7449,"Long":-86.7489,"Timestamp":20181105204500,"Source":"https:\/\/www.newschannel5.com\/news\/election\/congressional-races\/blackburn-campaigns-across-tennessee-in-last-minute-push"},{"ID":800240598,"Actor1":"PROPERTY OWNER","Actor1_Country":null,"Actor2":"BUSINESS","Actor2_Country":null,"Code":46,"Class":1,"Action_Location":"North Carolina, United States","Lat":35.6411,"Long":-79.8431,"Timestamp":20181105204500,"Source":"https:\/\/www.coastalnewstoday.com\/podcasts\/emeritus-professor-paul-komar-from-the-asbpa-nat"},{"ID":800240599,"Actor1":"RESIDENTS","Actor1_Country":null,"Actor2":"COMPANIES","Actor2_Country":null,"Code":173,"Class":4,"Action_Location":"East Palo Alto, California, United States","Lat":37.4688,"Long":-122.141,"Timestamp":20181105204500,"Source":"https:\/\/www.nextgov.com\/emerging-tech\/2018\/11\/tech-billionaires-obligation-cities-around-them\/152577\/"},{"ID":800240600,"Actor1":"MIGRANT","Actor1_Country":null,"Actor2":"GERMANY","Actor2_Country":"DEU","Code":36,"Class":1,"Action_Location":"Chemnitz, Sachsen, Germany","Lat":50.8333,"Long":12.9167,"Timestamp":20181105204500,"Source":"https:\/\/www.european-views.com\/member-state-monitor\/german-ex-intelligence-chief-forced-into-retirement-after-blasting-radical-left-in-farewell-speech\/"},{"ID":800240601,"Actor1":"COMMUNITY","Actor1_Country":null,"Actor2":"SCHOOL","Actor2_Country":null,"Code":10,"Class":1,"Action_Location":"Tennessee, United States","Lat":35.7449,"Long":-86.7489,"Timestamp":20181105204500,"Source":"https:\/\/www.charlotteobserver.com\/news\/local\/article221135700.html"},{"ID":800240602,"Actor1":"COMMUNITY","Actor1_Country":null,"Actor2":"COLLEGE","Actor2_Country":null,"Code":42,"Class":1,"Action_Location":"Ireland","Lat":53.0,"Long":-8.0,"Timestamp":20181105204500,"Source":"http:\/\/www.universitytimes.ie\/2018\/11\/samantha-power-rainbow-week-and-david-swensen-your-week-ahead\/"},{"ID":800240603,"Actor1":"COMMUNITY","Actor1_Country":null,"Actor2":"GOVERNMENT","Actor2_Country":null,"Code":13,"Class":1,"Action_Location":"Japan","Lat":36.0,"Long":138.0,"Timestamp":20181105204500,"Source":"https:\/\/www.dailymercury.com.au\/news\/bowen-basin-mine-hits-a-major-milestone\/3568314\/"},{"ID":800240604,"Actor1":"POPULATION","Actor1_Country":null,"Actor2":"AUTHORITIES","Actor2_Country":null,"Code":30,"Class":1,"Action_Location":"London, London, City of, United Kingdom","Lat":51.5,"Long":-0.116667,"Timestamp":20181105204500,"Source":"http:\/\/www.surinenglish.com\/national\/201811\/05\/andalucia-expects-reach-milestone-20181105173110.html"},{"ID":800240605,"Actor1":"VOTER","Actor1_Country":null,"Actor2":"PRESIDENT","Actor2_Country":null,"Code":43,"Class":1,"Action_Location":"Maricopa County, Arizona, United States","Lat":33.5,"Long":-112.501,"Timestamp":20181105204500,"Source":"http:\/\/www.rollcall.com\/news\/politics\/doj-civil-rights-division-monitor-polls-35-counties-election-day"},{"ID":800240606,"Actor1":"TOURIST","Actor1_Country":null,"Actor2":"MAYOR","Actor2_Country":null,"Code":46,"Class":1,"Action_Location":"Costa Del Sol, Spain (general), Spain","Lat":36.6833,"Long":-4.0,"Timestamp":20181105204500,"Source":"http:\/\/www.surinenglish.com\/national\/201811\/05\/andalucia-expects-reach-milestone-20181105173110.html"},{"ID":800240607,"Actor1":"CITIZEN","Actor1_Country":null,"Actor2":"GOVERNOR","Actor2_Country":null,"Code":160,"Class":4,"Action_Location":"Rutherford County, Tennessee, United States","Lat":35.8501,"Long":-86.4,"Timestamp":20181105204500,"Source":"https:\/\/www.dnj.com\/story\/news\/2018\/11\/05\/election-day-follows-record-early-voting-turn-out-rutherford-county-governor-senate-trump-congress\/1890729002\/"},{"ID":800240608,"Actor1":"CITIZEN","Actor1_Country":null,"Actor2":"GOVERNOR","Actor2_Country":null,"Code":160,"Class":4,"Action_Location":"Lavergne Middle School, Tennessee, United States","Lat":36.0279,"Long":-86.5645,"Timestamp":20181105204500,"Source":"https:\/\/www.dnj.com\/story\/news\/2018\/11\/05\/election-day-follows-record-early-voting-turn-out-rutherford-county-governor-senate-trump-congress\/1890729002\/"},{"ID":800240609,"Actor1":"VOTER","Actor1_Country":null,"Actor2":"GOVERNOR","Actor2_Country":null,"Code":160,"Class":4,"Action_Location":"Lavergne Middle School, Tennessee, United States","Lat":36.0279,"Long":-86.5645,"Timestamp":20181105204500,"Source":"https:\/\/www.dnj.com\/story\/news\/2018\/11\/05\/election-day-follows-record-early-voting-turn-out-rutherford-county-governor-senate-trump-congress\/1890729002\/"},{"ID":800240610,"Actor1":"SCIENTIST","Actor1_Country":null,"Actor2":"INDONESIAN","Actor2_Country":"IDN","Code":10,"Class":1,"Action_Location":"Brazil","Lat":-10.0,"Long":-55.0,"Timestamp":20181105204500,"Source":"https:\/\/www.independent.co.uk\/environment\/orangutans-indonesia-nature-climate-change-protests-jair-bolsonaro-donald-trump-a8618961.html"},{"ID":800240611,"Actor1":"SCIENTIST","Actor1_Country":null,"Actor2":"INDONESIAN","Actor2_Country":"IDN","Code":10,"Class":1,"Action_Location":"Brazil","Lat":-10.0,"Long":-55.0,"Timestamp":20181105204500,"Source":"https:\/\/www.independent.co.uk\/environment\/orangutans-indonesia-nature-climate-change-protests-jair-bolsonaro-donald-trump-a8618961.html"},{"ID":800240612,"Actor1":"VOTER","Actor1_Country":null,"Actor2":"HOUSE OF REPRESENTATIVES","Actor2_Country":null,"Code":14,"Class":1,"Action_Location":"Maryland, United States","Lat":39.0724,"Long":-76.7902,"Timestamp":20181105204500,"Source":"https:\/\/lfpress.com\/news\/local-news\/calling-all-ex-pats-local-americans-urged-to-vote-in-heated-u-s-midterm-election"},{"ID":800240613,"Actor1":"VOTER","Actor1_Country":null,"Actor2":"CONGRESS","Actor2_Country":null,"Code":52,"Class":1,"Action_Location":"White House, District of Columbia, United States","Lat":38.8951,"Long":-77.0364,"Timestamp":20181105204500,"Source":"http:\/\/www.rollcall.com\/news\/politics\/democrats-have-much-more-at-stake-in-tuesdays-balloting"},{"ID":800240614,"Actor1":"RESIDENTS","Actor1_Country":null,"Actor2":"WEBSITE","Actor2_Country":null,"Code":46,"Class":1,"Action_Location":"Port Colborne, Ontario, Canada","Lat":42.8833,"Long":-79.2333,"Timestamp":20181105204500,"Source":"https:\/\/www.niagarafallsreview.ca\/news-story\/9006995-postal-strike-hits-niagara\/"},{"ID":800240615,"Actor1":"VOTER","Actor1_Country":null,"Actor2":"GOOGLE","Actor2_Country":"USA","Code":111,"Class":3,"Action_Location":"Mountain View, California, United States","Lat":34.5064,"Long":-117.359,"Timestamp":20181105204500,"Source":"https:\/\/www.nextgov.com\/emerging-tech\/2018\/11\/tech-billionaires-obligation-cities-around-them\/152577\/"},{"ID":800240616,"Actor1":"HUNTER","Actor1_Country":null,"Actor2":"MUSLIM","Actor2_Country":null,"Code":130,"Class":3,"Action_Location":"United States","Lat":39.828175,"Long":-98.5795,"Timestamp":20181105204500,"Source":"https:\/\/politicalwire.com\/2018\/11\/05\/duncan-hunter-goes-full-anti-muslim\/"},{"ID":800240617,"Actor1":"RESIDENTS","Actor1_Country":null,"Actor2":"UNITED STATES","Actor2_Country":"USA","Code":14,"Class":1,"Action_Location":"Houston, Texas, United States","Lat":29.7633,"Long":-95.3633,"Timestamp":20181105204500,"Source":"https:\/\/www.chron.com\/neighborhood\/neighborhood\/moco\/news\/article\/More-than-138K-residents-cast-early-ballots-in-13364369.php"},{"ID":800240618,"Actor1":"RESIDENTS","Actor1_Country":null,"Actor2":"UNITED STATES","Actor2_Country":"USA","Code":14,"Class":1,"Action_Location":"Montgomery County, Texas, United States","Lat":30.3169,"Long":-95.4669,"Timestamp":20181105204500,"Source":"https:\/\/www.chron.com\/neighborhood\/neighborhood\/moco\/news\/article\/More-than-138K-residents-cast-early-ballots-in-13364369.php"},{"ID":800240619,"Actor1":"COMMUNITY","Actor1_Country":null,"Actor2":"UNITED STATES","Actor2_Country":"USA","Code":14,"Class":1,"Action_Location":"Montgomery County, Texas, United States","Lat":30.3169,"Long":-95.4669,"Timestamp":20181105204500,"Source":"https:\/\/www.chron.com\/neighborhood\/neighborhood\/moco\/news\/article\/More-than-138K-residents-cast-early-ballots-in-13364369.php"},{"ID":800240620,"Actor1":"VOTER","Actor1_Country":null,"Actor2":"UNITED STATES","Actor2_Country":"USA","Code":20,"Class":1,"Action_Location":"Nueces, Texas, United States","Lat":27.8142,"Long":-97.4619,"Timestamp":20181105204500,"Source":"https:\/\/www.caller.com\/story\/news\/politics\/elections\/2018\/11\/05\/2018-texas-election-results-texas-voting-results-texas-us-senate-beto-orourke-ted-cruz-governor\/1825298002\/"},{"ID":800240621,"Actor1":"VOTER","Actor1_Country":null,"Actor2":"TEXAS","Actor2_Country":"USA","Code":20,"Class":1,"Action_Location":"Wichita County, Texas, United States","Lat":33.9668,"Long":-98.717,"Timestamp":20181105204500,"Source":"https:\/\/www.caller.com\/story\/news\/politics\/elections\/2018\/11\/05\/2018-texas-election-results-texas-voting-results-texas-us-senate-beto-orourke-ted-cruz-governor\/1825298002\/"},{"ID":800240622,"Actor1":"VOTER","Actor1_Country":null,"Actor2":"PHILADELPHIA","Actor2_Country":"USA","Code":36,"Class":1,"Action_Location":"Germantown, Pennsylvania, United States","Lat":39.7693,"Long":-77.148,"Timestamp":20181105204500,"Source":"https:\/\/www.metro.us\/news\/local-news\/philadelphia\/vote-app-turnout"},{"ID":800240623,"Actor1":"VOTER","Actor1_Country":null,"Actor2":"UNITED STATES","Actor2_Country":"USA","Code":40,"Class":1,"Action_Location":"White House, District of Columbia, United States","Lat":38.8951,"Long":-77.0364,"Timestamp":20181105204500,"Source":"http:\/\/www.rollcall.com\/news\/politics\/democrats-have-much-more-at-stake-in-tuesdays-balloting"},{"ID":800240624,"Actor1":"SMALL TOWN","Actor1_Country":null,"Actor2":"UNITED STATES","Actor2_Country":"USA","Code":42,"Class":1,"Action_Location":"Bayou La Batre, Alabama, United States","Lat":30.4035,"Long":-88.2485,"Timestamp":20181105204500,"Source":"https:\/\/www.al.com\/news\/2018\/11\/as-elections-loom-alabamas-shrimping-industry-faces-an-uncertain-future.html"},{"ID":800240625,"Actor1":"VILLAGE","Actor1_Country":null,"Actor2":"HAWKEYE STATE","Actor2_Country":"USA","Code":42,"Class":1,"Action_Location":"Des Moines, Iowa, United States","Lat":41.6005,"Long":-93.6091,"Timestamp":20181105204500,"Source":"https:\/\/www.desmoinesregister.com\/story\/entertainment\/music\/2018\/11\/05\/pop-punk-favorite-wonder-years-talk-sister-cities-des-moines-show-woolys-concerts-shows\/1890231002\/"},{"ID":800240626,"Actor1":"SMALL TOWN","Actor1_Country":null,"Actor2":"UNITED STATES","Actor2_Country":"USA","Code":42,"Class":1,"Action_Location":"Canada","Lat":60.0,"Long":-96.0,"Timestamp":20181105204500,"Source":"https:\/\/www.al.com\/news\/2018\/11\/as-elections-loom-alabamas-shrimping-industry-faces-an-uncertain-future.html"},{"ID":800240627,"Actor1":"SMALL TOWN","Actor1_Country":null,"Actor2":"UNITED STATES","Actor2_Country":"USA","Code":42,"Class":1,"Action_Location":"Canada","Lat":60.0,"Long":-96.0,"Timestamp":20181105204500,"Source":"https:\/\/www.al.com\/news\/2018\/11\/as-elections-loom-alabamas-shrimping-industry-faces-an-uncertain-future.html"},{"ID":800240628,"Actor1":"VILLAGE","Actor1_Country":null,"Actor2":"HAWKEYE STATE","Actor2_Country":"USA","Code":42,"Class":1,"Action_Location":"Iowa, United States","Lat":42.0046,"Long":-93.214,"Timestamp":20181105204500,"Source":"https:\/\/www.desmoinesregister.com\/story\/entertainment\/music\/2018\/11\/05\/pop-punk-favorite-wonder-years-talk-sister-cities-des-moines-show-woolys-concerts-shows\/1890231002\/"},{"ID":800240629,"Actor1":"VOTER","Actor1_Country":null,"Actor2":"NASHVILLE","Actor2_Country":"USA","Code":43,"Class":1,"Action_Location":"Tennessee, United States","Lat":35.7449,"Long":-86.7489,"Timestamp":20181105204500,"Source":"https:\/\/www.newschannel5.com\/news\/election\/congressional-races\/blackburn-campaigns-across-tennessee-in-last-minute-push"},{"ID":800240630,"Actor1":"COMMUNITY","Actor1_Country":null,"Actor2":"UNITED STATES","Actor2_Country":"USA","Code":51,"Class":1,"Action_Location":"Athens, Attik\u00edR, Greece","Lat":37.9833,"Long":23.7333,"Timestamp":20181105204500,"Source":"http:\/\/www.dailypostathenian.com\/news\/article_c2f90e6c-f3c7-5459-9bcc-d79f394d27ef.html"},{"ID":800240631,"Actor1":"CONSTITUENT","Actor1_Country":null,"Actor2":"UNITED STATES","Actor2_Country":"USA","Code":90,"Class":2,"Action_Location":"Bayou La Batre, Alabama, United States","Lat":30.4035,"Long":-88.2485,"Timestamp":20181105204500,"Source":"https:\/\/www.al.com\/news\/2018\/11\/as-elections-loom-alabamas-shrimping-industry-faces-an-uncertain-future.html"},{"ID":800240632,"Actor1":"HUNTER","Actor1_Country":null,"Actor2":"UNITED STATES","Actor2_Country":"USA","Code":130,"Class":3,"Action_Location":"United States","Lat":39.828175,"Long":-98.5795,"Timestamp":20181105204500,"Source":"https:\/\/politicalwire.com\/2018\/11\/05\/duncan-hunter-goes-full-anti-muslim\/"},{"ID":800240633,"Actor1":"COMMUNITY","Actor1_Country":null,"Actor2":"UNITED STATES","Actor2_Country":"USA","Code":173,"Class":4,"Action_Location":"Halmstad Elementary School, Wisconsin, United States","Lat":44.9144,"Long":-91.3793,"Timestamp":20181105204500,"Source":"https:\/\/www.bbc.co.uk\/news\/world-us-canada-46102804"},{"ID":800240634,"Actor1":"COMMUNITY","Actor1_Country":null,"Actor2":"UNITED STATES","Actor2_Country":"USA","Code":173,"Class":4,"Action_Location":"Chippewa County, Wisconsin, United States","Lat":45.0666,"Long":-91.2668,"Timestamp":20181105204500,"Source":"https:\/\/www.bbc.co.uk\/news\/world-us-canada-46102804"},{"ID":800240635,"Actor1":"VOTER","Actor1_Country":null,"Actor2":"UNITED STATES","Actor2_Country":"USA","Code":43,"Class":1,"Action_Location":"Maricopa County, Arizona, United States","Lat":33.5,"Long":-112.501,"Timestamp":20181105204500,"Source":"http:\/\/www.rollcall.com\/news\/politics\/doj-civil-rights-division-monitor-polls-35-counties-election-day"},{"ID":800240636,"Actor1":"SCIENTIST","Actor1_Country":null,"Actor2":"THE ASSOCIATED PRESS","Actor2_Country":"USA","Code":10,"Class":1,"Action_Location":"Maine, United States","Lat":44.6074,"Long":-69.3977,"Timestamp":20181105204500,"Source":"https:\/\/www.pressherald.com\/2018\/11\/05\/georgia-secretary-of-state-accuses-democratic-gubernatorial-opponent-of-hacking-without-evidence\/"},{"ID":800240638,"Actor1":"CIVIL SOCIETY","Actor1_Country":null,"Actor2":"SRI LANKA","Actor2_Country":"LKA","Code":40,"Class":1,"Action_Location":"Deniyaya, Southern, Sri Lanka","Lat":6.3461,"Long":80.5515,"Timestamp":20181105204500,"Source":"http:\/\/www.island.lk\/index.php?page_cat=article-details&page=article-details&code_title=193927"},{"ID":800240639,"Actor1":"CYPRIOT","Actor1_Country":"CYP","Actor2":"CYPRUS","Actor2_Country":"CYP","Code":12,"Class":1,"Action_Location":"Ayia Napa, Famagusta, Cyprus","Lat":34.9917,"Long":34.0,"Timestamp":20181105204500,"Source":"https:\/\/www.mirror.co.uk\/news\/uk-news\/british-dad-shot-dead-driving-13539153"},{"ID":800240640,"Actor1":"CYPRUS","Actor1_Country":"CYP","Actor2":"BRITISH","Actor2_Country":"GBR","Code":193,"Class":4,"Action_Location":"Larnaca, Larnaca, Cyprus","Lat":34.9167,"Long":33.6292,"Timestamp":20181105204500,"Source":"https:\/\/www.mirror.co.uk\/news\/uk-news\/british-dad-shot-dead-driving-13539153"},{"ID":800240642,"Actor1":"GERMANY","Actor1_Country":"DEU","Actor2":"MIGRANT","Actor2_Country":null,"Code":36,"Class":1,"Action_Location":"Chemnitz, Sachsen, Germany","Lat":50.8333,"Long":12.9167,"Timestamp":20181105204500,"Source":"https:\/\/www.european-views.com\/member-state-monitor\/german-ex-intelligence-chief-forced-into-retirement-after-blasting-radical-left-in-farewell-speech\/"},{"ID":800240643,"Actor1":"GERMANY","Actor1_Country":"DEU","Actor2":"UNITED KINGDOM","Actor2_Country":"GBR","Code":193,"Class":4,"Action_Location":"Germany","Lat":51.5,"Long":10.5,"Timestamp":20181105204500,"Source":"https:\/\/www.metro.news\/erics-epic-journey-to-honour-war-dead\/1298621\/"},{"ID":800240644,"Actor1":"GERMANY","Actor1_Country":"DEU","Actor2":"BRITISH","Actor2_Country":"GBR","Code":193,"Class":4,"Action_Location":"Germany","Lat":51.5,"Long":10.5,"Timestamp":20181105204500,"Source":"https:\/\/www.metro.news\/erics-epic-journey-to-honour-war-dead\/1298621\/"},{"ID":800240645,"Actor1":"GERMANY","Actor1_Country":"DEU","Actor2":"INTELLIGENCE","Actor2_Country":null,"Code":10,"Class":1,"Action_Location":"Chemnitz, Sachsen, Germany","Lat":50.8333,"Long":12.9167,"Timestamp":20181105204500,"Source":"https:\/\/www.european-views.com\/member-state-monitor\/german-ex-intelligence-chief-forced-into-retirement-after-blasting-radical-left-in-farewell-speech\/"},{"ID":800240646,"Actor1":"BERLIN","Actor1_Country":"DEU","Actor2":"KANSAS","Actor2_Country":"USA","Code":43,"Class":1,"Action_Location":"Kansas, United States","Lat":38.5111,"Long":-96.8005,"Timestamp":20181105204500,"Source":"http:\/\/iwf.org\/champion-women\/2807869\/Harris-Faulkner"},{"ID":800240647,"Actor1":"BERLIN","Actor1_Country":"DEU","Actor2":"KANSAS","Actor2_Country":"USA","Code":43,"Class":1,"Action_Location":"Vietnam, Republic Of","Lat":16.166667,"Long":107.833333,"Timestamp":20181105204500,"Source":"http:\/\/iwf.org\/champion-women\/2807869\/Harris-Faulkner"},{"ID":800240648,"Actor1":"BERLIN","Actor1_Country":"DEU","Actor2":"KANSAS","Actor2_Country":"USA","Code":43,"Class":1,"Action_Location":"Vietnam, Republic Of","Lat":16.166667,"Long":107.833333,"Timestamp":20181105204500,"Source":"http:\/\/iwf.org\/champion-women\/2807869\/Harris-Faulkner"},{"ID":800240665,"Actor1":"UNIVERSITY","Actor1_Country":null,"Actor2":"AUSTRALIA","Actor2_Country":"AUS","Code":111,"Class":3,"Action_Location":"Australia","Lat":-25.0,"Long":135.0,"Timestamp":20181105204500,"Source":"https:\/\/www.dailymercury.com.au\/news\/unis-deserve-better-than-this-cheap-shot\/3568341\/"},{"ID":800240666,"Actor1":"UNIVERSITY","Actor1_Country":null,"Actor2":"AUSTRALIA","Actor2_Country":"AUS","Code":111,"Class":3,"Action_Location":"Australia","Lat":-25.0,"Long":135.0,"Timestamp":20181105204500,"Source":"https:\/\/www.dailymercury.com.au\/news\/unis-deserve-better-than-this-cheap-shot\/3568341\/"},{"ID":800240667,"Actor1":"SCHOOL","Actor1_Country":null,"Actor2":"IMMIGRANT","Actor2_Country":null,"Code":51,"Class":1,"Action_Location":"Naperville, Illinois, United States","Lat":41.7859,"Long":-88.1473,"Timestamp":20181105204500,"Source":"http:\/\/www.chicagotribune.com\/suburbs\/naperville-sun\/news\/ct-nvs-interdenomination-gathering-naperville-synogogue-st-1107-story.html"},{"ID":800240668,"Actor1":"UNIVERSITY","Actor1_Country":null,"Actor2":"UNITED KINGDOM","Actor2_Country":"GBR","Code":10,"Class":1,"Action_Location":"Syria","Lat":35.0,"Long":38.0,"Timestamp":20181105204500,"Source":"https:\/\/www.360nobs.com\/2018\/11\/cambridge-has-something-to-say-on-buharis-waec-certificate\/"},{"ID":800240669,"Actor1":"PUPIL","Actor1_Country":null,"Actor2":"UNITED KINGDOM","Actor2_Country":"GBR","Code":17,"Class":1,"Action_Location":"Westwell, Oxfordshire, United Kingdom","Lat":51.7833,"Long":-1.68333,"Timestamp":20181105204500,"Source":"https:\/\/www.warringtonguardian.co.uk\/news\/17201726.stunning-poppy-tribute-to-warrington-war-hero-may-westwell\/"},{"ID":800240670,"Actor1":"PUPIL","Actor1_Country":null,"Actor2":"UNITED KINGDOM","Actor2_Country":"GBR","Code":42,"Class":1,"Action_Location":"Westwell, Oxfordshire, United Kingdom","Lat":51.7833,"Long":-1.68333,"Timestamp":20181105204500,"Source":"https:\/\/www.warringtonguardian.co.uk\/news\/17201726.stunning-poppy-tribute-to-warrington-war-hero-may-westwell\/"},{"ID":800240671,"Actor1":"UNIVERSITY","Actor1_Country":null,"Actor2":"PRESIDENT","Actor2_Country":null,"Code":10,"Class":1,"Action_Location":"Syria","Lat":35.0,"Long":38.0,"Timestamp":20181105204500,"Source":"https:\/\/www.360nobs.com\/2018\/11\/cambridge-has-something-to-say-on-buharis-waec-certificate\/"},{"ID":800240672,"Actor1":"PUPIL","Actor1_Country":null,"Actor2":"MAYOR","Actor2_Country":null,"Code":17,"Class":1,"Action_Location":"Westwell, Oxfordshire, United Kingdom","Lat":51.7833,"Long":-1.68333,"Timestamp":20181105204500,"Source":"https:\/\/www.warringtonguardian.co.uk\/news\/17201726.stunning-poppy-tribute-to-warrington-war-hero-may-westwell\/"},{"ID":800240673,"Actor1":"PUPIL","Actor1_Country":null,"Actor2":"MAYOR","Actor2_Country":null,"Code":42,"Class":1,"Action_Location":"Westwell, Oxfordshire, United Kingdom","Lat":51.7833,"Long":-1.68333,"Timestamp":20181105204500,"Source":"https:\/\/www.warringtonguardian.co.uk\/news\/17201726.stunning-poppy-tribute-to-warrington-war-hero-may-westwell\/"},{"ID":800240675,"Actor1":"COLLEGE","Actor1_Country":null,"Actor2":"GOVERNOR","Actor2_Country":null,"Code":130,"Class":3,"Action_Location":"Jordan","Lat":31.0,"Long":36.0,"Timestamp":20181105204500,"Source":"http:\/\/www.nystateofpolitics.com\/2018\/11\/in-senate-fight-republicans-return-to-a-familiar-attack\/"},{"ID":800240676,"Actor1":"UNIVERSITY","Actor1_Country":null,"Actor2":"CHANCELLOR","Actor2_Country":null,"Code":111,"Class":3,"Action_Location":"Australia","Lat":-25.0,"Long":135.0,"Timestamp":20181105204500,"Source":"https:\/\/www.dailymercury.com.au\/news\/unis-deserve-better-than-this-cheap-shot\/3568341\/"},{"ID":800240677,"Actor1":"STUDENT","Actor1_Country":null,"Actor2":"IRELAND","Actor2_Country":"IRL","Code":51,"Class":1,"Action_Location":"Ireland","Lat":53.0,"Long":-8.0,"Timestamp":20181105204500,"Source":"http:\/\/www.universitytimes.ie\/2018\/11\/samantha-power-rainbow-week-and-david-swensen-your-week-ahead\/"},{"ID":800240678,"Actor1":"UNIVERSITY","Actor1_Country":null,"Actor2":"PARLIAMENT","Actor2_Country":null,"Code":40,"Class":1,"Action_Location":"Afghanistan","Lat":33.0,"Long":66.0,"Timestamp":20181105204500,"Source":"http:\/\/www.island.lk\/index.php?page_cat=article-details&page=article-details&code_title=193952"},{"ID":800240679,"Actor1":"SCHOOL","Actor1_Country":null,"Actor2":"MEDIA","Actor2_Country":null,"Code":40,"Class":1,"Action_Location":"Freeport, West Grand Bahama, Bahamas, The","Lat":26.5333,"Long":-78.7,"Timestamp":20181105204500,"Source":"http:\/\/www.thebahamasweekly.com\/publish\/bis-news-updates\/Education_Minister_Leads_Impressive_list_of_speakers_at_2nd_annual_GB_Tech_Summit59939.shtml"},{"ID":800240680,"Actor1":"SCHOOL","Actor1_Country":null,"Actor2":"PROTESTER","Actor2_Country":null,"Code":43,"Class":1,"Action_Location":"Idaho, United States","Lat":44.2394,"Long":-114.51,"Timestamp":20181105204500,"Source":"https:\/\/www.postregister.com\/news\/regional\/petitions-supporting-decrying-middleton-school-district-staff-both-gaining-support\/article_25119155-9cbc-56a3-a11c-27c136e2c43b.html"},{"ID":800240681,"Actor1":"STUDENT","Actor1_Country":null,"Actor2":"TAIWAN","Actor2_Country":"TWN","Code":42,"Class":1,"Action_Location":"Taiwan","Lat":24.0,"Long":121.0,"Timestamp":20181105204500,"Source":"http:\/\/www.newtondailynews.com\/2018\/10\/31\/open-to-host-pasta-dinner-thursday\/a55zny\/"},{"ID":800240682,"Actor1":"SCHOLAR","Actor1_Country":null,"Actor2":"UNITED STATES","Actor2_Country":"USA","Code":20,"Class":1,"Action_Location":"United States","Lat":39.828175,"Long":-98.5795,"Timestamp":20181105204500,"Source":"https:\/\/www.psychologytoday.com\/us\/blog\/engaging\/201811\/online-dating-in-the-golden-years"},{"ID":800240683,"Actor1":"SCHOOL","Actor1_Country":null,"Actor2":"UNITED STATES","Actor2_Country":"USA","Code":36,"Class":1,"Action_Location":"Lake Cable Elementary School, Ohio, United States","Lat":40.8678,"Long":-81.4482,"Timestamp":20181105204500,"Source":"http:\/\/www.thesuburbanite.com\/news\/20181105\/jackson-local-board-of-eduation-approves-new-bus-purchases"},{"ID":800240684,"Actor1":"SCHOOL","Actor1_Country":null,"Actor2":"UNITED STATES","Actor2_Country":"USA","Code":36,"Class":1,"Action_Location":"Costa Rica","Lat":10.0,"Long":-84.0,"Timestamp":20181105204500,"Source":"http:\/\/www.thesuburbanite.com\/news\/20181105\/jackson-local-board-of-eduation-approves-new-bus-purchases"},{"ID":800240685,"Actor1":"STUDENT","Actor1_Country":null,"Actor2":"UNITED STATES","Actor2_Country":"USA","Code":42,"Class":1,"Action_Location":"Winterpock, Virginia, United States","Lat":37.346,"Long":-77.7194,"Timestamp":20181105204500,"Source":"https:\/\/www.marketwatch.com\/press-release\/tazikis-mediterranean-cafe-virginia-launches-hope-program-2018-11-05"},{"ID":800240686,"Actor1":"COLLEGE","Actor1_Country":null,"Actor2":"UNITED STATES","Actor2_Country":"USA","Code":43,"Class":1,"Action_Location":"Greene County, Virginia, United States","Lat":38.3001,"Long":-78.4664,"Timestamp":20181105204500,"Source":"http:\/\/www.rollcall.com\/news\/politics\/virginias-5th-district-sign-democrats-expanding-house-battlefield"},{"ID":800240687,"Actor1":"COLLEGE","Actor1_Country":null,"Actor2":"UNITED STATES","Actor2_Country":"USA","Code":43,"Class":1,"Action_Location":"Stanardsville, Virginia, United States","Lat":38.2974,"Long":-78.44,"Timestamp":20181105204500,"Source":"http:\/\/www.rollcall.com\/news\/politics\/virginias-5th-district-sign-democrats-expanding-house-battlefield"},{"ID":800240688,"Actor1":"STUDENT","Actor1_Country":null,"Actor2":"UNITED STATES","Actor2_Country":"USA","Code":60,"Class":2,"Action_Location":"Midlothian High School, Virginia, United States","Lat":37.4963,"Long":-77.6604,"Timestamp":20181105204500,"Source":"https:\/\/www.marketwatch.com\/press-release\/tazikis-mediterranean-cafe-virginia-launches-hope-program-2018-11-05"},{"ID":800240689,"Actor1":"SCHOOL","Actor1_Country":null,"Actor2":"UNITED STATES","Actor2_Country":"USA","Code":60,"Class":2,"Action_Location":"Virginia, United States","Lat":37.768,"Long":-78.2057,"Timestamp":20181105204500,"Source":"https:\/\/www.marketwatch.com\/press-release\/tazikis-mediterranean-cafe-virginia-launches-hope-program-2018-11-05"},{"ID":800240690,"Actor1":"SCHOOL","Actor1_Country":null,"Actor2":"TENNESSEE","Actor2_Country":"USA","Code":110,"Class":3,"Action_Location":"Tennessee, United States","Lat":35.7449,"Long":-86.7489,"Timestamp":20181105204500,"Source":"https:\/\/www.charlotteobserver.com\/news\/local\/article221135700.html"},{"ID":800240691,"Actor1":"STUDENT","Actor1_Country":null,"Actor2":"WYOMING","Actor2_Country":"USA","Code":110,"Class":3,"Action_Location":"Wyoming, United States","Lat":42.7475,"Long":-107.209,"Timestamp":20181105204500,"Source":"http:\/\/1063cowboycountry.com\/wyoming-students-sign-up-and-compete-in-literature-contest\/"},{"ID":800240692,"Actor1":"SCHOOL","Actor1_Country":null,"Actor2":"UNITED STATES","Actor2_Country":"USA","Code":120,"Class":3,"Action_Location":"Iowa, United States","Lat":42.0046,"Long":-93.214,"Timestamp":20181105204500,"Source":"https:\/\/qctimes.com\/news\/local\/davenport-school-enrollment-declines-while-pleasant-valley-grows\/article_86f2cb13-2dae-54fa-8f4f-ad978fc63e98.html"},{"ID":800240693,"Actor1":"SCHOOL","Actor1_Country":null,"Actor2":"NORTH CAROLINA","Actor2_Country":"USA","Code":181,"Class":4,"Action_Location":"Lumberton, North Carolina, United States","Lat":34.6182,"Long":-79.0086,"Timestamp":20181105204500,"Source":"https:\/\/abcnews.go.com\/US\/13-year-girl-kidnapped-front-home-school-amber\/story?id=58981442"},{"ID":800240694,"Actor1":"SCHOOL","Actor1_Country":null,"Actor2":"NORTH CAROLINA","Actor2_Country":"USA","Code":181,"Class":4,"Action_Location":"Lumberton, North Carolina, United States","Lat":34.6182,"Long":-79.0086,"Timestamp":20181105204500,"Source":"https:\/\/abcnews.go.com\/US\/13-year-girl-kidnapped-front-home-school-amber\/story?id=58981442"},{"ID":800240695,"Actor1":"SCHOOL","Actor1_Country":null,"Actor2":"NORTH CAROLINA","Actor2_Country":"USA","Code":181,"Class":4,"Action_Location":"South Carolina, United States","Lat":33.8191,"Long":-80.9066,"Timestamp":20181105204500,"Source":"https:\/\/abcnews.go.com\/US\/13-year-girl-kidnapped-front-home-school-amber\/story?id=58981442"},{"ID":800240696,"Actor1":"SCHOOL","Actor1_Country":null,"Actor2":"INDIGENOUS","Actor2_Country":null,"Code":43,"Class":1,"Action_Location":"Coober Pedy, South Australia, Australia","Lat":-28.9974,"Long":134.759,"Timestamp":20181105204500,"Source":"https:\/\/www.dailymercury.com.au\/news\/wheres-the-lefts-outrage-over-indigenous-kids\/3568342\/"},{"ID":800240697,"Actor1":"SCHOOL","Actor1_Country":null,"Actor2":"INDIGENOUS","Actor2_Country":null,"Code":43,"Class":1,"Action_Location":"Nauru","Lat":-0.533333,"Long":166.916667,"Timestamp":20181105204500,"Source":"https:\/\/www.dailymercury.com.au\/news\/wheres-the-lefts-outrage-over-indigenous-kids\/3568342\/"},{"ID":800240699,"Actor1":"UNIVERSITY","Actor1_Country":null,"Actor2":"SOFIA","Actor2_Country":"BGR","Code":36,"Class":1,"Action_Location":"Ireland","Lat":53.0,"Long":-8.0,"Timestamp":20181105204500,"Source":"http:\/\/www.universitytimes.ie\/2018\/11\/samantha-power-rainbow-week-and-david-swensen-your-week-ahead\/"},{"ID":800240700,"Actor1":"COLLEGE","Actor1_Country":null,"Actor2":"COMMUNITY","Actor2_Country":null,"Code":43,"Class":1,"Action_Location":"Ireland","Lat":53.0,"Long":-8.0,"Timestamp":20181105204500,"Source":"http:\/\/www.universitytimes.ie\/2018\/11\/samantha-power-rainbow-week-and-david-swensen-your-week-ahead\/"},{"ID":800240701,"Actor1":"COLLEGE","Actor1_Country":null,"Actor2":"COMMUNITY","Actor2_Country":null,"Code":51,"Class":1,"Action_Location":"Ireland","Lat":53.0,"Long":-8.0,"Timestamp":20181105204500,"Source":"http:\/\/www.universitytimes.ie\/2018\/11\/samantha-power-rainbow-week-and-david-swensen-your-week-ahead\/"},{"ID":800240702,"Actor1":"SCHOOL","Actor1_Country":null,"Actor2":"MANCHESTER","Actor2_Country":"GBR","Code":43,"Class":1,"Action_Location":"Manchester High School, Virginia, United States","Lat":37.4068,"Long":-77.6233,"Timestamp":20181105204500,"Source":"https:\/\/www.marketwatch.com\/press-release\/tazikis-mediterranean-cafe-virginia-launches-hope-program-2018-11-05"},{"ID":800240703,"Actor1":"EGYPT","Actor1_Country":"EGY","Actor2":"EMIRATI","Actor2_Country":"ARE","Code":40,"Class":1,"Action_Location":"Egypt","Lat":27.0,"Long":30.0,"Timestamp":20181105204500,"Source":"https:\/\/www.eturbonews.com\/237132\/travel-tourism-rolls-out-the-strongest-welcome-mat-in-the-world"},{"ID":800240704,"Actor1":"EGYPTIAN","Actor1_Country":"EGY","Actor2":"EGYPT","Actor2_Country":"EGY","Code":10,"Class":1,"Action_Location":"Cairo, Al Qahirah, Egypt","Lat":30.05,"Long":31.25,"Timestamp":20181105204500,"Source":"https:\/\/www.france24.com\/en\/20181105-egypt-treads-carefully-gaza-broker"},{"ID":800240705,"Actor1":"EGYPTIAN","Actor1_Country":"EGY","Actor2":"EGYPT","Actor2_Country":"EGY","Code":84,"Class":2,"Action_Location":"Cairo, Al Qahirah, Egypt","Lat":30.05,"Long":31.25,"Timestamp":20181105204500,"Source":"https:\/\/www.france24.com\/en\/20181105-egypt-treads-carefully-gaza-broker"},{"ID":800240706,"Actor1":"EGYPT","Actor1_Country":"EGY","Actor2":"ISRAEL","Actor2_Country":"ISR","Code":43,"Class":1,"Action_Location":"Cairo, Al Qahirah, Egypt","Lat":30.05,"Long":31.25,"Timestamp":20181105204500,"Source":"https:\/\/www.france24.com\/en\/20181105-egypt-treads-carefully-gaza-broker"},{"ID":800240707,"Actor1":"EGYPT","Actor1_Country":"EGY","Actor2":"ISRAEL","Actor2_Country":"ISR","Code":43,"Class":1,"Action_Location":"Gaza, Israel (general), Israel","Lat":31.4167,"Long":34.3333,"Timestamp":20181105204500,"Source":"https:\/\/www.france24.com\/en\/20181105-egypt-treads-carefully-gaza-broker"},{"ID":800240708,"Actor1":"CAIRO","Actor1_Country":"EGY","Actor2":"ISRAEL","Actor2_Country":"ISR","Code":45,"Class":1,"Action_Location":"Cairo, Al Qahirah, Egypt","Lat":30.05,"Long":31.25,"Timestamp":20181105204500,"Source":"https:\/\/www.france24.com\/en\/20181105-egypt-treads-carefully-gaza-broker"},{"ID":800240709,"Actor1":"EGYPT","Actor1_Country":"EGY","Actor2":"ISRAEL","Actor2_Country":"ISR","Code":46,"Class":1,"Action_Location":"Cairo, Al Qahirah, Egypt","Lat":30.05,"Long":31.25,"Timestamp":20181105204500,"Source":"https:\/\/www.france24.com\/en\/20181105-egypt-treads-carefully-gaza-broker"},{"ID":800240710,"Actor1":"EGYPTIAN","Actor1_Country":"EGY","Actor2":"JEWISH","Actor2_Country":null,"Code":45,"Class":1,"Action_Location":"Cairo, Al Qahirah, Egypt","Lat":30.05,"Long":31.25,"Timestamp":20181105204500,"Source":"https:\/\/www.france24.com\/en\/20181105-egypt-treads-carefully-gaza-broker"},{"ID":800240711,"Actor1":"EGYPT","Actor1_Country":"EGY","Actor2":"JEWISH","Actor2_Country":null,"Code":45,"Class":1,"Action_Location":"Cairo, Al Qahirah, Egypt","Lat":30.05,"Long":31.25,"Timestamp":20181105204500,"Source":"https:\/\/www.france24.com\/en\/20181105-egypt-treads-carefully-gaza-broker"},{"ID":800240712,"Actor1":"EGYPTIAN","Actor1_Country":"EGY","Actor2":"JEWISH","Actor2_Country":null,"Code":45,"Class":1,"Action_Location":"Gaza, Israel (general), Israel","Lat":31.4167,"Long":34.3333,"Timestamp":20181105204500,"Source":"https:\/\/www.france24.com\/en\/20181105-egypt-treads-carefully-gaza-broker"},{"ID":800240713,"Actor1":"EGYPTIAN","Actor1_Country":"EGY","Actor2":"JEWISH","Actor2_Country":null,"Code":80,"Class":2,"Action_Location":"Cairo, Al Qahirah, Egypt","Lat":30.05,"Long":31.25,"Timestamp":20181105204500,"Source":"https:\/\/www.france24.com\/en\/20181105-egypt-treads-carefully-gaza-broker"},{"ID":800240714,"Actor1":"EGYPT","Actor1_Country":"EGY","Actor2":"JEWISH","Actor2_Country":null,"Code":80,"Class":2,"Action_Location":"Cairo, Al Qahirah, Egypt","Lat":30.05,"Long":31.25,"Timestamp":20181105204500,"Source":"https:\/\/www.france24.com\/en\/20181105-egypt-treads-carefully-gaza-broker"},{"ID":800240715,"Actor1":"EGYPTIAN","Actor1_Country":"EGY","Actor2":"JEWISH","Actor2_Country":null,"Code":80,"Class":2,"Action_Location":"Gaza, Israel (general), Israel","Lat":31.4167,"Long":34.3333,"Timestamp":20181105204500,"Source":"https:\/\/www.france24.com\/en\/20181105-egypt-treads-carefully-gaza-broker"},{"ID":800240716,"Actor1":"EGYPT","Actor1_Country":"EGY","Actor2":"GAZA","Actor2_Country":"PSE","Code":42,"Class":1,"Action_Location":"Cairo, Al Qahirah, Egypt","Lat":30.05,"Long":31.25,"Timestamp":20181105204500,"Source":"https:\/\/www.france24.com\/en\/20181105-egypt-treads-carefully-gaza-broker"},{"ID":800240717,"Actor1":"EGYPT","Actor1_Country":"EGY","Actor2":"GAZA","Actor2_Country":"PSE","Code":42,"Class":1,"Action_Location":"Cairo, Al Qahirah, Egypt","Lat":30.05,"Long":31.25,"Timestamp":20181105204500,"Source":"https:\/\/www.france24.com\/en\/20181105-egypt-treads-carefully-gaza-broker"},{"ID":800240718,"Actor1":"EGYPT","Actor1_Country":"EGY","Actor2":"GAZA","Actor2_Country":"PSE","Code":42,"Class":1,"Action_Location":"Gaza Strip","Lat":31.425074,"Long":34.373398,"Timestamp":20181105204500,"Source":"https:\/\/www.france24.com\/en\/20181105-egypt-treads-carefully-gaza-broker"},{"ID":800240719,"Actor1":"CAIRO","Actor1_Country":"EGY","Actor2":"PALESTINIAN","Actor2_Country":"PSE","Code":45,"Class":1,"Action_Location":"Cairo, Al Qahirah, Egypt","Lat":30.05,"Long":31.25,"Timestamp":20181105204500,"Source":"https:\/\/www.france24.com\/en\/20181105-egypt-treads-carefully-gaza-broker"},{"ID":800240720,"Actor1":"EGYPT","Actor1_Country":"EGY","Actor2":"PALESTINIAN","Actor2_Country":"PSE","Code":45,"Class":1,"Action_Location":"Cairo, Al Qahirah, Egypt","Lat":30.05,"Long":31.25,"Timestamp":20181105204500,"Source":"https:\/\/www.france24.com\/en\/20181105-egypt-treads-carefully-gaza-broker"},{"ID":800240721,"Actor1":"EGYPT","Actor1_Country":"EGY","Actor2":"HAMAS","Actor2_Country":"PSE","Code":10,"Class":1,"Action_Location":"Cairo, Al Qahirah, Egypt","Lat":30.05,"Long":31.25,"Timestamp":20181105204500,"Source":"https:\/\/www.france24.com\/en\/20181105-egypt-treads-carefully-gaza-broker"},{"ID":800240722,"Actor1":"EGYPT","Actor1_Country":"EGY","Actor2":"HAMAS","Actor2_Country":"PSE","Code":10,"Class":1,"Action_Location":"Cairo, Al Qahirah, Egypt","Lat":30.05,"Long":31.25,"Timestamp":20181105204500,"Source":"https:\/\/www.france24.com\/en\/20181105-egypt-treads-carefully-gaza-broker"},{"ID":800240723,"Actor1":"EGYPTIAN","Actor1_Country":"EGY","Actor2":"HAMAS","Actor2_Country":"PSE","Code":45,"Class":1,"Action_Location":"Cairo, Al Qahirah, Egypt","Lat":30.05,"Long":31.25,"Timestamp":20181105204500,"Source":"https:\/\/www.france24.com\/en\/20181105-egypt-treads-carefully-gaza-broker"},{"ID":800240724,"Actor1":"EGYPT","Actor1_Country":"EGY","Actor2":"HAMAS","Actor2_Country":"PSE","Code":45,"Class":1,"Action_Location":"Cairo, Al Qahirah, Egypt","Lat":30.05,"Long":31.25,"Timestamp":20181105204500,"Source":"https:\/\/www.france24.com\/en\/20181105-egypt-treads-carefully-gaza-broker"},{"ID":800240725,"Actor1":"EGYPTIAN","Actor1_Country":"EGY","Actor2":"HAMAS","Actor2_Country":"PSE","Code":45,"Class":1,"Action_Location":"Gaza, Israel (general), Israel","Lat":31.4167,"Long":34.3333,"Timestamp":20181105204500,"Source":"https:\/\/www.france24.com\/en\/20181105-egypt-treads-carefully-gaza-broker"},{"ID":800240726,"Actor1":"EGYPTIAN","Actor1_Country":"EGY","Actor2":"HAMAS","Actor2_Country":"PSE","Code":80,"Class":2,"Action_Location":"Cairo, Al Qahirah, Egypt","Lat":30.05,"Long":31.25,"Timestamp":20181105204500,"Source":"https:\/\/www.france24.com\/en\/20181105-egypt-treads-carefully-gaza-broker"},{"ID":800240727,"Actor1":"EGYPT","Actor1_Country":"EGY","Actor2":"HAMAS","Actor2_Country":"PSE","Code":80,"Class":2,"Action_Location":"Cairo, Al Qahirah, Egypt","Lat":30.05,"Long":31.25,"Timestamp":20181105204500,"Source":"https:\/\/www.france24.com\/en\/20181105-egypt-treads-carefully-gaza-broker"},{"ID":800240728,"Actor1":"EGYPTIAN","Actor1_Country":"EGY","Actor2":"HAMAS","Actor2_Country":"PSE","Code":80,"Class":2,"Action_Location":"Gaza, Israel (general), Israel","Lat":31.4167,"Long":34.3333,"Timestamp":20181105204500,"Source":"https:\/\/www.france24.com\/en\/20181105-egypt-treads-carefully-gaza-broker"},{"ID":800240731,"Actor1":"EGYPTIAN","Actor1_Country":"EGY","Actor2":"EGYPTIAN","Actor2_Country":"EGY","Code":84,"Class":2,"Action_Location":"Cairo, Al Qahirah, Egypt","Lat":30.05,"Long":31.25,"Timestamp":20181105204500,"Source":"https:\/\/www.france24.com\/en\/20181105-egypt-treads-carefully-gaza-broker"},{"ID":800240732,"Actor1":"EGYPT","Actor1_Country":"EGY","Actor2":"HAMAS","Actor2_Country":"PSE","Code":51,"Class":1,"Action_Location":"Cairo, Al Qahirah, Egypt","Lat":30.05,"Long":31.25,"Timestamp":20181105204500,"Source":"https:\/\/www.france24.com\/en\/20181105-egypt-treads-carefully-gaza-broker"},{"ID":800240735,"Actor1":"RETIRED","Actor1_Country":null,"Actor2":"OREGON","Actor2_Country":"USA","Code":36,"Class":1,"Action_Location":"Oregon, United States","Lat":44.5672,"Long":-122.127,"Timestamp":20181105204500,"Source":"https:\/\/www.alamogordonews.com\/story\/news\/2018\/11\/05\/community-calendar-nov-nov\/38400587\/"},{"ID":800240736,"Actor1":"RETIRED","Actor1_Country":null,"Actor2":"OREGON","Actor2_Country":"USA","Code":46,"Class":1,"Action_Location":"Oregon, United States","Lat":44.5672,"Long":-122.127,"Timestamp":20181105204500,"Source":"https:\/\/www.alamogordonews.com\/story\/news\/2018\/11\/05\/community-calendar-nov-nov\/38400587\/"},{"ID":800240740,"Actor1":"ERITREA","Actor1_Country":"ERI","Actor2":"MONTREAL","Actor2_Country":"CAN","Code":351,"Class":1,"Action_Location":"Somalia","Lat":6.0,"Long":48.0,"Timestamp":20181105204500,"Source":"https:\/\/montrealgazette.com\/pmn\/news-pmn\/eritrea-hopes-un-will-lift-sanctions\/wcm\/ebd2bf79-ee97-4a64-b53c-c30973eb8903"},{"ID":800240741,"Actor1":"ERITREA","Actor1_Country":"ERI","Actor2":"MONTREAL","Actor2_Country":"CAN","Code":351,"Class":1,"Action_Location":"Somalia","Lat":6.0,"Long":48.0,"Timestamp":20181105204500,"Source":"https:\/\/montrealgazette.com\/pmn\/news-pmn\/eritrea-hopes-un-will-lift-sanctions\/wcm\/ebd2bf79-ee97-4a64-b53c-c30973eb8903"},{"ID":800240742,"Actor1":"ERITREA","Actor1_Country":"ERI","Actor2":"ETHIOPIA","Actor2_Country":"ETH","Code":40,"Class":1,"Action_Location":"Eritrea","Lat":15.0,"Long":39.0,"Timestamp":20181105204500,"Source":"https:\/\/www.idahostatesman.com\/news\/business\/article221157705.html"},{"ID":800240743,"Actor1":"ERITREA","Actor1_Country":"ERI","Actor2":"ETHIOPIA","Actor2_Country":"ETH","Code":40,"Class":1,"Action_Location":"Ethiopia","Lat":8.0,"Long":38.0,"Timestamp":20181105204500,"Source":"https:\/\/www.idahostatesman.com\/news\/business\/article221157705.html"},{"ID":800240744,"Actor1":"ERITREA","Actor1_Country":"ERI","Actor2":"IDAHO","Actor2_Country":"USA","Code":351,"Class":1,"Action_Location":"Somalia","Lat":6.0,"Long":48.0,"Timestamp":20181105204500,"Source":"https:\/\/www.idahostatesman.com\/news\/business\/article221157705.html"},{"ID":800240746,"Actor1":"SPAIN","Actor1_Country":"ESP","Actor2":"CHRISTIAN","Actor2_Country":null,"Code":43,"Class":1,"Action_Location":"Spain","Lat":40.0,"Long":-4.0,"Timestamp":20181105204500,"Source":"https:\/\/www.dispatch.com\/news\/20181105\/ohio-nursery-school-teacher-nears-50-years-on-job"},{"ID":800240747,"Actor1":"SPANISH","Actor1_Country":"ESP","Actor2":"STUDENT","Actor2_Country":null,"Code":10,"Class":1,"Action_Location":"Canyon County, Idaho, United States","Lat":43.8752,"Long":-116.959,"Timestamp":20181105204500,"Source":"https:\/\/www.postregister.com\/news\/regional\/petitions-supporting-decrying-middleton-school-district-staff-both-gaining-support\/article_25119155-9cbc-56a3-a11c-27c136e2c43b.html"},{"ID":800240748,"Actor1":"SPAIN","Actor1_Country":"ESP","Actor2":"PRESIDENT","Actor2_Country":null,"Code":43,"Class":1,"Action_Location":"Costa Del Sol, Spain (general), Spain","Lat":36.6833,"Long":-4.0,"Timestamp":20181105204500,"Source":"http:\/\/www.surinenglish.com\/national\/201811\/05\/andalucia-expects-reach-milestone-20181105173110.html"},{"ID":800240749,"Actor1":"BARCELONA","Actor1_Country":"ESP","Actor2":"ROME","Actor2_Country":"ITA","Code":42,"Class":1,"Action_Location":"France","Lat":46.0,"Long":2.0,"Timestamp":20181105204500,"Source":"https:\/\/www.trbusiness.com\/regional-news\/the-americas\/celebrity-edge-to-sail-to-florida-to-prepare-maiden-voyage\/153338"},{"ID":800240750,"Actor1":"BARCELONA","Actor1_Country":"ESP","Actor2":"ROME","Actor2_Country":"ITA","Code":43,"Class":1,"Action_Location":"Barcelona, Comunidad Autonoma de Cataluna, Spain","Lat":41.3833,"Long":2.18333,"Timestamp":20181105204500,"Source":"https:\/\/www.trbusiness.com\/regional-news\/the-americas\/celebrity-edge-to-sail-to-florida-to-prepare-maiden-voyage\/153338"},{"ID":800240751,"Actor1":"SPAIN","Actor1_Country":"ESP","Actor2":"ITALY","Actor2_Country":"ITA","Code":43,"Class":1,"Action_Location":"Barcelona, Comunidad Autonoma de Cataluna, Spain","Lat":41.3833,"Long":2.18333,"Timestamp":20181105204500,"Source":"https:\/\/www.trbusiness.com\/regional-news\/the-americas\/celebrity-edge-to-sail-to-florida-to-prepare-maiden-voyage\/153338"},{"ID":800240752,"Actor1":"TOLEDO","Actor1_Country":"ESP","Actor2":"UNITED STATES","Actor2_Country":"USA","Code":173,"Class":4,"Action_Location":"West Bend, Wisconsin, United States","Lat":43.4253,"Long":-88.1834,"Timestamp":20181105204500,"Source":"https:\/\/wncy.com\/news\/articles\/2018\/nov\/02\/wisconsin-fugitives-arrested-in-ohio\/"},{"ID":800240753,"Actor1":"TOLEDO","Actor1_Country":"ESP","Actor2":"UNITED STATES","Actor2_Country":"USA","Code":173,"Class":4,"Action_Location":"West Bend, Wisconsin, United States","Lat":43.4253,"Long":-88.1834,"Timestamp":20181105204500,"Source":"https:\/\/wncy.com\/news\/articles\/2018\/nov\/02\/wisconsin-fugitives-arrested-in-ohio\/"},