[{"ID": 800060828, "Actor1": "PRIME MINSTER", "Actor1_Country": null, "Actor2": "CHINESE", "Actor2_Country": "CHN", "Code": 841, "Class": 2, "Action_Location": "Lu Kang, Anhui, China", "Lat": 31.2728, "Long": 118.337, "Timestamp": 20181105053000, "Source": "https://www.scnow.com/news/headlines/article_f8dbd4f4-9bab-5b9f-ab9c-1a18aa738ca7.html"}, {"ID": 800060829, "Actor1": "PRIME MINSTER", "Actor1_Country": null, "Actor2": "CHINESE", "Actor2_Country": "CHN", "Code": 841, "Class": 2, "Action_Location": "New Delhi, Delhi, India", "Lat": 28.6, "Long": 77.2, "Timestamp": 20181105053000, "Source": "https://www.chron.com/news/world/article/Rivals-China-India-cautiously-watch-Sri-Lankan-13362617.php"}, {"ID": 800060830, "Actor1": "PRIME MINSTER", "Actor1_Country": null, "Actor2": "CHINESE", "Actor2_Country": "CHN", "Code": 841, "Class": 2, "Action_Location": "Lu Kang, Anhui, China", "Lat": 31.2728, "Long": 118.337, "Timestamp": 20181105053000, "Source": "https://www.chron.com/news/world/article/Rivals-China-India-cautiously-watch-Sri-Lankan-13362617.php"}, {"ID": 800060994, "Actor1": "AFGHANISTAN", "Actor1_Country": "AFG", "Actor2": "MAYOR", "Actor2_Country": null, "Code": 43, "Class": 1, "Action_Location": "Utah, United States", "Lat": 40.1135, "Long": -111.854, "Timestamp": 20181105053000, "Source": "https://www.weau.com/content/news/Funeral-plans-are-pending-for-Utah-Guard-major-499597711.html"}, {"ID": 800061000, "Actor1": "AFGHANISTAN", "Actor1_Country": "AFG", "Actor2": "UNITED STATES", "Actor2_Country": "USA", "Code": 43, "Class": 1, "Action_Location": "Utah, United States", "Lat": 40.1135, "Long": -111.854, "Timestamp": 20181105053000, "Source": "http://www.rep-am.com/news/national/2018/11/04/utah-mayor-guard-member-killed-by-trainee-in-afghanistan/"}, {"ID": 800061001, "Actor1": "AFGHANISTAN", "Actor1_Country": "AFG", "Actor2": "UTAH", "Actor2_Country": "USA", "Code": 154, "Class": 4, "Action_Location": "Afghanistan", "Lat": 33.0, "Long": 66.0, "Timestamp": 20181105053000, "Source": "http://www.rep-am.com/news/national/2018/11/04/utah-mayor-guard-member-killed-by-trainee-in-afghanistan/"}, {"ID": 800061002, "Actor1": "AFGHANISTAN", "Actor1_Country": "AFG", "Actor2": "UTAH", "Actor2_Country": "USA", "Code": 154, "Class": 4, "Action_Location": "Utah, United States", "Lat": 40.1135, "Long": -111.854, "Timestamp": 20181105053000, "Source": "http://www.rep-am.com/news/national/2018/11/04/utah-mayor-guard-member-killed-by-trainee-in-afghanistan/"}, {"ID": 800061004, "Actor1": "AFGHANISTAN", "Actor1_Country": "AFG", "Actor2": "UTAH", "Actor2_Country": "USA", "Code": 154, "Class": 4, "Action_Location": "Afghanistan", "Lat": 33.0, "Long": 66.0, "Timestamp": 20181105053000, "Source": "http://www.rep-am.com/news/national/2018/11/04/utah-mayor-guard-member-killed-by-trainee-in-afghanistan/"}, {"ID": 800061006, "Actor1": "TALIBAN", "Actor1_Country": "AFG", "Actor2": "FOREIGN MINIST", "Actor2_Country": null, "Code": 36, "Class": 1, "Action_Location": "Doha, Ad Daw?ah, Qatar", "Lat": 25.2867, "Long": 51.5333, "Timestamp": 20181105053000, "Source": "https://southasiamonitor.org/news/russia-to-host-talks-with-afghan-leaders-taliban/inthenews/28387"}, {"ID": 800061007, "Actor1": "TALIBAN", "Actor1_Country": "AFG", "Actor2": "DOHA", "Actor2_Country": "QAT", "Code": 36, "Class": 1, "Action_Location": "Doha, Ad Daw?ah, Qatar", "Lat": 25.2867, "Long": 51.5333, "Timestamp": 20181105053000, "Source": "https://southasiamonitor.org/news/russia-to-host-talks-with-afghan-leaders-taliban/inthenews/28387"}, {"ID": 800061034, "Actor1": "ARGENTINA", "Actor1_Country": "ARG", "Actor2": "ARGENTINA", "Actor2_Country": "ARG", "Code": 141, "Class": 3, "Action_Location": "Buenos Aires, Distrito Federal, Argentina", "Lat": -34.5875, "Long": -58.6725, "Timestamp": 20181105053000, "Source": "https://www.greenwichtime.com/news/crime/article/Argentina-s-Fernandez-still-inspires-loyalty-13362626.php"}, {"ID": 800061036, "Actor1": "ARGENTINA", "Actor1_Country": "ARG", "Actor2": "ARGENTINA", "Actor2_Country": "ARG", "Code": 141, "Class": 3, "Action_Location": "La Nacion, Chaco, Argentina", "Lat": -24.6, "Long": -62.1333, "Timestamp": 20181105053000, "Source": "https://www.greenwichtime.com/news/crime/article/Argentina-s-Fernandez-still-inspires-loyalty-13362626.php"}, {"ID": 800061037, "Actor1": "ARGENTINA", "Actor1_Country": "ARG", "Actor2": "PRISON", "Actor2_Country": null, "Code": 25, "Class": 1, "Action_Location": "Buenos Aires, Distrito Federal, Argentina", "Lat": -34.5875, "Long": -58.6725, "Timestamp": 20181105053000, "Source": "https://www.sfgate.com/news/crime/article/Argentina-s-Fernandez-still-inspires-loyalty-13362626.php"}, {"ID": 800061038, "Actor1": "ARGENTINA", "Actor1_Country": "ARG", "Actor2": "PRISON", "Actor2_Country": null, "Code": 25, "Class": 1, "Action_Location": "La Nacion, Chaco, Argentina", "Lat": -24.6, "Long": -62.1333, "Timestamp": 20181105053000, "Source": "https://www.greenwichtime.com/news/crime/article/Argentina-s-Fernandez-still-inspires-loyalty-13362626.php"}, {"ID": 800061039, "Actor1": "ARGENTINE", "Actor1_Country": "ARG", "Actor2": "PRESIDENT", "Actor2_Country": null, "Code": 173, "Class": 4, "Action_Location": "Buenos Aires, Distrito Federal, Argentina", "Lat": -34.5875, "Long": -58.6725, "Timestamp": 20181105053000, "Source": "https://www.greenwichtime.com/news/crime/article/Argentina-s-Fernandez-still-inspires-loyalty-13362626.php"}, {"ID": 800061040, "Actor1": "ARGENTINE", "Actor1_Country": "ARG", "Actor2": "PROSECUTOR", "Actor2_Country": null, "Code": 112, "Class": 3, "Action_Location": "Buenos Aires, Distrito Federal, Argentina", "Lat": -34.5875, "Long": -58.6725, "Timestamp": 20181105053000, "Source": "https://www.greenwichtime.com/news/crime/article/Argentina-s-Fernandez-still-inspires-loyalty-13362626.php"}, {"ID": 800061058, "Actor1": "AUSTRALIAN", "Actor1_Country": "AUS", "Actor2": "HUNTER", "Actor2_Country": null, "Code": 51, "Class": 1, "Action_Location": "Lake Macquarie, New South Wales, Australia", "Lat": -33.0652, "Long": 151.601, "Timestamp": 20181105053000, "Source": "https://www.lakesmail.com.au/story/5740921/labor-pitches-team-game-in-announcing-lake-candidate/"}, {"ID": 800061059, "Actor1": "AUSTRALIA", "Actor1_Country": "AUS", "Actor2": "HUNTER", "Actor2_Country": null, "Code": 84, "Class": 2, "Action_Location": "Lake Macquarie, New South Wales, Australia", "Lat": -33.0652, "Long": 151.601, "Timestamp": 20181105053000, "Source": "https://www.lakesmail.com.au/story/5740921/labor-pitches-team-game-in-announcing-lake-candidate/"}, {"ID": 800061064, "Actor1": "AUSTRALIA", "Actor1_Country": "AUS", "Actor2": "PRIME MINISTER", "Actor2_Country": null, "Code": 43, "Class": 1, "Action_Location": "Rockhampton, Queensland, Australia", "Lat": -23.3803, "Long": 150.506, "Timestamp": 20181105053000, "Source": "https://www.sbs.com.au/news/sunshine-and-strawberries-on-qld-bus-tour"}, {"ID": 800061065, "Actor1": "AUSTRALIA", "Actor1_Country": "AUS", "Actor2": "PRIME MINISTER", "Actor2_Country": null, "Code": 43, "Class": 1, "Action_Location": "Rockhampton, Queensland, Australia", "Lat": -23.3803, "Long": 150.506, "Timestamp": 20181105053000, "Source": "https://www.sbs.com.au/news/sunshine-and-strawberries-on-qld-bus-tour"}, {"ID": 800061071, "Actor1": "AUSTRALIA", "Actor1_Country": "AUS", "Actor2": "SENATOR", "Actor2_Country": null, "Code": 51, "Class": 1, "Action_Location": "Lake Macquarie, New South Wales, Australia", "Lat": -33.0652, "Long": 151.601, "Timestamp": 20181105053000, "Source": "https://www.lakesmail.com.au/story/5740921/labor-pitches-team-game-in-announcing-lake-candidate/"}, {"ID": 800061077, "Actor1": "AUSTRALIA", "Actor1_Country": "AUS", "Actor2": "THAI", "Actor2_Country": "THA", "Code": 10, "Class": 1, "Action_Location": "New Zealand", "Lat": -42.0, "Long": 174.0, "Timestamp": 20181105053000, "Source": "https://www.theweek.in/wire-updates/business/2018/11/05/pwr2--discovery.html"}, {"ID": 800061078, "Actor1": "AUSTRALIA", "Actor1_Country": "AUS", "Actor2": "THAI", "Actor2_Country": "THA", "Code": 10, "Class": 1, "Action_Location": "Thailand", "Lat": 15.0, "Long": 100.0, "Timestamp": 20181105053000, "Source": "https://www.theweek.in/wire-updates/business/2018/11/05/pwr2--discovery.html"}, {"ID": 800061084, "Actor1": "AUSTRALIA", "Actor1_Country": "AUS", "Actor2": "HUNTER", "Actor2_Country": null, "Code": 51, "Class": 1, "Action_Location": "Lake Macquarie, New South Wales, Australia", "Lat": -33.0652, "Long": 151.601, "Timestamp": 20181105053000, "Source": "https://www.lakesmail.com.au/story/5740921/labor-pitches-team-game-in-announcing-lake-candidate/"}, {"ID": 800061085, "Actor1": "AUSTRALIA", "Actor1_Country": "AUS", "Actor2": "BACKPACKER", "Actor2_Country": null, "Code": 120, "Class": 3, "Action_Location": "Melbourne, Victoria, Australia", "Lat": -37.8167, "Long": 144.967, "Timestamp": 20181105053000, "Source": "https://www.perthnow.com.au/politics/working-holiday-visa-restrictions-relaxed-ng-s-1903602"}, {"ID": 800061089, "Actor1": "BULGARIA", "Actor1_Country": "BGR", "Actor2": "ROMANIA", "Actor2_Country": null, "Code": 40, "Class": 1, "Action_Location": "Craiova, Dolj, Romania", "Lat": 44.3167, "Long": 23.8, "Timestamp": 20181105053000, "Source": "http://matzav.com/israeli-pm-netanyahu-asks-romania-to-help-significantly-change-the-eus-position-on-israel/"}, {"ID": 800061090, "Actor1": "BULGARIA", "Actor1_Country": "BGR", "Actor2": "ROMANIAN", "Actor2_Country": null, "Code": 40, "Class": 1, "Action_Location": "Viorica, Romania (general), Romania", "Lat": 43.9333, "Long": 24.9167, "Timestamp": 20181105053000, "Source": "http://matzav.com/israeli-pm-netanyahu-asks-romania-to-help-significantly-change-the-eus-position-on-israel/"}, {"ID": 800061091, "Actor1": "BULGARIA", "Actor1_Country": "BGR", "Actor2": "ROMANIA", "Actor2_Country": null, "Code": 40, "Class": 1, "Action_Location": "Craiova, Dolj, Romania", "Lat": 44.3167, "Long": 23.8, "Timestamp": 20181105053000, "Source": "http://matzav.com/israeli-pm-netanyahu-asks-romania-to-help-significantly-change-the-eus-position-on-israel/"}, {"ID": 800061092, "Actor1": "BULGARIA", "Actor1_Country": "BGR", "Actor2": "ROMANIAN", "Actor2_Country": null, "Code": 40, "Class": 1, "Action_Location": "Craiova, Dolj, Romania", "Lat": 44.3167, "Long": 23.8, "Timestamp": 20181105053000, "Source": "http://matzav.com/israeli-pm-netanyahu-asks-romania-to-help-significantly-change-the-eus-position-on-israel/"}, {"ID": 800061093, "Actor1": "VARNA", "Actor1_Country": "BGR", "Actor2": "ROMANIAN", "Actor2_Country": null, "Code": 40, "Class": 1, "Action_Location": "Craiova, Dolj, Romania", "Lat": 44.3167, "Long": 23.8, "Timestamp": 20181105053000, "Source": "http://matzav.com/israeli-pm-netanyahu-asks-romania-to-help-significantly-change-the-eus-position-on-israel/"}, {"ID": 800061122, "Actor1": "COMPANY", "Actor1_Country": null, "Actor2": "UNITED ARAB EMIRATES", "Actor2_Country": "ARE", "Code": 17, "Class": 1, "Action_Location": "Dubai, Dubayy, United Arab Emirates", "Lat": 25.2522, "Long": 55.28, "Timestamp": 20181105053000, "Source": "https://www.theweek.in/wire-updates/international/2018/11/05/fes15-dubai-super30-award.html"}, {"ID": 800061132, "Actor1": "BUSINESS", "Actor1_Country": null, "Actor2": "IRAN", "Actor2_Country": "IRN", "Code": 110, "Class": 3, "Action_Location": "Tehran, Tehran, Iran", "Lat": 35.75, "Long": 51.5148, "Timestamp": 20181105053000, "Source": "https://www.jpost.com/Middle-East/Iran-News/Why-is-the-US-letting-so-many-countries-get-Iran-sanctions-waivers-571085"}, {"ID": 800061145, "Actor1": "BUSINESS", "Actor1_Country": null, "Actor2": "UNITED STATES", "Actor2_Country": "USA", "Code": 43, "Class": 1, "Action_Location": "Bishop Leblond High School, Missouri, United States", "Lat": 39.7776, "Long": -94.8069, "Timestamp": 20181105053000, "Source": "http://www.newspressnow.com/news/local_news/business-owner-offers-practical-lessons-to-students/article_0c13abed-2860-536c-9ac0-d2b95fe17386.html"}, {"ID": 800061146, "Actor1": "BUSINESS", "Actor1_Country": null, "Actor2": "UNITED ARAB EMIRATES", "Actor2_Country": "ARE", "Code": 17, "Class": 1, "Action_Location": "Dubai, Dubayy, United Arab Emirates", "Lat": 25.2522, "Long": 55.28, "Timestamp": 20181105053000, "Source": "https://www.theweek.in/wire-updates/international/2018/11/05/fes15-dubai-super30-award.html"}, {"ID": 800061152, "Actor1": "CANADA", "Actor1_Country": "CAN", "Actor2": "UNIVERSITY", "Actor2_Country": null, "Code": 42, "Class": 1, "Action_Location": "Canada", "Lat": 60.0, "Long": -96.0, "Timestamp": 20181105053000, "Source": "http://www.jamaicaobserver.com/all-woman/alesha-foster-_148528?profile=1606"}, {"ID": 800061153, "Actor1": "CANADA", "Actor1_Country": "CAN", "Actor2": "FRANCE", "Actor2_Country": "FRA", "Code": 42, "Class": 1, "Action_Location": "Canada", "Lat": 60.0, "Long": -96.0, "Timestamp": 20181105053000, "Source": "https://www.ghanavisions.com/news/world/225421-how-the-great-war-s-battle-of-amiens-might-have-been-reported-today.html"}, {"ID": 800061168, "Actor1": "CHINA", "Actor1_Country": "CHN", "Actor2": "AUSTRALIA", "Actor2_Country": "AUS", "Code": 182, "Class": 4, "Action_Location": "Australia", "Lat": -25.0, "Long": 135.0, "Timestamp": 20181105053000, "Source": "http://www.sharechat.co.nz/article/8bcdf7f4/market-close-nz-stocks-fall-as-global-investors-grow-wary-z-energy-slides-further.html"}, {"ID": 800061169, "Actor1": "CHINA", "Actor1_Country": "CHN", "Actor2": "AUSTRALIA", "Actor2_Country": "AUS", "Code": 182, "Class": 4, "Action_Location": "Australia", "Lat": -25.0, "Long": 135.0, "Timestamp": 20181105053000, "Source": "http://www.sharechat.co.nz/article/8bcdf7f4/market-close-nz-stocks-fall-as-global-investors-grow-wary-z-energy-slides-further.html"}, {"ID": 800061170, "Actor1": "CHINA", "Actor1_Country": "CHN", "Actor2": "COMPANY", "Actor2_Country": null, "Code": 13, "Class": 1, "Action_Location": "China", "Lat": 35.0, "Long": 105.0, "Timestamp": 20181105053000, "Source": "http://www.sharechat.co.nz/article/8bcdf7f4/market-close-nz-stocks-fall-as-global-investors-grow-wary-z-energy-slides-further.html"}, {"ID": 800061171, "Actor1": "CHINESE", "Actor1_Country": "CHN", "Actor2": "XI JINPING", "Actor2_Country": "CHN", "Code": 42, "Class": 1, "Action_Location": "Yangtze, China (general), China", "Lat": 31.7867, "Long": 121.141, "Timestamp": 20181105053000, "Source": "https://www.scmp.com/tech/article/2171685/chinese-memory-chip-maker-fujian-jinhua-says-theres-been-no-stealing-technology"}, {"ID": 800061172, "Actor1": "CHINESE", "Actor1_Country": "CHN", "Actor2": "XI JINPING", "Actor2_Country": "CHN", "Code": 42, "Class": 1, "Action_Location": "Zhongtai, Sichuan, China", "Lat": 31.3849, "Long": 104.969, "Timestamp": 20181105053000, "Source": "https://www.scmp.com/tech/article/2171685/chinese-memory-chip-maker-fujian-jinhua-says-theres-been-no-stealing-technology"}, {"ID": 800061173, "Actor1": "CHINA", "Actor1_Country": "CHN", "Actor2": "CHINA", "Actor2_Country": "CHN", "Code": 43, "Class": 1, "Action_Location": "Yangtze, China (general), China", "Lat": 31.7867, "Long": 121.141, "Timestamp": 20181105053000, "Source": "https://www.scmp.com/tech/article/2171685/chinese-memory-chip-maker-fujian-jinhua-says-theres-been-no-stealing-technology"}, {"ID": 800061174, "Actor1": "WUHAN", "Actor1_Country": "CHN", "Actor2": "CHINESE", "Actor2_Country": "CHN", "Code": 43, "Class": 1, "Action_Location": "Yangtze, China (general), China", "Lat": 31.7867, "Long": 121.141, "Timestamp": 20181105053000, "Source": "https://www.scmp.com/tech/article/2171685/chinese-memory-chip-maker-fujian-jinhua-says-theres-been-no-stealing-technology"}, {"ID": 800061177, "Actor1": "CHINA", "Actor1_Country": "CHN", "Actor2": "DIPLOMAT", "Actor2_Country": null, "Code": 161, "Class": 4, "Action_Location": "New Delhi, Delhi, India", "Lat": 28.6, "Long": 77.2, "Timestamp": 20181105053000, "Source": "https://www.scnow.com/news/headlines/article_f8dbd4f4-9bab-5b9f-ab9c-1a18aa738ca7.html"}, {"ID": 800061178, "Actor1": "CHINA", "Actor1_Country": "CHN", "Actor2": "DIPLOMAT", "Actor2_Country": null, "Code": 161, "Class": 4, "Action_Location": "Colombo, Western, Sri Lanka", "Lat": 6.93194, "Long": 79.8478, "Timestamp": 20181105053000, "Source": "https://www.chron.com/news/world/article/Rivals-China-India-cautiously-watch-Sri-Lankan-13362617.php"}, {"ID": 800061179, "Actor1": "CHINA", "Actor1_Country": "CHN", "Actor2": "DIPLOMAT", "Actor2_Country": null, "Code": 161, "Class": 4, "Action_Location": "Beijing, Beijing, China", "Lat": 39.9289, "Long": 116.388, "Timestamp": 20181105053000, "Source": "https://www.chron.com/news/world/article/Rivals-China-India-cautiously-watch-Sri-Lankan-13362617.php"}, {"ID": 800061184, "Actor1": "CHINA", "Actor1_Country": "CHN", "Actor2": "COLOMBO", "Actor2_Country": "LKA", "Code": 40, "Class": 1, "Action_Location": "Beijing, Beijing, China", "Lat": 39.9289, "Long": 116.388, "Timestamp": 20181105053000, "Source": "https://www.scnow.com/news/headlines/article_f8dbd4f4-9bab-5b9f-ab9c-1a18aa738ca7.html"}, {"ID": 800061185, "Actor1": "CHINA", "Actor1_Country": "CHN", "Actor2": "COLOMBO", "Actor2_Country": "LKA", "Code": 40, "Class": 1, "Action_Location": "Colombo, Western, Sri Lanka", "Lat": 6.93194, "Long": 79.8478, "Timestamp": 20181105053000, "Source": "https://www.chron.com/news/world/article/Rivals-China-India-cautiously-watch-Sri-Lankan-13362617.php"}, {"ID": 800061186, "Actor1": "CHINA", "Actor1_Country": "CHN", "Actor2": "COLOMBO", "Actor2_Country": "LKA", "Code": 40, "Class": 1, "Action_Location": "Lu Kang, Anhui, China", "Lat": 31.2728, "Long": 118.337, "Timestamp": 20181105053000, "Source": "https://www.chron.com/news/world/article/Rivals-China-India-cautiously-watch-Sri-Lankan-13362617.php"}, {"ID": 800061187, "Actor1": "CHINESE", "Actor1_Country": "CHN", "Actor2": "COLOMBO", "Actor2_Country": "LKA", "Code": 71, "Class": 2, "Action_Location": "Lu Kang, Anhui, China", "Lat": 31.2728, "Long": 118.337, "Timestamp": 20181105053000, "Source": "https://www.chron.com/news/world/article/Rivals-China-India-cautiously-watch-Sri-Lankan-13362617.php"}, {"ID": 800061188, "Actor1": "CHINESE", "Actor1_Country": "CHN", "Actor2": "COLOMBO", "Actor2_Country": "LKA", "Code": 71, "Class": 2, "Action_Location": "Lu Kang, Anhui, China", "Lat": 31.2728, "Long": 118.337, "Timestamp": 20181105053000, "Source": "https://www.chron.com/news/world/article/Rivals-China-India-cautiously-watch-Sri-Lankan-13362617.php"}, {"ID": 800061189, "Actor1": "CHINA", "Actor1_Country": "CHN", "Actor2": "SRI LANKAN", "Actor2_Country": "LKA", "Code": 90, "Class": 2, "Action_Location": "Lu Kang, Anhui, China", "Lat": 31.2728, "Long": 118.337, "Timestamp": 20181105053000, "Source": "https://www.chron.com/news/world/article/Rivals-China-India-cautiously-watch-Sri-Lankan-13362617.php"}, {"ID": 800061190, "Actor1": "CHINA", "Actor1_Country": "CHN", "Actor2": "SRI LANKAN", "Actor2_Country": "LKA", "Code": 90, "Class": 2, "Action_Location": "New Delhi, Delhi, India", "Lat": 28.6, "Long": 77.2, "Timestamp": 20181105053000, "Source": "https://www.scnow.com/news/headlines/article_f8dbd4f4-9bab-5b9f-ab9c-1a18aa738ca7.html"}, {"ID": 800061191, "Actor1": "CHINA", "Actor1_Country": "CHN", "Actor2": "SRI LANKAN", "Actor2_Country": "LKA", "Code": 90, "Class": 2, "Action_Location": "Colombo, Western, Sri Lanka", "Lat": 6.93194, "Long": 79.8478, "Timestamp": 20181105053000, "Source": "https://www.chron.com/news/world/article/Rivals-China-India-cautiously-watch-Sri-Lankan-13362617.php"}, {"ID": 800061192, "Actor1": "CHINA", "Actor1_Country": "CHN", "Actor2": "SRI LANKAN", "Actor2_Country": "LKA", "Code": 1014, "Class": 3, "Action_Location": "Colombo, Western, Sri Lanka", "Lat": 6.93194, "Long": 79.8478, "Timestamp": 20181105053000, "Source": "https://www.chron.com/news/world/article/Rivals-China-India-cautiously-watch-Sri-Lankan-13362617.php"}, {"ID": 800061193, "Actor1": "CHINA", "Actor1_Country": "CHN", "Actor2": "SRI LANKAN", "Actor2_Country": "LKA", "Code": 1014, "Class": 3, "Action_Location": "Lu Kang, Anhui, China", "Lat": 31.2728, "Long": 118.337, "Timestamp": 20181105053000, "Source": "https://www.scnow.com/news/headlines/article_f8dbd4f4-9bab-5b9f-ab9c-1a18aa738ca7.html"}, {"ID": 800061194, "Actor1": "CHINA", "Actor1_Country": "CHN", "Actor2": "SRI LANKAN", "Actor2_Country": "LKA", "Code": 1014, "Class": 3, "Action_Location": "Lu Kang, Anhui, China", "Lat": 31.2728, "Long": 118.337, "Timestamp": 20181105053000, "Source": "https://www.chron.com/news/world/article/Rivals-China-India-cautiously-watch-Sri-Lankan-13362617.php"}, {"ID": 800061195, "Actor1": "CHINA", "Actor1_Country": "CHN", "Actor2": "SRI LANKAN", "Actor2_Country": "LKA", "Code": 129, "Class": 3, "Action_Location": "Lu Kang, Anhui, China", "Lat": 31.2728, "Long": 118.337, "Timestamp": 20181105053000, "Source": "https://www.chron.com/news/world/article/Rivals-China-India-cautiously-watch-Sri-Lankan-13362617.php"}, {"ID": 800061196, "Actor1": "CHINA", "Actor1_Country": "CHN", "Actor2": "SRI LANKAN", "Actor2_Country": "LKA", "Code": 129, "Class": 3, "Action_Location": "New Delhi, Delhi, India", "Lat": 28.6, "Long": 77.2, "Timestamp": 20181105053000, "Source": "https://www.scnow.com/news/headlines/article_f8dbd4f4-9bab-5b9f-ab9c-1a18aa738ca7.html"}, {"ID": 800061197, "Actor1": "CHINA", "Actor1_Country": "CHN", "Actor2": "SRI LANKAN", "Actor2_Country": "LKA", "Code": 129, "Class": 3, "Action_Location": "Colombo, Western, Sri Lanka", "Lat": 6.93194, "Long": 79.8478, "Timestamp": 20181105053000, "Source": "https://www.chron.com/news/world/article/Rivals-China-India-cautiously-watch-Sri-Lankan-13362617.php"}, {"ID": 800061198, "Actor1": "CHINA", "Actor1_Country": "CHN", "Actor2": "SRI LANKAN", "Actor2_Country": "LKA", "Code": 90, "Class": 2, "Action_Location": "Lu Kang, Anhui, China", "Lat": 31.2728, "Long": 118.337, "Timestamp": 20181105053000, "Source": "https://www.chron.com/news/world/article/Rivals-China-India-cautiously-watch-Sri-Lankan-13362617.php"}, {"ID": 800061199, "Actor1": "CHINA", "Actor1_Country": "CHN", "Actor2": "SRI LANKAN", "Actor2_Country": "LKA", "Code": 94, "Class": 2, "Action_Location": "Colombo, Western, Sri Lanka", "Lat": 6.93194, "Long": 79.8478, "Timestamp": 20181105053000, "Source": "https://www.chron.com/news/world/article/Rivals-China-India-cautiously-watch-Sri-Lankan-13362617.php"}, {"ID": 800061200, "Actor1": "CHINA", "Actor1_Country": "CHN", "Actor2": "SRI LANKA", "Actor2_Country": "LKA", "Code": 94, "Class": 2, "Action_Location": "Lu Kang, Anhui, China", "Lat": 31.2728, "Long": 118.337, "Timestamp": 20181105053000, "Source": "https://www.scnow.com/news/headlines/article_f8dbd4f4-9bab-5b9f-ab9c-1a18aa738ca7.html"}, {"ID": 800061201, "Actor1": "CHINA", "Actor1_Country": "CHN", "Actor2": "SRI LANKA", "Actor2_Country": "LKA", "Code": 94, "Class": 2, "Action_Location": "Lu Kang, Anhui, China", "Lat": 31.2728, "Long": 118.337, "Timestamp": 20181105053000, "Source": "https://www.chron.com/news/world/article/Rivals-China-India-cautiously-watch-Sri-Lankan-13362617.php"}, {"ID": 800061202, "Actor1": "CHINA", "Actor1_Country": "CHN", "Actor2": "SRI LANKAN", "Actor2_Country": "LKA", "Code": 1014, "Class": 3, "Action_Location": "Colombo, Western, Sri Lanka", "Lat": 6.93194, "Long": 79.8478, "Timestamp": 20181105053000, "Source": "https://www.chron.com/news/world/article/Rivals-China-India-cautiously-watch-Sri-Lankan-13362617.php"}, {"ID": 800061203, "Actor1": "CHINA", "Actor1_Country": "CHN", "Actor2": "SRI LANKAN", "Actor2_Country": "LKA", "Code": 129, "Class": 3, "Action_Location": "Lu Kang, Anhui, China", "Lat": 31.2728, "Long": 118.337, "Timestamp": 20181105053000, "Source": "https://www.chron.com/news/world/article/Rivals-China-India-cautiously-watch-Sri-Lankan-13362617.php"}, {"ID": 800061204, "Actor1": "CHINESE", "Actor1_Country": "CHN", "Actor2": "SPOKESMAN", "Actor2_Country": null, "Code": 40, "Class": 1, "Action_Location": "Lu Kang, Anhui, China", "Lat": 31.2728, "Long": 118.337, "Timestamp": 20181105053000, "Source": "https://www.chron.com/news/world/article/Rivals-China-India-cautiously-watch-Sri-Lankan-13362617.php"}, {"ID": 800061205, "Actor1": "CHINESE", "Actor1_Country": "CHN", "Actor2": "SPOKESMAN", "Actor2_Country": null, "Code": 40, "Class": 1, "Action_Location": "Temple Trees, Western, Sri Lanka", "Lat": 6.9149, "Long": 79.8477, "Timestamp": 20181105053000, "Source": "https://www.chron.com/news/world/article/Rivals-China-India-cautiously-watch-Sri-Lankan-13362617.php"}, {"ID": 800061210, "Actor1": "CHINA", "Actor1_Country": "CHN", "Actor2": "PAKISTAN", "Actor2_Country": "PAK", "Code": 43, "Class": 1, "Action_Location": "Beijing, Beijing, China", "Lat": 39.9289, "Long": 116.388, "Timestamp": 20181105053000, "Source": "https://southasiamonitor.org/news/khan-s-visit-boosts-china-pak-ties/inthenews/28385"}, {"ID": 800061211, "Actor1": "CHINA", "Actor1_Country": "CHN", "Actor2": "PAKISTAN", "Actor2_Country": "PAK", "Code": 43, "Class": 1, "Action_Location": "Beijing, Beijing, China", "Lat": 39.9289, "Long": 116.388, "Timestamp": 20181105053000, "Source": "https://southasiamonitor.org/news/khan-s-visit-boosts-china-pak-ties/inthenews/28385"}, {"ID": 800061225, "Actor1": "CHINA", "Actor1_Country": "CHN", "Actor2": "CHINA", "Actor2_Country": "CHN", "Code": 42, "Class": 1, "Action_Location": "Yangtze, China (general), China", "Lat": 31.7867, "Long": 121.141, "Timestamp": 20181105053000, "Source": "https://www.scmp.com/tech/article/2171685/chinese-memory-chip-maker-fujian-jinhua-says-theres-been-no-stealing-technology"}, {"ID": 800061226, "Actor1": "CHINESE", "Actor1_Country": "CHN", "Actor2": "WUHAN", "Actor2_Country": "CHN", "Code": 42, "Class": 1, "Action_Location": "Yangtze, China (general), China", "Lat": 31.7867, "Long": 121.141, "Timestamp": 20181105053000, "Source": "https://www.scmp.com/tech/article/2171685/chinese-memory-chip-maker-fujian-jinhua-says-theres-been-no-stealing-technology"}, {"ID": 800061227, "Actor1": "XI JINPING", "Actor1_Country": "CHN", "Actor2": "CHINESE", "Actor2_Country": "CHN", "Code": 43, "Class": 1, "Action_Location": "Yangtze, China (general), China", "Lat": 31.7867, "Long": 121.141, "Timestamp": 20181105053000, "Source": "https://www.scmp.com/tech/article/2171685/chinese-memory-chip-maker-fujian-jinhua-says-theres-been-no-stealing-technology"}, {"ID": 800061228, "Actor1": "XI JINPING", "Actor1_Country": "CHN", "Actor2": "CHINESE", "Actor2_Country": "CHN", "Code": 43, "Class": 1, "Action_Location": "Zhongtai, Sichuan, China", "Lat": 31.3849, "Long": 104.969, "Timestamp": 20181105053000, "Source": "https://www.scmp.com/tech/article/2171685/chinese-memory-chip-maker-fujian-jinhua-says-theres-been-no-stealing-technology"}, {"ID": 800061230, "Actor1": "CHINESE", "Actor1_Country": "CHN", "Actor2": "XI JINPING", "Actor2_Country": "CHN", "Code": 40, "Class": 1, "Action_Location": "Shanghai, Shanghai, China", "Lat": 31.2222, "Long": 121.458, "Timestamp": 20181105053000, "Source": "https://www.thenews.com.pk/latest/389991-imran-khans-visit-infuses-momentum-in-pak-china-ties-global-times"}, {"ID": 800061232, "Actor1": "CHINA", "Actor1_Country": "CHN", "Actor2": "SRI LANKA", "Actor2_Country": "LKA", "Code": 51, "Class": 1, "Action_Location": "Temple Trees, Western, Sri Lanka", "Lat": 6.9149, "Long": 79.8477, "Timestamp": 20181105053000, "Source": "https://www.chron.com/news/world/article/Rivals-China-India-cautiously-watch-Sri-Lankan-13362617.php"}, {"ID": 800061233, "Actor1": "CHINA", "Actor1_Country": "CHN", "Actor2": "SRI LANKA", "Actor2_Country": "LKA", "Code": 51, "Class": 1, "Action_Location": "Temple Trees, Western, Sri Lanka", "Lat": 6.9149, "Long": 79.8477, "Timestamp": 20181105053000, "Source": "https://www.chron.com/news/world/article/Rivals-China-India-cautiously-watch-Sri-Lankan-13362617.php"}, {"ID": 800061234, "Actor1": "ROMAN CATHOLIC", "Actor1_Country": null, "Actor2": "SAINT", "Actor2_Country": null, "Code": 42, "Class": 1, "Action_Location": "Port-Au-Prince, Ouest, Haiti", "Lat": 18.5392, "Long": -72.335, "Timestamp": 20181105053000, "Source": "https://www.sfgate.com/news/world/article/AP-PHOTOS-Haitians-celebrate-Festival-of-the-Dead-13362630.php"}, {"ID": 800061235, "Actor1": "ROMAN CATHOLIC", "Actor1_Country": null, "Actor2": "SAINT", "Actor2_Country": null, "Code": 42, "Class": 1, "Action_Location": "Port-Au-Prince, Ouest, Haiti", "Lat": 18.5392, "Long": -72.335, "Timestamp": 20181105053000, "Source": "https://www.sfgate.com/news/world/article/AP-PHOTOS-Haitians-celebrate-Festival-of-the-Dead-13362630.php"}, {"ID": 800061236, "Actor1": "ROMAN CATHOLIC", "Actor1_Country": null, "Actor2": "SAINT", "Actor2_Country": null, "Code": 42, "Class": 1, "Action_Location": "Cite Soleil, Ouest, Haiti", "Lat": 18.5803, "Long": -72.3381, "Timestamp": 20181105053000, "Source": "https://www.sfgate.com/news/world/article/AP-PHOTOS-Haitians-celebrate-Festival-of-the-Dead-13362630.php"}, {"ID": 800061239, "Actor1": "METHODIST", "Actor1_Country": null, "Actor2": "UNITED STATES", "Actor2_Country": "USA", "Code": 110, "Class": 3, "Action_Location": "Georgia, United States", "Lat": 32.9866, "Long": -83.6487, "Timestamp": 20181105053000, "Source": "https://www.theintelligencer.com/news/politics/article/In-Georgia-Stacey-Abrams-faces-balancing-act-on-13353383.php"}, {"ID": 800061240, "Actor1": "METHODIST", "Actor1_Country": null, "Actor2": "MISSISSIPPI", "Actor2_Country": "USA", "Code": 110, "Class": 3, "Action_Location": "Atlanta, Georgia, United States", "Lat": 33.749, "Long": -84.388, "Timestamp": 20181105053000, "Source": "https://www.theintelligencer.com/news/politics/article/In-Georgia-Stacey-Abrams-faces-balancing-act-on-13353383.php"}, {"ID": 800061241, "Actor1": "METHODIST", "Actor1_Country": null, "Actor2": "UNITED STATES", "Actor2_Country": "USA", "Code": 110, "Class": 3, "Action_Location": "Mississippi, United States", "Lat": 32.7673, "Long": -89.6812, "Timestamp": 20181105053000, "Source": "https://www.theintelligencer.com/news/politics/article/In-Georgia-Stacey-Abrams-faces-balancing-act-on-13353383.php"}, {"ID": 800061260, "Actor1": "POLICE", "Actor1_Country": null, "Actor2": "AUSTRALIA", "Actor2_Country": "AUS", "Code": 190, "Class": 4, "Action_Location": "Carlingford, New South Wales, Australia", "Lat": -33.7833, "Long": 151.05, "Timestamp": 20181105053000, "Source": "https://www.news.com.au/national/breaking-news/alleged-baby-formula-gang-member-charged/news-story/9bc15a362b51202174660e86ad727bec"}, {"ID": 800061268, "Actor1": "POLICE", "Actor1_Country": null, "Actor2": "UNITED STATES", "Actor2_Country": "USA", "Code": 42, "Class": 1, "Action_Location": "Atlanta, Georgia, United States", "Lat": 33.749, "Long": -84.388, "Timestamp": 20181105053000, "Source": "https://www.fox10tv.com/news/us_world_news/dna-of-suspect-s-family-member-used-to-solve-murder/article_8e4545b5-b9e2-589e-b782-715b36a7908f.html"}, {"ID": 800061269, "Actor1": "POLICE", "Actor1_Country": null, "Actor2": "UNITED STATES", "Actor2_Country": "USA", "Code": 42, "Class": 1, "Action_Location": "Atlanta, Georgia, United States", "Lat": 33.749, "Long": -84.388, "Timestamp": 20181105053000, "Source": "https://www.fox10tv.com/news/us_world_news/dna-of-suspect-s-family-member-used-to-solve-murder/article_8e4545b5-b9e2-589e-b782-715b36a7908f.html"}, {"ID": 800061270, "Actor1": "POLICE", "Actor1_Country": null, "Actor2": "ALABAMA", "Actor2_Country": "USA", "Code": 42, "Class": 1, "Action_Location": "Alabama, United States", "Lat": 32.799, "Long": -86.8073, "Timestamp": 20181105053000, "Source": "https://www.fox10tv.com/news/us_world_news/dna-of-suspect-s-family-member-used-to-solve-murder/article_8e4545b5-b9e2-589e-b782-715b36a7908f.html"}, {"ID": 800061271, "Actor1": "PRISON", "Actor1_Country": null, "Actor2": "UNITED STATES", "Actor2_Country": "USA", "Code": 42, "Class": 1, "Action_Location": "North Carolina, United States", "Lat": 35.6411, "Long": -79.8431, "Timestamp": 20181105053000, "Source": "https://www.geekgirlauthority.com/outlander-season-premiere-recap-s04e01-america-beautiful/"}, {"ID": 800061275, "Actor1": "POLICE", "Actor1_Country": null, "Actor2": "UNITED STATES", "Actor2_Country": "USA", "Code": 190, "Class": 4, "Action_Location": "Atlanta, Georgia, United States", "Lat": 33.749, "Long": -84.388, "Timestamp": 20181105053000, "Source": "https://www.fox10tv.com/news/us_world_news/dna-of-suspect-s-family-member-used-to-solve-murder/article_8e4545b5-b9e2-589e-b782-715b36a7908f.html"}, {"ID": 800061276, "Actor1": "POLICE", "Actor1_Country": null, "Actor2": "UNITED STATES", "Actor2_Country": "USA", "Code": 190, "Class": 4, "Action_Location": "Alabama, United States", "Lat": 32.799, "Long": -86.8073, "Timestamp": 20181105053000, "Source": "https://www.fox10tv.com/news/us_world_news/dna-of-suspect-s-family-member-used-to-solve-murder/article_8e4545b5-b9e2-589e-b782-715b36a7908f.html"}, {"ID": 800061287, "Actor1": "CUBAN", "Actor1_Country": "CUB", "Actor2": "DPRK", "Actor2_Country": "PRK", "Code": 46, "Class": 1, "Action_Location": "Cuba", "Lat": 22.0, "Long": -79.5, "Timestamp": 20181105053000, "Source": "http://www.xinhuanet.com/english/2018-11/05/c_137582787.htm"}, {"ID": 800061303, "Actor1": "HUNTER", "Actor1_Country": null, "Actor2": "AUSTRALIA", "Actor2_Country": "AUS", "Code": 84, "Class": 2, "Action_Location": "Lake Macquarie, New South Wales, Australia", "Lat": -33.0652, "Long": 151.601, "Timestamp": 20181105053000, "Source": "https://www.lakesmail.com.au/story/5740921/labor-pitches-team-game-in-announcing-lake-candidate/"}, {"ID": 800061306, "Actor1": "VOTER", "Actor1_Country": null, "Actor2": "PRESIDENT", "Actor2_Country": null, "Code": 60, "Class": 2, "Action_Location": "Washington, District of Columbia, United States", "Lat": 38.8951, "Long": -77.0364, "Timestamp": 20181105053000, "Source": "https://www.washingtonpost.com/world/2018/11/05/what-are-midterm-elections/"}, {"ID": 800061337, "Actor1": "UNIVERSITY", "Actor1_Country": null, "Actor2": "CANADA", "Actor2_Country": "CAN", "Code": 43, "Class": 1, "Action_Location": "Canada", "Lat": 60.0, "Long": -96.0, "Timestamp": 20181105053000, "Source": "http://www.jamaicaobserver.com/all-woman/alesha-foster-_148528?profile=1606"}, {"ID": 800061340, "Actor1": "STUDENT", "Actor1_Country": null, "Actor2": "HOSPITAL", "Actor2_Country": null, "Code": 13, "Class": 1, "Action_Location": "Kurnool, Andhra Pradesh, India", "Lat": 15.8333, "Long": 78.05, "Timestamp": 20181105053000, "Source": "https://www.albuquerqueexpress.com/news/258244621/rejected-teacher-slashes-throat-of-schoolgirl"}, {"ID": 800061341, "Actor1": "STUDENT", "Actor1_Country": null, "Actor2": "HOSPITAL", "Actor2_Country": null, "Code": 120, "Class": 3, "Action_Location": "Kurnool, Andhra Pradesh, India", "Lat": 15.8333, "Long": 78.05, "Timestamp": 20181105053000, "Source": "https://www.albuquerqueexpress.com/news/258244621/rejected-teacher-slashes-throat-of-schoolgirl"}, {"ID": 800061354, "Actor1": "EGYPT", "Actor1_Country": "EGY", "Actor2": "PALESTINIAN", "Actor2_Country": "PSE", "Code": 18, "Class": 1, "Action_Location": "Cairo, Al Qahirah, Egypt", "Lat": 30.05, "Long": 31.25, "Timestamp": 20181105053000, "Source": "http://matzav.com/many-countries-planning-to-move-embassies-to-yerushalayim-official-says/"}, {"ID": 800061357, "Actor1": "RETIRED", "Actor1_Country": null, "Actor2": "AMERICAN", "Actor2_Country": "USA", "Code": 13, "Class": 1, "Action_Location": "Ohio, United States", "Lat": 40.3736, "Long": -82.7755, "Timestamp": 20181105053000, "Source": "https://www.chron.com/news/article/Museum-offers-free-admission-to-veterans-after-13362632.php"}, {"ID": 800061358, "Actor1": "RETIRED", "Actor1_Country": null, "Actor2": "AMERICAN", "Actor2_Country": "USA", "Code": 13, "Class": 1, "Action_Location": "Ohio, United States", "Lat": 40.3736, "Long": -82.7755, "Timestamp": 20181105053000, "Source": "https://www.chron.com/news/article/Museum-offers-free-admission-to-veterans-after-13362632.php"}, {"ID": 800061360, "Actor1": "EUROPE", "Actor1_Country": "EUR", "Actor2": "REPATRIATE", "Actor2_Country": null, "Code": 181, "Class": 4, "Action_Location": "Riyadh, Ar Riya?, Saudi Arabia", "Lat": 24.6408, "Long": 46.7728, "Timestamp": 20181105053000, "Source": "http://www.msn.com/en-us/news/world/saudi-campaign-to-abduct-and-silence-rivals-abroad-goes-back-decades/ar-BBPl1yf"}, {"ID": 800061374, "Actor1": "FRANCE", "Actor1_Country": "FRA", "Actor2": "CANADA", "Actor2_Country": "CAN", "Code": 43, "Class": 1, "Action_Location": "Canada", "Lat": 60.0, "Long": -96.0, "Timestamp": 20181105053000, "Source": "https://www.ghanavisions.com/news/world/225421-how-the-great-war-s-battle-of-amiens-might-have-been-reported-today.html"}, {"ID": 800061375, "Actor1": "FRANCE", "Actor1_Country": "FRA", "Actor2": "NEW CALEDONIA", "Actor2_Country": "FRA", "Code": 120, "Class": 3, "Action_Location": "Noumea, New Caledonia (general), New Caledonia", "Lat": -22.2667, "Long": 166.45, "Timestamp": 20181105053000, "Source": "https://www.thenews.com.pk/print/389815-france-s-pacific-pebble-new-caledonia-rejects-independence"}, {"ID": 800061383, "Actor1": "UNITED KINGDOM", "Actor1_Country": "GBR", "Actor2": "IRISH", "Actor2_Country": "IRL", "Code": 172, "Class": 4, "Action_Location": "London, London, City of, United Kingdom", "Lat": 51.5, "Long": -0.116667, "Timestamp": 20181105053000, "Source": "https://www.arabianbusiness.com/politics-economics/407378-uk-eu-close-to-brexit-deal-over-irish-border-report"}, {"ID": 800061391, "Actor1": "UNITED KINGDOM", "Actor1_Country": "GBR", "Actor2": "THE US", "Actor2_Country": "USA", "Code": 36, "Class": 1, "Action_Location": "United Kingdom", "Lat": 54.0, "Long": -4.0, "Timestamp": 20181105053000, "Source": "https://www.forexcrunch.com/gbp-usd-weakening-from-1-3000-as-brexit-headlines-fail-to-keep-bulls-on-track/"}, {"ID": 800061422, "Actor1": "MAYOR", "Actor1_Country": null, "Actor2": "AFGHANISTAN", "Actor2_Country": "AFG", "Code": 42, "Class": 1, "Action_Location": "Utah, United States", "Lat": 40.1135, "Long": -111.854, "Timestamp": 20181105053000, "Source": "https://www.weau.com/content/news/Funeral-plans-are-pending-for-Utah-Guard-major-499597711.html"}, {"ID": 800061423, "Actor1": "FOREIGN MINIST", "Actor1_Country": null, "Actor2": "TALIBAN", "Actor2_Country": "AFG", "Code": 36, "Class": 1, "Action_Location": "Doha, Ad Daw?ah, Qatar", "Lat": 25.2867, "Long": 51.5333, "Timestamp": 20181105053000, "Source": "https://southasiamonitor.org/news/russia-to-host-talks-with-afghan-leaders-taliban/inthenews/28387"}, {"ID": 800061424, "Actor1": "PRESIDENT", "Actor1_Country": null, "Actor2": "ARGENTINA", "Actor2_Country": "ARG", "Code": 51, "Class": 1, "Action_Location": "Buenos Aires, Distrito Federal, Argentina", "Lat": -34.5875, "Long": -58.6725, "Timestamp": 20181105053000, "Source": "https://www.greenwichtime.com/news/crime/article/Argentina-s-Fernandez-still-inspires-loyalty-13362626.php"}, {"ID": 800061425, "Actor1": "PRESIDENT", "Actor1_Country": null, "Actor2": "ARGENTINA", "Actor2_Country": "ARG", "Code": 141, "Class": 3, "Action_Location": "Buenos Aires, Distrito Federal, Argentina", "Lat": -34.5875, "Long": -58.6725, "Timestamp": 20181105053000, "Source": "https://www.greenwichtime.com/news/crime/article/Argentina-s-Fernandez-still-inspires-loyalty-13362626.php"}, {"ID": 800061427, "Actor1": "PRIME MINISTER", "Actor1_Country": null, "Actor2": "AUSTRALIA", "Actor2_Country": "AUS", "Code": 42, "Class": 1, "Action_Location": "Rockhampton, Queensland, Australia", "Lat": -23.3803, "Long": 150.506, "Timestamp": 20181105053000, "Source": "https://www.sbs.com.au/news/sunshine-and-strawberries-on-qld-bus-tour"}, {"ID": 800061428, "Actor1": "PRIME MINISTER", "Actor1_Country": null, "Actor2": "AUSTRALIA", "Actor2_Country": "AUS", "Code": 42, "Class": 1, "Action_Location": "Rockhampton, Queensland, Australia", "Lat": -23.3803, "Long": 150.506, "Timestamp": 20181105053000, "Source": "https://www.sbs.com.au/news/sunshine-and-strawberries-on-qld-bus-tour"}, {"ID": 800061433, "Actor1": "MINISTRY", "Actor1_Country": null, "Actor2": "SECURITY FORCE", "Actor2_Country": null, "Code": 10, "Class": 1, "Action_Location": "Cairo, Al Qahirah, Egypt", "Lat": 30.05, "Long": 31.25, "Timestamp": 20181105053000, "Source": "https://www.thenews.com.pk/print/389818-egypt-says-19-militants-killed-in-security-operation-after-attack-on-christians"}, {"ID": 800061434, "Actor1": "PRESIDENT", "Actor1_Country": null, "Actor2": "PRISON", "Actor2_Country": null, "Code": 25, "Class": 1, "Action_Location": "La Nacion, Chaco, Argentina", "Lat": -24.6, "Long": -62.1333, "Timestamp": 20181105053000, "Source": "https://www.greenwichtime.com/news/crime/article/Argentina-s-Fernandez-still-inspires-loyalty-13362626.php"}, {"ID": 800061435, "Actor1": "GOVERNMENT", "Actor1_Country": null, "Actor2": "POLICE CONSTABLE", "Actor2_Country": null, "Code": 110, "Class": 3, "Action_Location": "Bihar, Bihar, India", "Lat": 25.1833, "Long": 85.5167, "Timestamp": 20181105053000, "Source": "http://theindianawaaz.com/bihar-175-police-constables-dismissed-for-attacking-seniors/"}, {"ID": 800061443, "Actor1": "PRIME MINISTER", "Actor1_Country": null, "Actor2": "BACKPACKER", "Actor2_Country": null, "Code": 120, "Class": 3, "Action_Location": "Melbourne, Victoria, Australia", "Lat": -37.8167, "Long": 144.967, "Timestamp": 20181105053000, "Source": "https://www.perthnow.com.au/politics/working-holiday-visa-restrictions-relaxed-ng-s-1903602"}, {"ID": 800061446, "Actor1": "PRIME MINISTER", "Actor1_Country": null, "Actor2": "SCHOOL", "Actor2_Country": null, "Code": 51, "Class": 1, "Action_Location": "Delhi, Delhi, India", "Lat": 28.6667, "Long": 77.2167, "Timestamp": 20181105053000, "Source": "https://www.freepressjournal.in/latest-news/signature-bridge-inaugurated-amid-scuffle-between-delhi-bjp-chief-manoj-tiwari-and-aap-supporters/1389981"}, {"ID": 800061454, "Actor1": "PRIME MINISTER", "Actor1_Country": null, "Actor2": "HOSPITAL", "Actor2_Country": null, "Code": 51, "Class": 1, "Action_Location": "Delhi, Delhi, India", "Lat": 28.6667, "Long": 77.2167, "Timestamp": 20181105053000, "Source": "https://www.freepressjournal.in/latest-news/signature-bridge-inaugurated-amid-scuffle-between-delhi-bjp-chief-manoj-tiwari-and-aap-supporters/1389981"}, {"ID": 800061457, "Actor1": "PRESIDENT", "Actor1_Country": null, "Actor2": "IRAN", "Actor2_Country": "IRN", "Code": 356, "Class": 1, "Action_Location": "Washington, District of Columbia, United States", "Lat": 38.8951, "Long": -77.0364, "Timestamp": 20181105053000, "Source": "https://sputniknews.com/middleeast/201811051069507088-usa-iran-sanctions-take-effect-monday/"}, {"ID": 800061458, "Actor1": "GOVERNMENT", "Actor1_Country": null, "Actor2": "TEHRAN", "Actor2_Country": "IRN", "Code": 13, "Class": 1, "Action_Location": "Tehran, Tehran, Iran", "Lat": 35.75, "Long": 51.5148, "Timestamp": 20181105053000, "Source": "https://www.thenews.com.pk/print/389963-iranian-marchers-protest-against-us-oil-sanctions"}, {"ID": 800061464, "Actor1": "FOREIGN MINIST", "Actor1_Country": null, "Actor2": "NEWS AGENCY", "Actor2_Country": null, "Code": 10, "Class": 1, "Action_Location": "Pyongyang, P'yongyang-si, North Korea", "Lat": 39.0194, "Long": 125.755, "Timestamp": 20181105053000, "Source": "http://www.arabnews.com/node/1399366/world"}, {"ID": 800061465, "Actor1": "PRIME MINISTER", "Actor1_Country": null, "Actor2": "PAKISTAN", "Actor2_Country": "PAK", "Code": 42, "Class": 1, "Action_Location": "Russia", "Lat": 60.0, "Long": 100.0, "Timestamp": 20181105053000, "Source": "http://www.arabnews.com/node/1399336/business-economy"}, {"ID": 800061466, "Actor1": "PRIME MINISTER", "Actor1_Country": null, "Actor2": "PAKISTAN", "Actor2_Country": "PAK", "Code": 42, "Class": 1, "Action_Location": "Beijing, Beijing, China", "Lat": 39.9289, "Long": 116.388, "Timestamp": 20181105053000, "Source": "http://www.arabnews.com/node/1399336/business-economy"}, {"ID": 800061467, "Actor1": "PRIME MINISTER", "Actor1_Country": null, "Actor2": "PAKISTAN", "Actor2_Country": "PAK", "Code": 42, "Class": 1, "Action_Location": "Russia", "Lat": 60.0, "Long": 100.0, "Timestamp": 20181105053000, "Source": "http://www.arabnews.com/node/1399336/business-economy"}, {"ID": 800061469, "Actor1": "FOREIGN MINIST", "Actor1_Country": null, "Actor2": "NORTH KOREA", "Actor2_Country": "PRK", "Code": 14, "Class": 1, "Action_Location": "Seoul, Soul-t'ukpyolsi, South Korea", "Lat": 37.5664, "Long": 127.0, "Timestamp": 20181105053000, "Source": "https://www.thenews.com.pk/print/389962-north-korea-warns-of-returning-to-nuclear-policy"}, {"ID": 800061471, "Actor1": "PRIME MINISTER", "Actor1_Country": null, "Actor2": "RUSSIA", "Actor2_Country": "RUS", "Code": 42, "Class": 1, "Action_Location": "Beijing, Beijing, China", "Lat": 39.9289, "Long": 116.388, "Timestamp": 20181105053000, "Source": "http://www.arabnews.com/node/1399336/business-economy"}, {"ID": 800061472, "Actor1": "PRIME MINISTER", "Actor1_Country": null, "Actor2": "RUSSIA", "Actor2_Country": "RUS", "Code": 42, "Class": 1, "Action_Location": "Russia", "Lat": 60.0, "Long": 100.0, "Timestamp": 20181105053000, "Source": "http://www.arabnews.com/node/1399336/business-economy"}, {"ID": 800061474, "Actor1": "PRINCE", "Actor1_Country": null, "Actor2": "SAUDI ARABIA", "Actor2_Country": "SAU", "Code": 190, "Class": 4, "Action_Location": "Riyadh, Ar Riya?, Saudi Arabia", "Lat": 24.6408, "Long": 46.7728, "Timestamp": 20181105053000, "Source": "https://www.thecitizen.in/index.php/en/NewsDetail/index/6/15448/A-Royal-Reshuffle"}, {"ID": 800061476, "Actor1": "MINIST", "Actor1_Country": null, "Actor2": "TURKEY", "Actor2_Country": "TUR", "Code": 163, "Class": 4, "Action_Location": "Turkey", "Lat": 39.059012, "Long": 34.911546, "Timestamp": 20181105053000, "Source": "https://sputniknews.com/middleeast/201811051069507088-usa-iran-sanctions-take-effect-monday/"}, {"ID": 800061489, "Actor1": "PRESIDENT", "Actor1_Country": null, "Actor2": "UNITED STATES", "Actor2_Country": "USA", "Code": 874, "Class": 2, "Action_Location": "Washington, District of Columbia, United States", "Lat": 38.8951, "Long": -77.0364, "Timestamp": 20181105053000, "Source": "https://sputniknews.com/middleeast/201811051069507088-usa-iran-sanctions-take-effect-monday/"}, {"ID": 800061495, "Actor1": "PRESIDENT", "Actor1_Country": null, "Actor2": "UNITED STATES", "Actor2_Country": "USA", "Code": 174, "Class": 4, "Action_Location": "White House, District of Columbia, United States", "Lat": 38.8951, "Long": -77.0364, "Timestamp": 20181105053000, "Source": "https://www.washingtonpost.com/world/2018/11/05/what-are-midterm-elections/"}, {"ID": 800061498, "Actor1": "ADMINISTRATION", "Actor1_Country": null, "Actor2": "BARACK OBAMA", "Actor2_Country": "USA", "Code": 36, "Class": 1, "Action_Location": "Tehran, Tehran, Iran", "Lat": 35.75, "Long": 51.5148, "Timestamp": 20181105053000, "Source": "https://finance.yahoo.com/news/u-ratchets-pressure-iran-resumption-050100713.html"}, {"ID": 800061499, "Actor1": "PRESIDENT", "Actor1_Country": null, "Actor2": "THE WHITE HOUSE", "Actor2_Country": "USA", "Code": 174, "Class": 4, "Action_Location": "White House, District of Columbia, United States", "Lat": 38.8951, "Long": -77.0364, "Timestamp": 20181105053000, "Source": "https://www.washingtonpost.com/world/2018/11/05/what-are-midterm-elections/"}, {"ID": 800061510, "Actor1": "FOREIGN MINIST", "Actor1_Country": null, "Actor2": "UNITED STATES", "Actor2_Country": "USA", "Code": 10, "Class": 1, "Action_Location": "Chattanooga, Tennessee, United States", "Lat": 35.0456, "Long": -85.3097, "Timestamp": 20181105053000, "Source": "https://finance.yahoo.com/news/u-ratchets-pressure-iran-resumption-050100713.html"}, {"ID": 800061511, "Actor1": "FOREIGN MINIST", "Actor1_Country": null, "Actor2": "UNITED STATES", "Actor2_Country": "USA", "Code": 10, "Class": 1, "Action_Location": "Chattanooga, Tennessee, United States", "Lat": 35.0456, "Long": -85.3097, "Timestamp": 20181105053000, "Source": "https://finance.yahoo.com/news/u-ratchets-pressure-iran-resumption-050100713.html"}, {"ID": 800061514, "Actor1": "DEFENCE MINIST", "Actor1_Country": null, "Actor2": "NAVAL", "Actor2_Country": null, "Code": 10, "Class": 1, "Action_Location": "Kedarnath, Uttaranchal, India", "Lat": 30.7333, "Long": 79.0667, "Timestamp": 20181105053000, "Source": "https://www.freepressjournal.in/headlines/1971-war-hero-vice-admiral-m-p-awati-passes-away-defence-minister-nirmala-sitharaman-pays-tribute/1390046"}, {"ID": 800061518, "Actor1": "GREECE", "Actor1_Country": "GRC", "Actor2": "ROMANIA", "Actor2_Country": null, "Code": 40, "Class": 1, "Action_Location": "Craiova, Dolj, Romania", "Lat": 44.3167, "Long": 23.8, "Timestamp": 20181105053000, "Source": "http://matzav.com/israeli-pm-netanyahu-asks-romania-to-help-significantly-change-the-eus-position-on-israel/"}, {"ID": 800061519, "Actor1": "GREECE", "Actor1_Country": "GRC", "Actor2": "ROMANIA", "Actor2_Country": null, "Code": 40, "Class": 1, "Action_Location": "Craiova, Dolj, Romania", "Lat": 44.3167, "Long": 23.8, "Timestamp": 20181105053000, "Source": "http://matzav.com/israeli-pm-netanyahu-asks-romania-to-help-significantly-change-the-eus-position-on-israel/"}, {"ID": 800061553, "Actor1": "INDONESIA", "Actor1_Country": "IDN", "Actor2": "RADIO STATION", "Actor2_Country": null, "Code": 10, "Class": 1, "Action_Location": "Jakarta, Jakarta Raya, Indonesia", "Lat": -6.17444, "Long": 106.829, "Timestamp": 20181105053000, "Source": "http://travel.asiaone.com/asia/lion-air-crash-even-strongest-body-part-plane-broke-apart-says-indonesian-official"}, {"ID": 800061554, "Actor1": "INDONESIA", "Actor1_Country": "IDN", "Actor2": "RADIO STATION", "Actor2_Country": null, "Code": 13, "Class": 1, "Action_Location": "Jakarta, Jakarta Raya, Indonesia", "Lat": -6.17444, "Long": 106.829, "Timestamp": 20181105053000, "Source": "http://travel.asiaone.com/asia/lion-air-crash-even-strongest-body-part-plane-broke-apart-says-indonesian-official"}, {"ID": 800061556, "Actor1": "INTERNATIONAL MONETARY FUND", "Actor1_Country": null, "Actor2": "IRAN", "Actor2_Country": "IRN", "Code": 100, "Class": 3, "Action_Location": "Tehran, Tehran, Iran", "Lat": 35.75, "Long": 51.5148, "Timestamp": 20181105053000, "Source": "https://finance.yahoo.com/news/u-ratchets-pressure-iran-resumption-050100713.html"}, {"ID": 800061557, "Actor1": "INTERNATIONAL MONETARY FUND", "Actor1_Country": null, "Actor2": "IRAN", "Actor2_Country": "IRN", "Code": 100, "Class": 3, "Action_Location": "Chattanooga, Tennessee, United States", "Lat": 35.0456, "Long": -85.3097, "Timestamp": 20181105053000, "Source": "https://finance.yahoo.com/news/u-ratchets-pressure-iran-resumption-050100713.html"}, {"ID": 800061560, "Actor1": "THE EUROPEAN UNION", "Actor1_Country": "EUR", "Actor2": "IRAN", "Actor2_Country": "IRN", "Code": 46, "Class": 1, "Action_Location": "Tehran, Tehran, Iran", "Lat": 35.75, "Long": 51.5148, "Timestamp": 20181105053000, "Source": "https://sputniknews.com/middleeast/201811051069507088-usa-iran-sanctions-take-effect-monday/"}, {"ID": 800061576, "Actor1": "BIHAR", "Actor1_Country": "IND", "Actor2": "POLICE CONSTABLE", "Actor2_Country": null, "Code": 110, "Class": 3, "Action_Location": "Bihar, Bihar, India", "Lat": 25.1833, "Long": 85.5167, "Timestamp": 20181105053000, "Source": "http://theindianawaaz.com/bihar-175-police-constables-dismissed-for-attacking-seniors/"}, {"ID": 800061577, "Actor1": "BIHAR", "Actor1_Country": "IND", "Actor2": "POLICE CONSTABLE", "Actor2_Country": null, "Code": 110, "Class": 3, "Action_Location": "Patna, Bihar, India", "Lat": 25.6, "Long": 85.1167, "Timestamp": 20181105053000, "Source": "http://theindianawaaz.com/bihar-175-police-constables-dismissed-for-attacking-seniors/"}, {"ID": 800061581, "Actor1": "NEW DELHI", "Actor1_Country": "IND", "Actor2": "GREEK", "Actor2_Country": "GRC", "Code": 51, "Class": 1, "Action_Location": "Athens, Attik\u00edR, Greece", "Lat": 37.9833, "Long": 23.7333, "Timestamp": 20181105053000, "Source": "https://www.prokerala.com/news/articles/a871096.html"}, {"ID": 800061586, "Actor1": "BIHAR", "Actor1_Country": "IND", "Actor2": "POLICE CONSTABLE", "Actor2_Country": null, "Code": 110, "Class": 3, "Action_Location": "Bihar, Bihar, India", "Lat": 25.1833, "Long": 85.5167, "Timestamp": 20181105053000, "Source": "http://theindianawaaz.com/bihar-175-police-constables-dismissed-for-attacking-seniors/"}, {"ID": 800061599, "Actor1": "IRANIAN", "Actor1_Country": "IRN", "Actor2": "ARGENTINA", "Actor2_Country": "ARG", "Code": 112, "Class": 3, "Action_Location": "Buenos Aires, Distrito Federal, Argentina", "Lat": -34.5875, "Long": -58.6725, "Timestamp": 20181105053000, "Source": "https://www.sfgate.com/news/crime/article/Argentina-s-Fernandez-still-inspires-loyalty-13362626.php"}, {"ID": 800061600, "Actor1": "IRANIAN", "Actor1_Country": "IRN", "Actor2": "ARGENTINA", "Actor2_Country": "ARG", "Code": 112, "Class": 3, "Action_Location": "La Nacion, Chaco, Argentina", "Lat": -24.6, "Long": -62.1333, "Timestamp": 20181105053000, "Source": "https://www.greenwichtime.com/news/crime/article/Argentina-s-Fernandez-still-inspires-loyalty-13362626.php"}, {"ID": 800061601, "Actor1": "IRANIAN", "Actor1_Country": "IRN", "Actor2": "ARGENTINA", "Actor2_Country": "ARG", "Code": 112, "Class": 3, "Action_Location": "Iran", "Lat": 32.0, "Long": 53.0, "Timestamp": 20181105053000, "Source": "https://www.sfgate.com/news/crime/article/Argentina-s-Fernandez-still-inspires-loyalty-13362626.php"}, {"ID": 800061602, "Actor1": "IRANIAN", "Actor1_Country": "IRN", "Actor2": "ARGENTINA", "Actor2_Country": "ARG", "Code": 112, "Class": 3, "Action_Location": "Iran", "Lat": 32.0, "Long": 53.0, "Timestamp": 20181105053000, "Source": "https://www.greenwichtime.com/news/crime/article/Argentina-s-Fernandez-still-inspires-loyalty-13362626.php"}, {"ID": 800061603, "Actor1": "IRANIAN", "Actor1_Country": "IRN", "Actor2": "ARGENTINA", "Actor2_Country": "ARG", "Code": 173, "Class": 4, "Action_Location": "Buenos Aires, Distrito Federal, Argentina", "Lat": -34.5875, "Long": -58.6725, "Timestamp": 20181105053000, "Source": "https://www.sfgate.com/news/crime/article/Argentina-s-Fernandez-still-inspires-loyalty-13362626.php"}, {"ID": 800061604, "Actor1": "IRANIAN", "Actor1_Country": "IRN", "Actor2": "ARGENTINA", "Actor2_Country": "ARG", "Code": 173, "Class": 4, "Action_Location": "La Nacion, Chaco, Argentina", "Lat": -24.6, "Long": -62.1333, "Timestamp": 20181105053000, "Source": "https://www.greenwichtime.com/news/crime/article/Argentina-s-Fernandez-still-inspires-loyalty-13362626.php"}, {"ID": 800061605, "Actor1": "IRANIAN", "Actor1_Country": "IRN", "Actor2": "ARGENTINA", "Actor2_Country": "ARG", "Code": 173, "Class": 4, "Action_Location": "Iran", "Lat": 32.0, "Long": 53.0, "Timestamp": 20181105053000, "Source": "https://www.sfgate.com/news/crime/article/Argentina-s-Fernandez-still-inspires-loyalty-13362626.php"}, {"ID": 800061606, "Actor1": "IRANIAN", "Actor1_Country": "IRN", "Actor2": "ARGENTINA", "Actor2_Country": "ARG", "Code": 173, "Class": 4, "Action_Location": "Iran", "Lat": 32.0, "Long": 53.0, "Timestamp": 20181105053000, "Source": "https://www.greenwichtime.com/news/crime/article/Argentina-s-Fernandez-still-inspires-loyalty-13362626.php"}, {"ID": 800061608, "Actor1": "IRAN", "Actor1_Country": "IRN", "Actor2": "COMPANIES", "Actor2_Country": null, "Code": 311, "Class": 1, "Action_Location": "Iran", "Lat": 32.0, "Long": 53.0, "Timestamp": 20181105053000, "Source": "https://www.shippingtribune.com/newsdetails.php?s_id=10185"}, {"ID": 800061610, "Actor1": "IRANIAN", "Actor1_Country": "IRN", "Actor2": "EMBASSY", "Actor2_Country": null, "Code": 17, "Class": 1, "Action_Location": "Tennessee, United States", "Lat": 35.7449, "Long": -86.7489, "Timestamp": 20181105053000, "Source": "https://finance.yahoo.com/news/u-ratchets-pressure-iran-resumption-050100713.html"}, {"ID": 800061611, "Actor1": "IRAN", "Actor1_Country": "IRN", "Actor2": "EMBASSY", "Actor2_Country": null, "Code": 17, "Class": 1, "Action_Location": "Tehran, Tehran, Iran", "Lat": 35.75, "Long": 51.5148, "Timestamp": 20181105053000, "Source": "https://finance.yahoo.com/news/u-ratchets-pressure-iran-resumption-050100713.html"}, {"ID": 800061612, "Actor1": "IRAN", "Actor1_Country": "IRN", "Actor2": "EMBASSY", "Actor2_Country": null, "Code": 17, "Class": 1, "Action_Location": "Tennessee, United States", "Lat": 35.7449, "Long": -86.7489, "Timestamp": 20181105053000, "Source": "https://finance.yahoo.com/news/u-ratchets-pressure-iran-resumption-050100713.html"}, {"ID": 800061613, "Actor1": "IRAN", "Actor1_Country": "IRN", "Actor2": "ADMINISTRATION", "Actor2_Country": null, "Code": 20, "Class": 1, "Action_Location": "Tehran, Tehran, Iran", "Lat": 35.75, "Long": 51.5148, "Timestamp": 20181105053000, "Source": "https://www.jpost.com/Middle-East/Iran-News/Why-is-the-US-letting-so-many-countries-get-Iran-sanctions-waivers-571085"}, {"ID": 800061614, "Actor1": "IRAN", "Actor1_Country": "IRN", "Actor2": "ADMINISTRATION", "Actor2_Country": null, "Code": 61, "Class": 2, "Action_Location": "Tehran, Tehran, Iran", "Lat": 35.75, "Long": 51.5148, "Timestamp": 20181105053000, "Source": "https://www.jpost.com/Middle-East/Iran-News/Why-is-the-US-letting-so-many-countries-get-Iran-sanctions-waivers-571085"}, {"ID": 800061615, "Actor1": "IRAN", "Actor1_Country": "IRN", "Actor2": "THE EUROPEAN UNION", "Actor2_Country": "EUR", "Code": 46, "Class": 1, "Action_Location": "Tehran, Tehran, Iran", "Lat": 35.75, "Long": 51.5148, "Timestamp": 20181105053000, "Source": "https://sputniknews.com/middleeast/201811051069507088-usa-iran-sanctions-take-effect-monday/"}, {"ID": 800061616, "Actor1": "IRANIAN", "Actor1_Country": "IRN", "Actor2": "IRANIAN", "Actor2_Country": "IRN", "Code": 43, "Class": 1, "Action_Location": "Tehran, Tehran, Iran", "Lat": 35.75, "Long": 51.5148, "Timestamp": 20181105053000, "Source": "https://www.theweek.in/news/world/2018/11/05/toughest-ever-us-sanctions-iran-take-effect-today.html"}, {"ID": 800061617, "Actor1": "IRAN", "Actor1_Country": "IRN", "Actor2": "TEHRAN", "Actor2_Country": "IRN", "Code": 13, "Class": 1, "Action_Location": "Tehran, Tehran, Iran", "Lat": 35.75, "Long": 51.5148, "Timestamp": 20181105053000, "Source": "https://www.thenews.com.pk/print/389963-iranian-marchers-protest-against-us-oil-sanctions"}, {"ID": 800061623, "Actor1": "IRAN", "Actor1_Country": "IRN", "Actor2": "UNITED STATES", "Actor2_Country": "USA", "Code": 46, "Class": 1, "Action_Location": "New Delhi, Delhi, India", "Lat": 28.6, "Long": 77.2, "Timestamp": 20181105053000, "Source": "https://sputniknews.com/middleeast/201811051069507088-usa-iran-sanctions-take-effect-monday/"}, {"ID": 800061624, "Actor1": "IRANIAN", "Actor1_Country": "IRN", "Actor2": "UNITED STATES", "Actor2_Country": "USA", "Code": 46, "Class": 1, "Action_Location": "Washington, District of Columbia, United States", "Lat": 38.8951, "Long": -77.0364, "Timestamp": 20181105053000, "Source": "https://sputniknews.com/middleeast/201811051069507088-usa-iran-sanctions-take-effect-monday/"}, {"ID": 800061626, "Actor1": "IRANIAN", "Actor1_Country": "IRN", "Actor2": "UNITED STATES", "Actor2_Country": "USA", "Code": 80, "Class": 2, "Action_Location": "Washington, District of Columbia, United States", "Lat": 38.8951, "Long": -77.0364, "Timestamp": 20181105053000, "Source": "https://sputniknews.com/middleeast/201811051069507088-usa-iran-sanctions-take-effect-monday/"}, {"ID": 800061627, "Actor1": "IRAN", "Actor1_Country": "IRN", "Actor2": "UNITED STATES", "Actor2_Country": "USA", "Code": 111, "Class": 3, "Action_Location": "Tehran, Tehran, Iran", "Lat": 35.75, "Long": 51.5148, "Timestamp": 20181105053000, "Source": "https://finance.yahoo.com/news/u-ratchets-pressure-iran-resumption-050100713.html"}, {"ID": 800061635, "Actor1": "JERUSALEM", "Actor1_Country": "ISR", "Actor2": "FOREIGN MINIST", "Actor2_Country": null, "Code": 51, "Class": 1, "Action_Location": "Jerusalem, Israel (general), Israel", "Lat": 31.7667, "Long": 35.2333, "Timestamp": 20181105053000, "Source": "http://matzav.com/many-countries-planning-to-move-embassies-to-yerushalayim-official-says/"}, {"ID": 800061636, "Actor1": "JERUSALEM", "Actor1_Country": "ISR", "Actor2": "FOREIGN MINIST", "Actor2_Country": null, "Code": 51, "Class": 1, "Action_Location": "Jerusalem, Israel (general), Israel", "Lat": 31.7667, "Long": 35.2333, "Timestamp": 20181105053000, "Source": "http://matzav.com/many-countries-planning-to-move-embassies-to-yerushalayim-official-says/"}, {"ID": 800061637, "Actor1": "JERUSALEM", "Actor1_Country": "ISR", "Actor2": "FOREIGN MINIST", "Actor2_Country": null, "Code": 112, "Class": 3, "Action_Location": "Jerusalem, Israel (general), Israel", "Lat": 31.7667, "Long": 35.2333, "Timestamp": 20181105053000, "Source": "http://matzav.com/many-countries-planning-to-move-embassies-to-yerushalayim-official-says/"}, {"ID": 800061638, "Actor1": "JERUSALEM", "Actor1_Country": "ISR", "Actor2": "FOREIGN MINIST", "Actor2_Country": null, "Code": 112, "Class": 3, "Action_Location": "Ramallah, West Bank (general), West Bank", "Lat": 31.9026, "Long": 35.1955, "Timestamp": 20181105053000, "Source": "http://matzav.com/many-countries-planning-to-move-embassies-to-yerushalayim-official-says/"}, {"ID": 800061641, "Actor1": "ISRAELI", "Actor1_Country": "ISR", "Actor2": "ROMANIA", "Actor2_Country": null, "Code": 20, "Class": 1, "Action_Location": "Craiova, Dolj, Romania", "Lat": 44.3167, "Long": 23.8, "Timestamp": 20181105053000, "Source": "http://matzav.com/israeli-pm-netanyahu-asks-romania-to-help-significantly-change-the-eus-position-on-israel/"}, {"ID": 800061657, "Actor1": "ITALY", "Actor1_Country": "ITA", "Actor2": "MAFIA", "Actor2_Country": null, "Code": 10, "Class": 1, "Action_Location": "Santegidio, Umbria, Italy", "Lat": 43.1, "Long": 12.4833, "Timestamp": 20181105053000, "Source": "https://www.msn.com/en-us/news/world/can-one-catholic-priest-put-an-end-to-36-years-of-war/ar-BBPlFRY"}, {"ID": 800061658, "Actor1": "ITALY", "Actor1_Country": "ITA", "Actor2": "MAFIA", "Actor2_Country": null, "Code": 10, "Class": 1, "Action_Location": "Santegidio, Umbria, Italy", "Lat": 43.1, "Long": 12.4833, "Timestamp": 20181105053000, "Source": "https://www.msn.com/en-us/news/world/can-one-catholic-priest-put-an-end-to-36-years-of-war/ar-BBPlFRY"}, {"ID": 800061659, "Actor1": "ITALY", "Actor1_Country": "ITA", "Actor2": "SENEGALESE", "Actor2_Country": "SEN", "Code": 84, "Class": 2, "Action_Location": "Santegidio, Umbria, Italy", "Lat": 43.1, "Long": 12.4833, "Timestamp": 20181105053000, "Source": "https://www.msn.com/en-us/news/world/can-one-catholic-priest-put-an-end-to-36-years-of-war/ar-BBPlFRY"}, {"ID": 800061660, "Actor1": "ITALY", "Actor1_Country": "ITA", "Actor2": "SENEGALESE", "Actor2_Country": "SEN", "Code": 84, "Class": 2, "Action_Location": "Casamance, Senegal (general), Senegal", "Lat": 12.5561, "Long": -16.7592, "Timestamp": 20181105053000, "Source": "https://www.msn.com/en-us/news/world/can-one-catholic-priest-put-an-end-to-36-years-of-war/ar-BBPlFRY"}, {"ID": 800061661, "Actor1": "JAMAICA", "Actor1_Country": "JAM", "Actor2": "DOCTOR", "Actor2_Country": null, "Code": 120, "Class": 3, "Action_Location": "Jamaica", "Lat": 18.25, "Long": -77.5, "Timestamp": 20181105053000, "Source": "http://www.jamaicaobserver.com/all-woman/alesha-foster-_148528?profile=1606"}, {"ID": 800061673, "Actor1": "JORDAN", "Actor1_Country": "JOR", "Actor2": "UNITED STATES", "Actor2_Country": "USA", "Code": 43, "Class": 1, "Action_Location": "Georgia, United States", "Lat": 32.9866, "Long": -83.6487, "Timestamp": 20181105053000, "Source": "https://www.theintelligencer.com/news/politics/article/In-Georgia-Stacey-Abrams-faces-balancing-act-on-13353383.php"}, {"ID": 800061674, "Actor1": "AMMAN", "Actor1_Country": "JOR", "Actor2": "TURKEY", "Actor2_Country": "TUR", "Code": 46, "Class": 1, "Action_Location": "Istanbul, Istanbul, Turkey", "Lat": 41.0186, "Long": 28.9647, "Timestamp": 20181105053000, "Source": "http://www.msn.com/en-us/news/world/saudi-campaign-to-abduct-and-silence-rivals-abroad-goes-back-decades/ar-BBPl1yf"}, {"ID": 800061675, "Actor1": "JORDAN", "Actor1_Country": "JOR", "Actor2": "TURKEY", "Actor2_Country": "TUR", "Code": 11, "Class": 1, "Action_Location": "Istanbul, Istanbul, Turkey", "Lat": 41.0186, "Long": 28.9647, "Timestamp": 20181105053000, "Source": "http://www.msn.com/en-us/news/world/saudi-campaign-to-abduct-and-silence-rivals-abroad-goes-back-decades/ar-BBPl1yf"}, {"ID": 800061677, "Actor1": "TOKYO", "Actor1_Country": "JPN", "Actor2": "CHINA", "Actor2_Country": "CHN", "Code": 12, "Class": 1, "Action_Location": "Washington, District of Columbia, United States", "Lat": 38.8951, "Long": -77.0364, "Timestamp": 20181105053000, "Source": "https://www.reuters.com/article/japan-stocks-midday/nikkei-falls-as-hopes-of-u-s-sino-trade-resolution-fade-fast-retailing-tumbles-idUSL3N1XG002"}, {"ID": 800061678, "Actor1": "JAPAN", "Actor1_Country": "JPN", "Actor2": "JAPANESE", "Actor2_Country": "JPN", "Code": 90, "Class": 2, "Action_Location": "Sarufutsu, Hokkaido, Japan", "Lat": 45.2569, "Long": 142.2, "Timestamp": 20181105053000, "Source": "https://www.news.com.au/technology/environment/climate-change/missing-japanese-island-baffles-locals-and-scientists/news-story/ede6fb4da7b3d812618af0faa63a9a37"}, {"ID": 800061681, "Actor1": "JAPAN", "Actor1_Country": "JPN", "Actor2": "UNITED STATES", "Actor2_Country": "USA", "Code": 36, "Class": 1, "Action_Location": "United States", "Lat": 39.828175, "Long": -98.5795, "Timestamp": 20181105053000, "Source": "https://www.telegraphindia.com/india/arvind-stresses-the-real-temples/cid/1673928"}, {"ID": 800061709, "Actor1": "PROSECUTOR", "Actor1_Country": null, "Actor2": "ARGENTINA", "Actor2_Country": "ARG", "Code": 20, "Class": 1, "Action_Location": "La Nacion, Chaco, Argentina", "Lat": -24.6, "Long": -62.1333, "Timestamp": 20181105053000, "Source": "https://www.greenwichtime.com/news/crime/article/Argentina-s-Fernandez-still-inspires-loyalty-13362626.php"}, {"ID": 800061713, "Actor1": "SUPREME COURT", "Actor1_Country": null, "Actor2": "GOVERNMENT", "Actor2_Country": null, "Code": 112, "Class": 3, "Action_Location": "Zamfara State, Zamfara, Nigeria", "Lat": 12.1667, "Long": 6.25, "Timestamp": 20181105053000, "Source": "https://www.thisdaylive.com/index.php/2018/11/05/inec-why-we-accepted-list-of-apc-candidates-from-rivers/"}, {"ID": 800061722, "Actor1": "SUPREME COURT", "Actor1_Country": null, "Actor2": "UNITED STATES", "Actor2_Country": "USA", "Code": 20, "Class": 1, "Action_Location": "Missouri, United States", "Lat": 38.4623, "Long": -92.302, "Timestamp": 20181105053000, "Source": "http://www.arabnews.com/node/1399341/world"}, {"ID": 800061723, "Actor1": "SUPREME COURT", "Actor1_Country": null, "Actor2": "UNITED STATES", "Actor2_Country": "USA", "Code": 20, "Class": 1, "Action_Location": "Texas, United States", "Lat": 31.106, "Long": -97.6475, "Timestamp": 20181105053000, "Source": "http://www.arabnews.com/node/1399341/world"}, {"ID": 800061724, "Actor1": "PROSECUTOR", "Actor1_Country": null, "Actor2": "UNITED STATES", "Actor2_Country": "USA", "Code": 172, "Class": 4, "Action_Location": "New York, United States", "Lat": 42.1497, "Long": -74.9384, "Timestamp": 20181105053000, "Source": "https://www.law360.com/articles/1097343"}, {"ID": 800061774, "Actor1": "CHAMBER", "Actor1_Country": null, "Actor2": "SUPREME COURT", "Actor2_Country": null, "Code": 20, "Class": 1, "Action_Location": "Texas, United States", "Lat": 31.106, "Long": -97.6475, "Timestamp": 20181105053000, "Source": "http://www.arabnews.com/node/1399341/world"}, {"ID": 800061775, "Actor1": "PARLIAMENTARIAN", "Actor1_Country": null, "Actor2": "SRI LANKAN", "Actor2_Country": "LKA", "Code": 20, "Class": 1, "Action_Location": "Colombo, Western, Sri Lanka", "Lat": 6.93194, "Long": 79.8478, "Timestamp": 20181105053000, "Source": "http://www.dailymirror.lk/article/Professionals-urged-to-take-up-active-role-in-governance--157892.html"}, {"ID": 800061783, "Actor1": "COLOMBO", "Actor1_Country": "LKA", "Actor2": "CHINA", "Actor2_Country": "CHN", "Code": 40, "Class": 1, "Action_Location": "Beijing, Beijing, China", "Lat": 39.9289, "Long": 116.388, "Timestamp": 20181105053000, "Source": "https://www.scnow.com/news/headlines/article_f8dbd4f4-9bab-5b9f-ab9c-1a18aa738ca7.html"}, {"ID": 800061784, "Actor1": "COLOMBO", "Actor1_Country": "LKA", "Actor2": "CHINA", "Actor2_Country": "CHN", "Code": 40, "Class": 1, "Action_Location": "Lu Kang, Anhui, China", "Lat": 31.2728, "Long": 118.337, "Timestamp": 20181105053000, "Source": "https://www.chron.com/news/world/article/Rivals-China-India-cautiously-watch-Sri-Lankan-13362617.php"}, {"ID": 800061785, "Actor1": "COLOMBO", "Actor1_Country": "LKA", "Actor2": "CHINA", "Actor2_Country": "CHN", "Code": 40, "Class": 1, "Action_Location": "Colombo, Western, Sri Lanka", "Lat": 6.93194, "Long": 79.8478, "Timestamp": 20181105053000, "Source": "https://www.chron.com/news/world/article/Rivals-China-India-cautiously-watch-Sri-Lankan-13362617.php"}, {"ID": 800061786, "Actor1": "SRI LANKAN", "Actor1_Country": "LKA", "Actor2": "CHINESE", "Actor2_Country": "CHN", "Code": 71, "Class": 2, "Action_Location": "Beijing, Beijing, China", "Lat": 39.9289, "Long": 116.388, "Timestamp": 20181105053000, "Source": "https://www.chron.com/news/world/article/Rivals-China-India-cautiously-watch-Sri-Lankan-13362617.php"}, {"ID": 800061787, "Actor1": "SRI LANKA", "Actor1_Country": "LKA", "Actor2": "CHINA", "Actor2_Country": "CHN", "Code": 71, "Class": 2, "Action_Location": "Beijing, Beijing, China", "Lat": 39.9289, "Long": 116.388, "Timestamp": 20181105053000, "Source": "https://www.chron.com/news/world/article/Rivals-China-India-cautiously-watch-Sri-Lankan-13362617.php"}, {"ID": 800061788, "Actor1": "SRI LANKAN", "Actor1_Country": "LKA", "Actor2": "CHINESE", "Actor2_Country": "CHN", "Code": 71, "Class": 2, "Action_Location": "Lu Kang, Anhui, China", "Lat": 31.2728, "Long": 118.337, "Timestamp": 20181105053000, "Source": "https://www.chron.com/news/world/article/Rivals-China-India-cautiously-watch-Sri-Lankan-13362617.php"}, {"ID": 800061789, "Actor1": "SRI LANKAN", "Actor1_Country": "LKA", "Actor2": "CHINA", "Actor2_Country": "CHN", "Code": 71, "Class": 2, "Action_Location": "Colombo, Western, Sri Lanka", "Lat": 6.93194, "Long": 79.8478, "Timestamp": 20181105053000, "Source": "https://www.chron.com/news/world/article/Rivals-China-India-cautiously-watch-Sri-Lankan-13362617.php"}, {"ID": 800061790, "Actor1": "SRI LANKA", "Actor1_Country": "LKA", "Actor2": "DIPLOMAT", "Actor2_Country": null, "Code": 161, "Class": 4, "Action_Location": "Beijing, Beijing, China", "Lat": 39.9289, "Long": 116.388, "Timestamp": 20181105053000, "Source": "https://www.chron.com/news/world/article/Rivals-China-India-cautiously-watch-Sri-Lankan-13362617.php"}, {"ID": 800061791, "Actor1": "SRI LANKA", "Actor1_Country": "LKA", "Actor2": "DIPLOMAT", "Actor2_Country": null, "Code": 161, "Class": 4, "Action_Location": "New Delhi, Delhi, India", "Lat": 28.6, "Long": 77.2, "Timestamp": 20181105053000, "Source": "https://www.scnow.com/news/headlines/article_f8dbd4f4-9bab-5b9f-ab9c-1a18aa738ca7.html"}, {"ID": 800061792, "Actor1": "COLOMBO", "Actor1_Country": "LKA", "Actor2": "DIPLOMAT", "Actor2_Country": null, "Code": 161, "Class": 4, "Action_Location": "Colombo, Western, Sri Lanka", "Lat": 6.93194, "Long": 79.8478, "Timestamp": 20181105053000, "Source": "https://www.chron.com/news/world/article/Rivals-China-India-cautiously-watch-Sri-Lankan-13362617.php"}, {"ID": 800061793, "Actor1": "SRI LANKA", "Actor1_Country": "LKA", "Actor2": "SRI LANKAN", "Actor2_Country": "LKA", "Code": 20, "Class": 1, "Action_Location": "Colombo, Western, Sri Lanka", "Lat": 6.93194, "Long": 79.8478, "Timestamp": 20181105053000, "Source": "http://www.dailymirror.lk/article/Professionals-urged-to-take-up-active-role-in-governance--157892.html"}, {"ID": 800061813, "Actor1": "SPOKESMAN", "Actor1_Country": null, "Actor2": "CHINESE", "Actor2_Country": "CHN", "Code": 40, "Class": 1, "Action_Location": "Temple Trees, Western, Sri Lanka", "Lat": 6.9149, "Long": 79.8477, "Timestamp": 20181105053000, "Source": "https://www.chron.com/news/world/article/Rivals-China-India-cautiously-watch-Sri-Lankan-13362617.php"}, {"ID": 800061814, "Actor1": "SPOKESMAN", "Actor1_Country": null, "Actor2": "CHINESE", "Actor2_Country": "CHN", "Code": 40, "Class": 1, "Action_Location": "Lu Kang, Anhui, China", "Lat": 31.2728, "Long": 118.337, "Timestamp": 20181105053000, "Source": "https://www.chron.com/news/world/article/Rivals-China-India-cautiously-watch-Sri-Lankan-13362617.php"}, {"ID": 800061835, "Actor1": "COAST GUARD", "Actor1_Country": null, "Actor2": "JAPAN", "Actor2_Country": "JPN", "Code": 10, "Class": 1, "Action_Location": "Sarufutsu, Hokkaido, Japan", "Lat": 45.2569, "Long": 142.2, "Timestamp": 20181105053000, "Source": "https://www.news.com.au/technology/environment/climate-change/missing-japanese-island-baffles-locals-and-scientists/news-story/ede6fb4da7b3d812618af0faa63a9a37"}, {"ID": 800061836, "Actor1": "YANGON", "Actor1_Country": "MMR", "Actor2": "MYANMAR", "Actor2_Country": "MMR", "Code": 173, "Class": 4, "Action_Location": "Yangon, Yangon, Myanmar", "Lat": 16.8053, "Long": 96.1561, "Timestamp": 20181105053000, "Source": "https://www.reuters.com/article/us-myanmar-journalists-idUSKCN1NA0CE"}, {"ID": 800061838, "Actor1": "YANGON", "Actor1_Country": "MMR", "Actor2": "MYANMAR", "Actor2_Country": "MMR", "Code": 173, "Class": 4, "Action_Location": "Yangon, Yangon, Myanmar", "Lat": 16.8053, "Long": 96.1561, "Timestamp": 20181105053000, "Source": "https://www.reuters.com/article/us-myanmar-journalists-idUSKCN1NA0CE"}, {"ID": 800061843, "Actor1": "GOOGLE", "Actor1_Country": "USA", "Actor2": "GREECE", "Actor2_Country": "GRC", "Code": 51, "Class": 1, "Action_Location": "Athens, Attik\u00edR, Greece", "Lat": 37.9833, "Long": 23.7333, "Timestamp": 20181105053000, "Source": "https://www.prokerala.com/news/articles/a871096.html"}, {"ID": 800061846, "Actor1": "ISLAMIC", "Actor1_Country": null, "Actor2": "EGYPT", "Actor2_Country": "EGY", "Code": 180, "Class": 4, "Action_Location": "Minya, Al Minya, Egypt", "Lat": 28.1099, "Long": 30.7503, "Timestamp": 20181105053000, "Source": "https://www.thenews.com.pk/print/389818-egypt-says-19-militants-killed-in-security-operation-after-attack-on-christians"}, {"ID": 800061847, "Actor1": "ISLAMIC", "Actor1_Country": null, "Actor2": "EGYPT", "Actor2_Country": "EGY", "Code": 190, "Class": 4, "Action_Location": "Cairo, Al Qahirah, Egypt", "Lat": 30.05, "Long": 31.25, "Timestamp": 20181105053000, "Source": "https://www.thenews.com.pk/print/389818-egypt-says-19-militants-killed-in-security-operation-after-attack-on-christians"}, {"ID": 800061848, "Actor1": "ISLAMIC", "Actor1_Country": null, "Actor2": "GUNMEN", "Actor2_Country": null, "Code": 180, "Class": 4, "Action_Location": "Minya, Al Minya, Egypt", "Lat": 28.1099, "Long": 30.7503, "Timestamp": 20181105053000, "Source": "https://www.thenews.com.pk/print/389818-egypt-says-19-militants-killed-in-security-operation-after-attack-on-christians"}, {"ID": 800061849, "Actor1": "ISLAMIC", "Actor1_Country": null, "Actor2": "GUNMEN", "Actor2_Country": null, "Code": 190, "Class": 4, "Action_Location": "Cairo, Al Qahirah, Egypt", "Lat": 30.05, "Long": 31.25, "Timestamp": 20181105053000, "Source": "https://www.thenews.com.pk/print/389818-egypt-says-19-militants-killed-in-security-operation-after-attack-on-christians"}, {"ID": 800061851, "Actor1": "MALAYSIA", "Actor1_Country": "MYS", "Actor2": "UNITED ARAB EMIRATES", "Actor2_Country": "ARE", "Code": 61, "Class": 2, "Action_Location": "India", "Lat": 20.0, "Long": 77.0, "Timestamp": 20181105053000, "Source": "https://www.msn.com/en-sg/finance/topstories/malaysia-sept-2018-exports-up-67-25-trade-surplus-highest-since-oct-2008/ar-BBPlHJd"}, {"ID": 800061852, "Actor1": "MALAYSIA", "Actor1_Country": "MYS", "Actor2": "EUROPEAN UNION", "Actor2_Country": "EUR", "Code": 61, "Class": 2, "Action_Location": "India", "Lat": 20.0, "Long": 77.0, "Timestamp": 20181105053000, "Source": "https://www.msn.com/en-sg/finance/topstories/malaysia-sept-2018-exports-up-67-25-trade-surplus-highest-since-oct-2008/ar-BBPlHJd"}, {"ID": 800061853, "Actor1": "MALAYSIA", "Actor1_Country": "MYS", "Actor2": "SOUTH KOREA", "Actor2_Country": "KOR", "Code": 61, "Class": 2, "Action_Location": "Kuala Lumpur, Kuala Lumpur, Malaysia", "Lat": 3.16667, "Long": 101.7, "Timestamp": 20181105053000, "Source": "https://www.msn.com/en-sg/finance/topstories/malaysia-sept-2018-exports-up-67-25-trade-surplus-highest-since-oct-2008/ar-BBPlHJd"}, {"ID": 800061854, "Actor1": "MALAYSIA", "Actor1_Country": "MYS", "Actor2": "VIETNAM", "Actor2_Country": "VNM", "Code": 61, "Class": 2, "Action_Location": "India", "Lat": 20.0, "Long": 77.0, "Timestamp": 20181105053000, "Source": "https://www.msn.com/en-sg/finance/topstories/malaysia-sept-2018-exports-up-67-25-trade-surplus-highest-since-oct-2008/ar-BBPlHJd"}, {"ID": 800061859, "Actor1": "DUTCH", "Actor1_Country": "NLD", "Actor2": "NETHERLANDS", "Actor2_Country": "NLD", "Code": 10, "Class": 1, "Action_Location": "Netherlands", "Lat": 52.5, "Long": 5.75, "Timestamp": 20181105053000, "Source": "https://www.irishtimes.com/business/economy/call-for-eu-bailout-to-have-additional-powers-1.3686074"}, {"ID": 800061863, "Actor1": "NEW ZEALAND", "Actor1_Country": "NZL", "Actor2": "THAI", "Actor2_Country": "THA", "Code": 10, "Class": 1, "Action_Location": "New Zealand", "Lat": -42.0, "Long": 174.0, "Timestamp": 20181105053000, "Source": "https://www.theweek.in/wire-updates/business/2018/11/05/pwr2--discovery.html"}, {"ID": 800061864, "Actor1": "NEW ZEALAND", "Actor1_Country": "NZL", "Actor2": "THAILAND", "Actor2_Country": "THA", "Code": 10, "Class": 1, "Action_Location": "Thailand", "Lat": 15.0, "Long": 100.0, "Timestamp": 20181105053000, "Source": "https://www.theweek.in/wire-updates/business/2018/11/05/pwr2--discovery.html"}, {"ID": 800061865, "Actor1": "NEW ZEALAND", "Actor1_Country": "NZL", "Actor2": "THAI", "Actor2_Country": "THA", "Code": 10, "Class": 1, "Action_Location": "Thailand", "Lat": 15.0, "Long": 100.0, "Timestamp": 20181105053000, "Source": "https://www.theweek.in/wire-updates/business/2018/11/05/pwr2--discovery.html"}, {"ID": 800061876, "Actor1": "PAKISTAN", "Actor1_Country": "PAK", "Actor2": "CHINA", "Actor2_Country": "CHN", "Code": 42, "Class": 1, "Action_Location": "Beijing, Beijing, China", "Lat": 39.9289, "Long": 116.388, "Timestamp": 20181105053000, "Source": "https://southasiamonitor.org/news/khan-s-visit-boosts-china-pak-ties/inthenews/28385"}, {"ID": 800061879, "Actor1": "PAKISTAN", "Actor1_Country": "PAK", "Actor2": "BEIJING", "Actor2_Country": "CHN", "Code": 50, "Class": 1, "Action_Location": "Pakistan", "Lat": 30.0, "Long": 70.0, "Timestamp": 20181105053000, "Source": "https://southasiamonitor.org/news/khan-s-visit-boosts-china-pak-ties/inthenews/28385"}, {"ID": 800061881, "Actor1": "PAKISTAN", "Actor1_Country": "PAK", "Actor2": "CHINA", "Actor2_Country": "CHN", "Code": 57, "Class": 1, "Action_Location": "Beijing, Beijing, China", "Lat": 39.9289, "Long": 116.388, "Timestamp": 20181105053000, "Source": "https://southasiamonitor.org/news/khan-s-visit-boosts-china-pak-ties/inthenews/28385"}, {"ID": 800061885, "Actor1": "PAKISTAN", "Actor1_Country": "PAK", "Actor2": "PRIME MINISTER", "Actor2_Country": null, "Code": 43, "Class": 1, "Action_Location": "Russia", "Lat": 60.0, "Long": 100.0, "Timestamp": 20181105053000, "Source": "http://www.arabnews.com/node/1399336/business-economy"}, {"ID": 800061886, "Actor1": "PAKISTAN", "Actor1_Country": "PAK", "Actor2": "PRIME MINISTER", "Actor2_Country": null, "Code": 43, "Class": 1, "Action_Location": "Beijing, Beijing, China", "Lat": 39.9289, "Long": 116.388, "Timestamp": 20181105053000, "Source": "http://www.arabnews.com/node/1399336/business-economy"}, {"ID": 800061887, "Actor1": "PAKISTAN", "Actor1_Country": "PAK", "Actor2": "PRIME MINISTER", "Actor2_Country": null, "Code": 43, "Class": 1, "Action_Location": "Russia", "Lat": 60.0, "Long": 100.0, "Timestamp": 20181105053000, "Source": "http://www.arabnews.com/node/1399336/business-economy"}, {"ID": 800061890, "Actor1": "PHILIPPINE", "Actor1_Country": "PHL", "Actor2": "EMPLOYER", "Actor2_Country": null, "Code": 14, "Class": 1, "Action_Location": "Manila, Manila, Philippines", "Lat": 14.6042, "Long": 120.982, "Timestamp": 20181105053000, "Source": "https://www.manilatimes.net/4m-metro-workers-to-get-p25-wage-hike-bello/462574/"}, {"ID": 800061892, "Actor1": "PHILIPPINE", "Actor1_Country": "PHL", "Actor2": "WORKER", "Actor2_Country": null, "Code": 14, "Class": 1, "Action_Location": "Manila, Manila, Philippines", "Lat": 14.6042, "Long": 120.982, "Timestamp": 20181105053000, "Source": "https://www.manilatimes.net/4m-metro-workers-to-get-p25-wage-hike-bello/462574/"}, {"ID": 800061904, "Actor1": "DPRK", "Actor1_Country": "PRK", "Actor2": "CUBA", "Actor2_Country": "CUB", "Code": 46, "Class": 1, "Action_Location": "Cuba", "Lat": 22.0, "Long": -79.5, "Timestamp": 20181105053000, "Source": "http://www.xinhuanet.com/english/2018-11/05/c_137582787.htm"}, {"ID": 800061905, "Actor1": "PYONGYANG", "Actor1_Country": "PRK", "Actor2": "SOUTH KOREA", "Actor2_Country": "KOR", "Code": 46, "Class": 1, "Action_Location": "Seoul, Soul-t'ukpyolsi, South Korea", "Lat": 37.5664, "Long": 127.0, "Timestamp": 20181105053000, "Source": "http://www.arabnews.com/node/1399366/world"}, {"ID": 800061907, "Actor1": "PALESTINIAN", "Actor1_Country": "PSE", "Actor2": "BRAZIL", "Actor2_Country": "BRA", "Code": 11, "Class": 1, "Action_Location": "Brazil", "Lat": -10.0, "Long": -55.0, "Timestamp": 20181105053000, "Source": "http://matzav.com/many-countries-planning-to-move-embassies-to-yerushalayim-official-says/"}, {"ID": 800061908, "Actor1": "PALESTINIAN", "Actor1_Country": "PSE", "Actor2": "BRAZIL", "Actor2_Country": "BRA", "Code": 11, "Class": 1, "Action_Location": "Ramallah, West Bank (general), West Bank", "Lat": 31.9026, "Long": 35.1955, "Timestamp": 20181105053000, "Source": "http://matzav.com/many-countries-planning-to-move-embassies-to-yerushalayim-official-says/"}, {"ID": 800061911, "Actor1": "DOHA", "Actor1_Country": "QAT", "Actor2": "TALIBAN", "Actor2_Country": "AFG", "Code": 36, "Class": 1, "Action_Location": "Doha, Ad Daw?ah, Qatar", "Lat": 25.2867, "Long": 51.5333, "Timestamp": 20181105053000, "Source": "https://southasiamonitor.org/news/russia-to-host-talks-with-afghan-leaders-taliban/inthenews/28387"}, {"ID": 800061916, "Actor1": "REBEL", "Actor1_Country": null, "Actor2": "GAMBIA", "Actor2_Country": "GMB", "Code": 20, "Class": 1, "Action_Location": "Gambia", "Lat": 13.5, "Long": -15.5, "Timestamp": 20181105053000, "Source": "https://www.msn.com/en-us/news/world/can-one-catholic-priest-put-an-end-to-36-years-of-war/ar-BBPlFRY"}, {"ID": 800061917, "Actor1": "REBEL", "Actor1_Country": null, "Actor2": "SENEGALESE", "Actor2_Country": "SEN", "Code": 84, "Class": 2, "Action_Location": "Dakar, Dakar, Senegal", "Lat": 14.7367, "Long": -17.6339, "Timestamp": 20181105053000, "Source": "https://www.msn.com/en-us/news/world/can-one-catholic-priest-put-an-end-to-36-years-of-war/ar-BBPlFRY"}, {"ID": 800061920, "Actor1": "PRIEST", "Actor1_Country": null, "Actor2": "BANK", "Actor2_Country": null, "Code": 12, "Class": 1, "Action_Location": "Kolkata, West Bengal, India", "Lat": 22.5697, "Long": 88.3697, "Timestamp": 20181105053000, "Source": "http://indianewengland.com/2018/11/like-sabarimala-this-kolkata-kali-puja-prevents-womens-entry/"}, {"ID": 800061921, "Actor1": "SAINT", "Actor1_Country": null, "Actor2": "ROMAN CATHOLIC", "Actor2_Country": null, "Code": 43, "Class": 1, "Action_Location": "Port-Au-Prince, Ouest, Haiti", "Lat": 18.5392, "Long": -72.335, "Timestamp": 20181105053000, "Source": "https://www.sfgate.com/news/world/article/AP-PHOTOS-Haitians-celebrate-Festival-of-the-Dead-13362630.php"}, {"ID": 800061922, "Actor1": "SAINT", "Actor1_Country": null, "Actor2": "ROMAN CATHOLIC", "Actor2_Country": null, "Code": 43, "Class": 1, "Action_Location": "Port-Au-Prince, Ouest, Haiti", "Lat": 18.5392, "Long": -72.335, "Timestamp": 20181105053000, "Source": "https://www.sfgate.com/news/world/article/AP-PHOTOS-Haitians-celebrate-Festival-of-the-Dead-13362630.php"}, {"ID": 800061923, "Actor1": "RELIGIOUS ORGANIZATION", "Actor1_Country": null, "Actor2": "ITALY", "Actor2_Country": "ITA", "Code": 10, "Class": 1, "Action_Location": "Santegidio, Umbria, Italy", "Lat": 43.1, "Long": 12.4833, "Timestamp": 20181105053000, "Source": "https://www.msn.com/en-us/news/world/can-one-catholic-priest-put-an-end-to-36-years-of-war/ar-BBPlFRY"}, {"ID": 800061924, "Actor1": "RELIGIOUS ORGANIZATION", "Actor1_Country": null, "Actor2": "ITALY", "Actor2_Country": "ITA", "Code": 10, "Class": 1, "Action_Location": "Casamance, Senegal (general), Senegal", "Lat": 12.5561, "Long": -16.7592, "Timestamp": 20181105053000, "Source": "https://www.msn.com/en-us/news/world/can-one-catholic-priest-put-an-end-to-36-years-of-war/ar-BBPlFRY"}, {"ID": 800061929, "Actor1": "ROMANIAN", "Actor1_Country": null, "Actor2": "BULGARIA", "Actor2_Country": "BGR", "Code": 20, "Class": 1, "Action_Location": "Israel", "Lat": 31.5, "Long": 34.75, "Timestamp": 20181105053000, "Source": "http://matzav.com/israeli-pm-netanyahu-asks-romania-to-help-significantly-change-the-eus-position-on-israel/"}, {"ID": 800061930, "Actor1": "ROMANIAN", "Actor1_Country": null, "Actor2": "BULGARIA", "Actor2_Country": "BGR", "Code": 20, "Class": 1, "Action_Location": "Israel", "Lat": 31.5, "Long": 34.75, "Timestamp": 20181105053000, "Source": "http://matzav.com/israeli-pm-netanyahu-asks-romania-to-help-significantly-change-the-eus-position-on-israel/"}, {"ID": 800061931, "Actor1": "ROMANIA", "Actor1_Country": null, "Actor2": "BULGARIA", "Actor2_Country": "BGR", "Code": 40, "Class": 1, "Action_Location": "Craiova, Dolj, Romania", "Lat": 44.3167, "Long": 23.8, "Timestamp": 20181105053000, "Source": "http://matzav.com/israeli-pm-netanyahu-asks-romania-to-help-significantly-change-the-eus-position-on-israel/"}, {"ID": 800061932, "Actor1": "ROMANIA", "Actor1_Country": null, "Actor2": "BULGARIA", "Actor2_Country": "BGR", "Code": 40, "Class": 1, "Action_Location": "Craiova, Dolj, Romania", "Lat": 44.3167, "Long": 23.8, "Timestamp": 20181105053000, "Source": "http://matzav.com/israeli-pm-netanyahu-asks-romania-to-help-significantly-change-the-eus-position-on-israel/"}, {"ID": 800061933, "Actor1": "ROMANIAN", "Actor1_Country": null, "Actor2": "BULGARIA", "Actor2_Country": "BGR", "Code": 40, "Class": 1, "Action_Location": "Craiova, Dolj, Romania", "Lat": 44.3167, "Long": 23.8, "Timestamp": 20181105053000, "Source": "http://matzav.com/israeli-pm-netanyahu-asks-romania-to-help-significantly-change-the-eus-position-on-israel/"}, {"ID": 800061934, "Actor1": "ROMANIAN", "Actor1_Country": null, "Actor2": "BULGARIA", "Actor2_Country": "BGR", "Code": 40, "Class": 1, "Action_Location": "Viorica, Romania (general), Romania", "Lat": 43.9333, "Long": 24.9167, "Timestamp": 20181105053000, "Source": "http://matzav.com/israeli-pm-netanyahu-asks-romania-to-help-significantly-change-the-eus-position-on-israel/"}, {"ID": 800061935, "Actor1": "ROMANIA", "Actor1_Country": null, "Actor2": "GREECE", "Actor2_Country": "GRC", "Code": 40, "Class": 1, "Action_Location": "Craiova, Dolj, Romania", "Lat": 44.3167, "Long": 23.8, "Timestamp": 20181105053000, "Source": "http://matzav.com/israeli-pm-netanyahu-asks-romania-to-help-significantly-change-the-eus-position-on-israel/"}, {"ID": 800061936, "Actor1": "ROMANIA", "Actor1_Country": null, "Actor2": "GREECE", "Actor2_Country": "GRC", "Code": 40, "Class": 1, "Action_Location": "Craiova, Dolj, Romania", "Lat": 44.3167, "Long": 23.8, "Timestamp": 20181105053000, "Source": "http://matzav.com/israeli-pm-netanyahu-asks-romania-to-help-significantly-change-the-eus-position-on-israel/"}, {"ID": 800061937, "Actor1": "ROMANIAN", "Actor1_Country": null, "Actor2": "ROMANIA", "Actor2_Country": null, "Code": 20, "Class": 1, "Action_Location": "Israel", "Lat": 31.5, "Long": 34.75, "Timestamp": 20181105053000, "Source": "http://matzav.com/israeli-pm-netanyahu-asks-romania-to-help-significantly-change-the-eus-position-on-israel/"}, {"ID": 800061938, "Actor1": "ROMANIAN", "Actor1_Country": null, "Actor2": "ROMANIA", "Actor2_Country": null, "Code": 20, "Class": 1, "Action_Location": "Israel", "Lat": 31.5, "Long": 34.75, "Timestamp": 20181105053000, "Source": "http://matzav.com/israeli-pm-netanyahu-asks-romania-to-help-significantly-change-the-eus-position-on-israel/"}, {"ID": 800061939, "Actor1": "ROMANIA", "Actor1_Country": null, "Actor2": "ROMANIA", "Actor2_Country": null, "Code": 40, "Class": 1, "Action_Location": "Craiova, Dolj, Romania", "Lat": 44.3167, "Long": 23.8, "Timestamp": 20181105053000, "Source": "http://matzav.com/israeli-pm-netanyahu-asks-romania-to-help-significantly-change-the-eus-position-on-israel/"}, {"ID": 800061940, "Actor1": "ROMANIA", "Actor1_Country": null, "Actor2": "SERBIA", "Actor2_Country": "SRB", "Code": 40, "Class": 1, "Action_Location": "Craiova, Dolj, Romania", "Lat": 44.3167, "Long": 23.8, "Timestamp": 20181105053000, "Source": "http://matzav.com/israeli-pm-netanyahu-asks-romania-to-help-significantly-change-the-eus-position-on-israel/"}, {"ID": 800061941, "Actor1": "ROMANIA", "Actor1_Country": null, "Actor2": "SERBIA", "Actor2_Country": "SRB", "Code": 40, "Class": 1, "Action_Location": "Craiova, Dolj, Romania", "Lat": 44.3167, "Long": 23.8, "Timestamp": 20181105053000, "Source": "http://matzav.com/israeli-pm-netanyahu-asks-romania-to-help-significantly-change-the-eus-position-on-israel/"}, {"ID": 800061942, "Actor1": "ROMANIAN", "Actor1_Country": null, "Actor2": "VARNA", "Actor2_Country": "BGR", "Code": 20, "Class": 1, "Action_Location": "Israel", "Lat": 31.5, "Long": 34.75, "Timestamp": 20181105053000, "Source": "http://matzav.com/israeli-pm-netanyahu-asks-romania-to-help-significantly-change-the-eus-position-on-israel/"}, {"ID": 800061943, "Actor1": "ROMANIAN", "Actor1_Country": null, "Actor2": "VARNA", "Actor2_Country": "BGR", "Code": 40, "Class": 1, "Action_Location": "Craiova, Dolj, Romania", "Lat": 44.3167, "Long": 23.8, "Timestamp": 20181105053000, "Source": "http://matzav.com/israeli-pm-netanyahu-asks-romania-to-help-significantly-change-the-eus-position-on-israel/"}, {"ID": 800061944, "Actor1": "ROMANIA", "Actor1_Country": null, "Actor2": "ROMANIA", "Actor2_Country": null, "Code": 20, "Class": 1, "Action_Location": "Israel", "Lat": 31.5, "Long": 34.75, "Timestamp": 20181105053000, "Source": "http://matzav.com/israeli-pm-netanyahu-asks-romania-to-help-significantly-change-the-eus-position-on-israel/"}, {"ID": 800061945, "Actor1": "ROMANIA", "Actor1_Country": null, "Actor2": "ROMANIA", "Actor2_Country": null, "Code": 40, "Class": 1, "Action_Location": "Craiova, Dolj, Romania", "Lat": 44.3167, "Long": 23.8, "Timestamp": 20181105053000, "Source": "http://matzav.com/israeli-pm-netanyahu-asks-romania-to-help-significantly-change-the-eus-position-on-israel/"}, {"ID": 800061964, "Actor1": "RUSSIA", "Actor1_Country": "RUS", "Actor2": "PRIME MINISTER", "Actor2_Country": null, "Code": 43, "Class": 1, "Action_Location": "Beijing, Beijing, China", "Lat": 39.9289, "Long": 116.388, "Timestamp": 20181105053000, "Source": "http://www.arabnews.com/node/1399336/business-economy"}, {"ID": 800061965, "Actor1": "RUSSIA", "Actor1_Country": "RUS", "Actor2": "PRIME MINISTER", "Actor2_Country": null, "Code": 43, "Class": 1, "Action_Location": "Russia", "Lat": 60.0, "Long": 100.0, "Timestamp": 20181105053000, "Source": "http://www.arabnews.com/node/1399336/business-economy"}, {"ID": 800061966, "Actor1": "RUSSIA", "Actor1_Country": "RUS", "Actor2": "KYRGYZSTAN", "Actor2_Country": "KGZ", "Code": 20, "Class": 1, "Action_Location": "Bishkek, Bishkek, Kyrgyzstan", "Lat": 42.8731, "Long": 74.6003, "Timestamp": 20181105053000, "Source": "https://akipress.com/news:612956"}, {"ID": 800061967, "Actor1": "RUSSIA", "Actor1_Country": "RUS", "Actor2": "KYRGYZSTAN", "Actor2_Country": "KGZ", "Code": 20, "Class": 1, "Action_Location": "Bishkek, Bishkek, Kyrgyzstan", "Lat": 42.8731, "Long": 74.6003, "Timestamp": 20181105053000, "Source": "https://akipress.com/news:612956"}, {"ID": 800061970, "Actor1": "RUSSIA", "Actor1_Country": "RUS", "Actor2": "UNITED STATES", "Actor2_Country": "USA", "Code": 20, "Class": 1, "Action_Location": "Bishkek, Bishkek, Kyrgyzstan", "Lat": 42.8731, "Long": 74.6003, "Timestamp": 20181105053000, "Source": "https://akipress.com/news:612956"}, {"ID": 800061971, "Actor1": "RUSSIA", "Actor1_Country": "RUS", "Actor2": "NEW YORK", "Actor2_Country": "USA", "Code": 20, "Class": 1, "Action_Location": "Bishkek, Bishkek, Kyrgyzstan", "Lat": 42.8731, "Long": 74.6003, "Timestamp": 20181105053000, "Source": "https://akipress.com/news:612956"}, {"ID": 800061972, "Actor1": "RUSSIA", "Actor1_Country": "RUS", "Actor2": "UZBEKISTAN", "Actor2_Country": "UZB", "Code": 10, "Class": 1, "Action_Location": "Nukus, Qoraqalpog iston, Uzbekistan", "Lat": 42.4531, "Long": 59.6103, "Timestamp": 20181105053000, "Source": "https://dailytimes.com.pk/318547/pride-and-fears-for-uzbekistans-louvre-of-the-steppes/"}, {"ID": 800061976, "Actor1": "SAUDI ARABIA", "Actor1_Country": "SAU", "Actor2": "CAIRO", "Actor2_Country": "EGY", "Code": 36, "Class": 1, "Action_Location": "Cairo, Al Qahirah, Egypt", "Lat": 30.05, "Long": 31.25, "Timestamp": 20181105053000, "Source": "http://www.msn.com/en-us/news/world/saudi-campaign-to-abduct-and-silence-rivals-abroad-goes-back-decades/ar-BBPl1yf"}, {"ID": 800061977, "Actor1": "SAUDI ARABIA", "Actor1_Country": "SAU", "Actor2": "CAIRO", "Actor2_Country": "EGY", "Code": 36, "Class": 1, "Action_Location": "Riyadh, Ar Riya?, Saudi Arabia", "Lat": 24.6408, "Long": 46.7728, "Timestamp": 20181105053000, "Source": "http://www.msn.com/en-us/news/world/saudi-campaign-to-abduct-and-silence-rivals-abroad-goes-back-decades/ar-BBPl1yf"}, {"ID": 800061978, "Actor1": "SAUDI ARABIA", "Actor1_Country": "SAU", "Actor2": "PARIS", "Actor2_Country": "FRA", "Code": 36, "Class": 1, "Action_Location": "Riyadh, Ar Riya?, Saudi Arabia", "Lat": 24.6408, "Long": 46.7728, "Timestamp": 20181105053000, "Source": "http://www.msn.com/en-us/news/world/saudi-campaign-to-abduct-and-silence-rivals-abroad-goes-back-decades/ar-BBPl1yf"}, {"ID": 800061979, "Actor1": "SAUDI ARABIAN", "Actor1_Country": "SAU", "Actor2": "JOURNALIST", "Actor2_Country": null, "Code": 90, "Class": 2, "Action_Location": "Riyadh, Ar Riya?, Saudi Arabia", "Lat": 24.6408, "Long": 46.7728, "Timestamp": 20181105053000, "Source": "https://www.thenational.ae/world/mena/saudi-prince-alwaleed-khashoggi-probe-will-exonerate-leader-1.788043"}, {"ID": 800061980, "Actor1": "SAUDI ARABIAN", "Actor1_Country": "SAU", "Actor2": "JOURNALIST", "Actor2_Country": null, "Code": 90, "Class": 2, "Action_Location": "Washington, District of Columbia, United States", "Lat": 38.8951, "Long": -77.0364, "Timestamp": 20181105053000, "Source": "https://www.thenational.ae/world/mena/saudi-prince-alwaleed-khashoggi-probe-will-exonerate-leader-1.788043"}, {"ID": 800061981, "Actor1": "SAUDI", "Actor1_Country": "SAU", "Actor2": "MEDIA", "Actor2_Country": null, "Code": 11, "Class": 1, "Action_Location": "Istanbul, Istanbul, Turkey", "Lat": 41.0186, "Long": 28.9647, "Timestamp": 20181105053000, "Source": "http://www.msn.com/en-us/news/world/saudi-campaign-to-abduct-and-silence-rivals-abroad-goes-back-decades/ar-BBPl1yf"}, {"ID": 800061982, "Actor1": "SAUDI", "Actor1_Country": "SAU", "Actor2": "MEDIA", "Actor2_Country": null, "Code": 124, "Class": 3, "Action_Location": "Istanbul, Istanbul, Turkey", "Lat": 41.0186, "Long": 28.9647, "Timestamp": 20181105053000, "Source": "http://www.msn.com/en-us/news/world/saudi-campaign-to-abduct-and-silence-rivals-abroad-goes-back-decades/ar-BBPl1yf"}, {"ID": 800061985, "Actor1": "SAUDI ARABIAN", "Actor1_Country": "SAU", "Actor2": "UNITED STATES", "Actor2_Country": "USA", "Code": 81, "Class": 2, "Action_Location": "Washington, District of Columbia, United States", "Lat": 38.8951, "Long": -77.0364, "Timestamp": 20181105053000, "Source": "https://www.thenational.ae/world/mena/saudi-prince-alwaleed-khashoggi-probe-will-exonerate-leader-1.788043"}, {"ID": 800061986, "Actor1": "SAUDI ARABIAN", "Actor1_Country": "SAU", "Actor2": "UNITED STATES", "Actor2_Country": "USA", "Code": 81, "Class": 2, "Action_Location": "Washington, District of Columbia, United States", "Lat": 38.8951, "Long": -77.0364, "Timestamp": 20181105053000, "Source": "https://www.thenational.ae/world/mena/saudi-prince-alwaleed-khashoggi-probe-will-exonerate-leader-1.788043"}, {"ID": 800061987, "Actor1": "SAUDI ARABIAN", "Actor1_Country": "SAU", "Actor2": "UNITED STATES", "Actor2_Country": "USA", "Code": 90, "Class": 2, "Action_Location": "Washington, District of Columbia, United States", "Lat": 38.8951, "Long": -77.0364, "Timestamp": 20181105053000, "Source": "https://www.thenational.ae/world/mena/saudi-prince-alwaleed-khashoggi-probe-will-exonerate-leader-1.788043"}, {"ID": 800061994, "Actor1": "SERBIA", "Actor1_Country": "SRB", "Actor2": "ROMANIA", "Actor2_Country": null, "Code": 40, "Class": 1, "Action_Location": "Craiova, Dolj, Romania", "Lat": 44.3167, "Long": 23.8, "Timestamp": 20181105053000, "Source": "http://matzav.com/israeli-pm-netanyahu-asks-romania-to-help-significantly-change-the-eus-position-on-israel/"}, {"ID": 800061995, "Actor1": "SERBIA", "Actor1_Country": "SRB", "Actor2": "ROMANIA", "Actor2_Country": null, "Code": 40, "Class": 1, "Action_Location": "Craiova, Dolj, Romania", "Lat": 44.3167, "Long": 23.8, "Timestamp": 20181105053000, "Source": "http://matzav.com/israeli-pm-netanyahu-asks-romania-to-help-significantly-change-the-eus-position-on-israel/"}, {"ID": 800061998, "Actor1": "ABDOU DIOUF", "Actor1_Country": "SEN", "Actor2": "ITALY", "Actor2_Country": "ITA", "Code": 28, "Class": 1, "Action_Location": "Santegidio, Umbria, Italy", "Lat": 43.1, "Long": 12.4833, "Timestamp": 20181105053000, "Source": "https://www.msn.com/en-us/news/world/can-one-catholic-priest-put-an-end-to-36-years-of-war/ar-BBPlFRY"}, {"ID": 800061999, "Actor1": "ABDOU DIOUF", "Actor1_Country": "SEN", "Actor2": "ITALY", "Actor2_Country": "ITA", "Code": 28, "Class": 1, "Action_Location": "Casamance, Senegal (general), Senegal", "Lat": 12.5561, "Long": -16.7592, "Timestamp": 20181105053000, "Source": "https://www.msn.com/en-us/news/world/can-one-catholic-priest-put-an-end-to-36-years-of-war/ar-BBPlFRY"}, {"ID": 800062000, "Actor1": "ABDOU DIOUF", "Actor1_Country": "SEN", "Actor2": "ITALY", "Actor2_Country": "ITA", "Code": 28, "Class": 1, "Action_Location": "Santegidio, Umbria, Italy", "Lat": 43.1, "Long": 12.4833, "Timestamp": 20181105053000, "Source": "https://www.msn.com/en-us/news/world/can-one-catholic-priest-put-an-end-to-36-years-of-war/ar-BBPlFRY"}, {"ID": 800062003, "Actor1": "ABDOU DIOUF", "Actor1_Country": "SEN", "Actor2": "SENEGAL", "Actor2_Country": "SEN", "Code": 28, "Class": 1, "Action_Location": "Santegidio, Umbria, Italy", "Lat": 43.1, "Long": 12.4833, "Timestamp": 20181105053000, "Source": "https://www.msn.com/en-us/news/world/can-one-catholic-priest-put-an-end-to-36-years-of-war/ar-BBPlFRY"}, {"ID": 800062004, "Actor1": "ABDOU DIOUF", "Actor1_Country": "SEN", "Actor2": "SENEGAL", "Actor2_Country": "SEN", "Code": 40, "Class": 1, "Action_Location": "Casamance, Senegal (general), Senegal", "Lat": 12.5561, "Long": -16.7592, "Timestamp": 20181105053000, "Source": "https://www.msn.com/en-us/news/world/can-one-catholic-priest-put-an-end-to-36-years-of-war/ar-BBPlFRY"}, {"ID": 800062005, "Actor1": "ABDOU DIOUF", "Actor1_Country": "SEN", "Actor2": "SENEGAL", "Actor2_Country": "SEN", "Code": 40, "Class": 1, "Action_Location": "Dakar, Dakar, Senegal", "Lat": 14.7367, "Long": -17.6339, "Timestamp": 20181105053000, "Source": "https://www.msn.com/en-us/news/world/can-one-catholic-priest-put-an-end-to-36-years-of-war/ar-BBPlFRY"},