[{"ID":800046622,"Actor1":"POLICE","Actor1_Country":null,"Actor2":"MEDIA","Actor2_Country":null,"Code":111,"Class":3,"Action_Location":"Kerala, Kerala, India","Lat":10.0,"Long":76.5,"Timestamp":20181105033000,"Source":"https:\/\/www.firstpost.com\/india\/sabarimala-temple-will-open-at-5-pm-for-special-puja-over-2300-kerala-cops-to-watch-over-protesters-prohibitory-orders-issued-5503431.html"},{"ID":800046623,"Actor1":"POLICE","Actor1_Country":null,"Actor2":"MEDIA","Actor2_Country":null,"Code":111,"Class":3,"Action_Location":"Pathanamthitta, Kerala, India","Lat":9.26667,"Long":76.7833,"Timestamp":20181105033000,"Source":"https:\/\/www.firstpost.com\/india\/sabarimala-temple-will-open-at-5-pm-for-special-puja-over-2300-kerala-cops-to-watch-over-protesters-prohibitory-orders-issued-5503431.html"},{"ID":800046624,"Actor1":"MEDIA","Actor1_Country":null,"Actor2":"POLICE","Actor2_Country":null,"Code":111,"Class":3,"Action_Location":"Kerala, Kerala, India","Lat":10.0,"Long":76.5,"Timestamp":20181105033000,"Source":"https:\/\/www.firstpost.com\/india\/sabarimala-temple-will-open-at-5-pm-for-special-puja-over-2300-kerala-cops-to-watch-over-protesters-prohibitory-orders-issued-5503431.html"},{"ID":800046625,"Actor1":"MEDIA","Actor1_Country":null,"Actor2":"POLICE","Actor2_Country":null,"Code":111,"Class":3,"Action_Location":"Pathanamthitta, Kerala, India","Lat":9.26667,"Long":76.7833,"Timestamp":20181105033000,"Source":"https:\/\/www.firstpost.com\/india\/sabarimala-temple-will-open-at-5-pm-for-special-puja-over-2300-kerala-cops-to-watch-over-protesters-prohibitory-orders-issued-5503431.html"},{"ID":800046626,"Actor1":"PROTESTER","Actor1_Country":null,"Actor2":"MEDIA","Actor2_Country":null,"Code":111,"Class":3,"Action_Location":"Kerala, Kerala, India","Lat":10.0,"Long":76.5,"Timestamp":20181105033000,"Source":"https:\/\/www.firstpost.com\/india\/sabarimala-temple-will-open-at-5-pm-for-special-puja-over-2300-kerala-cops-to-watch-over-protesters-prohibitory-orders-issued-5503431.html"},{"ID":800046627,"Actor1":"PROTESTER","Actor1_Country":null,"Actor2":"MEDIA","Actor2_Country":null,"Code":111,"Class":3,"Action_Location":"Pathanamthitta, Kerala, India","Lat":9.26667,"Long":76.7833,"Timestamp":20181105033000,"Source":"https:\/\/www.firstpost.com\/india\/sabarimala-temple-will-open-at-5-pm-for-special-puja-over-2300-kerala-cops-to-watch-over-protesters-prohibitory-orders-issued-5503431.html"},{"ID":800046628,"Actor1":"SAUDI ARABIA","Actor1_Country":"SAU","Actor2":"CHINESE","Actor2_Country":"CHN","Code":110,"Class":3,"Action_Location":"Beijing, Beijing, China","Lat":39.9289,"Long":116.388,"Timestamp":20181105033000,"Source":"https:\/\/www.dawn.com\/news\/1443674\/imran-xi-call-for-timely-completion-of-cpec-projects"},{"ID":800046633,"Actor1":"SWITZERLAND","Actor1_Country":"CHE","Actor2":"SWITZERLAND","Actor2_Country":"CHE","Code":13,"Class":1,"Action_Location":"Geneva, Gen\u00e8, Switzerland","Lat":46.1956,"Long":6.14811,"Timestamp":20181105033000,"Source":"https:\/\/www.businessinsider.com\/r-saudi-backed-forces-advance-towards-yemens-hodeidah-as-un-warns-of-famine-2018-11"},{"ID":800046634,"Actor1":"SWITZERLAND","Actor1_Country":"CHE","Actor2":"SWITZERLAND","Actor2_Country":"CHE","Code":14,"Class":1,"Action_Location":"Geneva, Gen\u00e8, Switzerland","Lat":46.1956,"Long":6.14811,"Timestamp":20181105033000,"Source":"https:\/\/www.businessinsider.com\/r-saudi-backed-forces-advance-towards-yemens-hodeidah-as-un-warns-of-famine-2018-11"},{"ID":800046635,"Actor1":"SWITZERLAND","Actor1_Country":"CHE","Actor2":"SWITZERLAND","Actor2_Country":"CHE","Code":40,"Class":1,"Action_Location":"Geneva, Gen\u00e8, Switzerland","Lat":46.1956,"Long":6.14811,"Timestamp":20181105033000,"Source":"https:\/\/www.businessinsider.com\/r-saudi-backed-forces-advance-towards-yemens-hodeidah-as-un-warns-of-famine-2018-11"},{"ID":800046636,"Actor1":"SWITZERLAND","Actor1_Country":"CHE","Actor2":"SPECIAL ENVOY","Actor2_Country":null,"Code":13,"Class":1,"Action_Location":"Geneva, Gen\u00e8, Switzerland","Lat":46.1956,"Long":6.14811,"Timestamp":20181105033000,"Source":"https:\/\/www.businessinsider.com\/r-saudi-backed-forces-advance-towards-yemens-hodeidah-as-un-warns-of-famine-2018-11"},{"ID":800046637,"Actor1":"SWITZERLAND","Actor1_Country":"CHE","Actor2":"SPECIAL ENVOY","Actor2_Country":null,"Code":14,"Class":1,"Action_Location":"Geneva, Gen\u00e8, Switzerland","Lat":46.1956,"Long":6.14811,"Timestamp":20181105033000,"Source":"https:\/\/www.businessinsider.com\/r-saudi-backed-forces-advance-towards-yemens-hodeidah-as-un-warns-of-famine-2018-11"},{"ID":800046638,"Actor1":"SWITZERLAND","Actor1_Country":"CHE","Actor2":"SWITZERLAND","Actor2_Country":"CHE","Code":40,"Class":1,"Action_Location":"Geneva, Gen\u00e8, Switzerland","Lat":46.1956,"Long":6.14811,"Timestamp":20181105033000,"Source":"https:\/\/www.businessinsider.com\/r-saudi-backed-forces-advance-towards-yemens-hodeidah-as-un-warns-of-famine-2018-11"},{"ID":800046640,"Actor1":"MEXICO","Actor1_Country":"MEX","Actor2":"REFUGEE","Actor2_Country":null,"Code":72,"Class":2,"Action_Location":"Jerusalem, Israel (general), Israel","Lat":31.7667,"Long":35.2333,"Timestamp":20181105033000,"Source":"https:\/\/dissidentvoice.org\/2018\/11\/netanuyahus-courting-of-bolsonaro-is-the-latest-of-israels-alliances-with-far-right-figures\/"},{"ID":800046641,"Actor1":"MEXICO","Actor1_Country":"MEX","Actor2":"REFUGEE","Actor2_Country":null,"Code":72,"Class":2,"Action_Location":"Mexico","Lat":23.0,"Long":-102.0,"Timestamp":20181105033000,"Source":"https:\/\/dissidentvoice.org\/2018\/11\/netanuyahus-courting-of-bolsonaro-is-the-latest-of-israels-alliances-with-far-right-figures\/"},{"ID":800046650,"Actor1":"WASHINGTON","Actor1_Country":"USA","Actor2":"SAUDI","Actor2_Country":"SAU","Code":20,"Class":1,"Action_Location":"Riyadh, Ar Riya?, Saudi Arabia","Lat":24.6408,"Long":46.7728,"Timestamp":20181105033000,"Source":"https:\/\/www.yahoo.com\/news\/saudi-rights-record-un-spotlight-020445872.html"},{"ID":800046652,"Actor1":"ARKANSAS","Actor1_Country":"USA","Actor2":"UNITED STATES","Actor2_Country":"USA","Code":84,"Class":2,"Action_Location":"Little Rock, Arkansas, United States","Lat":34.7465,"Long":-92.2896,"Timestamp":20181105033000,"Source":"https:\/\/www.concordmonitor.com\/Two-Trump-states-are-on-the-verge-of-raising-their-minimum-wages-to-$11-or-more-21319643"},{"ID":800046653,"Actor1":"ARKANSAS","Actor1_Country":"USA","Actor2":"UNITED STATES","Actor2_Country":"USA","Code":84,"Class":2,"Action_Location":"Arkansas, United States","Lat":34.9513,"Long":-92.3809,"Timestamp":20181105033000,"Source":"https:\/\/www.concordmonitor.com\/Two-Trump-states-are-on-the-verge-of-raising-their-minimum-wages-to-$11-or-more-21319643"},{"ID":800046654,"Actor1":"PARLIAMENT","Actor1_Country":null,"Actor2":"COLOMBO","Actor2_Country":"LKA","Code":141,"Class":3,"Action_Location":"Colombo, Western, Sri Lanka","Lat":6.93194,"Long":79.8478,"Timestamp":20181105033000,"Source":"http:\/\/www.newsonair.com\/Main-News-Details.aspx?id=354934"},{"ID":800046657,"Actor1":"TANZANIA","Actor1_Country":"TZA","Actor2":"ROMAN CATHOLIC","Actor2_Country":null,"Code":17,"Class":1,"Action_Location":"Lake Victoria, Tanzania (general), Tanzania","Lat":-1.0,"Long":33.0,"Timestamp":20181105033000,"Source":"https:\/\/www.ippmedia.com\/en\/news\/magufuli-stresses-peace-perseverance-tolerance"},{"ID":800046810,"Actor1":"AFGHAN","Actor1_Country":"AFG","Actor2":"TALIBAN","Actor2_Country":"AFG","Code":40,"Class":1,"Action_Location":"Jamiat, Zabol, Afghanistan","Lat":32.2417,"Long":67.7136,"Timestamp":20181105033000,"Source":"https:\/\/www.dawn.com\/news\/1443603\/jui-s-sees-foreign-hand-in-samis-murder"},{"ID":800046811,"Actor1":"AFGHAN","Actor1_Country":"AFG","Actor2":"TALIBAN","Actor2_Country":"AFG","Code":46,"Class":1,"Action_Location":"Jamiat, Zabol, Afghanistan","Lat":32.2417,"Long":67.7136,"Timestamp":20181105033000,"Source":"https:\/\/www.dawn.com\/news\/1443603\/jui-s-sees-foreign-hand-in-samis-murder"},{"ID":800046812,"Actor1":"AFGHANISTAN","Actor1_Country":"AFG","Actor2":"RESIDENTS","Actor2_Country":null,"Code":20,"Class":1,"Action_Location":"Kabul, Kabol, Afghanistan","Lat":34.5167,"Long":69.1833,"Timestamp":20181105033000,"Source":"http:\/\/www.outlookafghanistan.net\/topics.php?post_id=22155"},{"ID":800046813,"Actor1":"AFGHANISTAN","Actor1_Country":"AFG","Actor2":"FOREIGN MINIST","Actor2_Country":null,"Code":43,"Class":1,"Action_Location":"Afghanistan","Lat":33.0,"Long":66.0,"Timestamp":20181105033000,"Source":"https:\/\/www.dawn.com\/news\/1443674\/imran-xi-call-for-timely-completion-of-cpec-projects"},{"ID":800046814,"Actor1":"AFGHANISTAN","Actor1_Country":"AFG","Actor2":"DEFENSE DEPARTMENT","Actor2_Country":null,"Code":190,"Class":4,"Action_Location":"Kabul Province, Kabol, Afghanistan","Lat":34.5,"Long":69.4167,"Timestamp":20181105033000,"Source":"http:\/\/www.xinhuanet.com\/english\/2018-11\/05\/c_137582779.htm"},{"ID":800046815,"Actor1":"AFGHANISTAN","Actor1_Country":"AFG","Actor2":"SAMI","Actor2_Country":null,"Code":112,"Class":3,"Action_Location":"Jamiat, Zabol, Afghanistan","Lat":32.2417,"Long":67.7136,"Timestamp":20181105033000,"Source":"https:\/\/www.dawn.com\/news\/1443603\/jui-s-sees-foreign-hand-in-samis-murder"},{"ID":800046816,"Actor1":"ASHRAF GHANI","Actor1_Country":"AFG","Actor2":"AFGHANISTAN","Actor2_Country":"AFG","Code":10,"Class":1,"Action_Location":"Khas Uruzgan, Oruzgan, Afghanistan","Lat":32.9167,"Long":66.8333,"Timestamp":20181105033000,"Source":"http:\/\/www.outlookafghanistan.net\/topics.php?post_id=22155"},{"ID":800046817,"Actor1":"AFGHAN","Actor1_Country":"AFG","Actor2":"TALIBAN","Actor2_Country":"AFG","Code":40,"Class":1,"Action_Location":"Jamiat, Zabol, Afghanistan","Lat":32.2417,"Long":67.7136,"Timestamp":20181105033000,"Source":"https:\/\/www.dawn.com\/news\/1443603\/jui-s-sees-foreign-hand-in-samis-murder"},{"ID":800046818,"Actor1":"AFGHAN","Actor1_Country":"AFG","Actor2":"TALIBAN","Actor2_Country":"AFG","Code":46,"Class":1,"Action_Location":"Jamiat, Zabol, Afghanistan","Lat":32.2417,"Long":67.7136,"Timestamp":20181105033000,"Source":"https:\/\/www.dawn.com\/news\/1443603\/jui-s-sees-foreign-hand-in-samis-murder"},{"ID":800046819,"Actor1":"ASHRAF GHANI","Actor1_Country":"AFG","Actor2":"GOVERNMENT FORCES","Actor2_Country":null,"Code":10,"Class":1,"Action_Location":"Khas Uruzgan, Oruzgan, Afghanistan","Lat":32.9167,"Long":66.8333,"Timestamp":20181105033000,"Source":"http:\/\/www.outlookafghanistan.net\/topics.php?post_id=22155"},{"ID":800046821,"Actor1":"TALIBAN","Actor1_Country":"AFG","Actor2":"AFGHAN","Actor2_Country":"AFG","Code":46,"Class":1,"Action_Location":"Jamiat, Zabol, Afghanistan","Lat":32.2417,"Long":67.7136,"Timestamp":20181105033000,"Source":"https:\/\/www.dawn.com\/news\/1443603\/jui-s-sees-foreign-hand-in-samis-murder"},{"ID":800046822,"Actor1":"TALIBAN","Actor1_Country":"AFG","Actor2":"AFGHAN","Actor2_Country":"AFG","Code":46,"Class":1,"Action_Location":"Jamiat, Zabol, Afghanistan","Lat":32.2417,"Long":67.7136,"Timestamp":20181105033000,"Source":"https:\/\/www.dawn.com\/news\/1443603\/jui-s-sees-foreign-hand-in-samis-murder"},{"ID":800046823,"Actor1":"TALIBAN","Actor1_Country":"AFG","Actor2":"POLICE","Actor2_Country":null,"Code":180,"Class":4,"Action_Location":"Dawlatabad, Faryab, Afghanistan","Lat":36.4326,"Long":64.9207,"Timestamp":20181105033000,"Source":"http:\/\/www.outlookafghanistan.net\/topics.php?post_id=22155"},{"ID":800046824,"Actor1":"TALIBAN","Actor1_Country":"AFG","Actor2":"POLICE","Actor2_Country":null,"Code":180,"Class":4,"Action_Location":"Khwaja Sabzposh, Kabol, Afghanistan","Lat":34.6816,"Long":69.0147,"Timestamp":20181105033000,"Source":"http:\/\/www.outlookafghanistan.net\/topics.php?post_id=22155"},{"ID":800046825,"Actor1":"TALIBAN","Actor1_Country":"AFG","Actor2":"POLICE","Actor2_Country":null,"Code":190,"Class":4,"Action_Location":"Dawlatabad, Faryab, Afghanistan","Lat":36.4326,"Long":64.9207,"Timestamp":20181105033000,"Source":"http:\/\/www.outlookafghanistan.net\/topics.php?post_id=22155"},{"ID":800046826,"Actor1":"TALIBAN","Actor1_Country":"AFG","Actor2":"POLICE","Actor2_Country":null,"Code":190,"Class":4,"Action_Location":"Khwaja Sabzposh, Kabol, Afghanistan","Lat":34.6816,"Long":69.0147,"Timestamp":20181105033000,"Source":"http:\/\/www.outlookafghanistan.net\/topics.php?post_id=22155"},{"ID":800046827,"Actor1":"TALIBAN","Actor1_Country":"AFG","Actor2":"RESIDENTS","Actor2_Country":null,"Code":190,"Class":4,"Action_Location":"Kabul, Kabol, Afghanistan","Lat":34.5167,"Long":69.1833,"Timestamp":20181105033000,"Source":"http:\/\/www.outlookafghanistan.net\/topics.php?post_id=22155"},{"ID":800046828,"Actor1":"TALIBAN","Actor1_Country":"AFG","Actor2":"RESIDENTS","Actor2_Country":null,"Code":190,"Class":4,"Action_Location":"Uruzgan, Oruzgan, Afghanistan","Lat":32.9277,"Long":66.6325,"Timestamp":20181105033000,"Source":"http:\/\/www.outlookafghanistan.net\/topics.php?post_id=22155"},{"ID":800046829,"Actor1":"AFGHANISTAN","Actor1_Country":"AFG","Actor2":"MUSLIM","Actor2_Country":null,"Code":30,"Class":1,"Action_Location":"Jamiat, Zabol, Afghanistan","Lat":32.2417,"Long":67.7136,"Timestamp":20181105033000,"Source":"https:\/\/www.dawn.com\/news\/1443603\/jui-s-sees-foreign-hand-in-samis-murder"},{"ID":800046833,"Actor1":"UNITED ARAB EMIRATES","Actor1_Country":"ARE","Actor2":"SPECIAL ENVOY","Actor2_Country":null,"Code":30,"Class":1,"Action_Location":"Istanbul, Istanbul, Turkey","Lat":41.0186,"Long":28.9647,"Timestamp":20181105033000,"Source":"https:\/\/www.straitstimes.com\/world\/europe\/britain-pushes-for-un-security-council-action-on-yemen-crisis"},{"ID":800046838,"Actor1":"QUEENSLAND","Actor1_Country":"AUS","Actor2":"AUSTRALIA","Actor2_Country":"AUS","Code":20,"Class":1,"Action_Location":"Ormeau, Queensland, Australia","Lat":-27.7833,"Long":153.267,"Timestamp":20181105033000,"Source":"https:\/\/www.dailymail.co.uk\/news\/article-6352931\/Four-workers-rushed-hospital-chemical-spill-pet-food-factory.html"},{"ID":800046839,"Actor1":"QUEENSLAND","Actor1_Country":"AUS","Actor2":"COMPANY","Actor2_Country":null,"Code":20,"Class":1,"Action_Location":"Ormeau, Queensland, Australia","Lat":-27.7833,"Long":153.267,"Timestamp":20181105033000,"Source":"https:\/\/www.dailymail.co.uk\/news\/article-6352931\/Four-workers-rushed-hospital-chemical-spill-pet-food-factory.html"},{"ID":800046840,"Actor1":"AUSTRALIA","Actor1_Country":"AUS","Actor2":"BALI","Actor2_Country":"IDN","Code":43,"Class":1,"Action_Location":"Melbourne, Victoria, Australia","Lat":-37.8167,"Long":144.967,"Timestamp":20181105033000,"Source":"https:\/\/www.etonline.com\/scott-disick-and-sofia-richie-go-glam-for-derby-day-in-melbourne-112984"},{"ID":800046841,"Actor1":"AUSTRALIA","Actor1_Country":"AUS","Actor2":"REPRESENTATIVES","Actor2_Country":null,"Code":43,"Class":1,"Action_Location":"Melbourne, Victoria, Australia","Lat":-37.8167,"Long":144.967,"Timestamp":20181105033000,"Source":"https:\/\/www.mailtimes.com.au\/story\/5740564\/imagine-a-15yo-jockey-riding-a-melbourne-cup-winner-it-happened\/"},{"ID":800046842,"Actor1":"AUSTRALIAN","Actor1_Country":"AUS","Actor2":"WEBSITE","Actor2_Country":null,"Code":84,"Class":2,"Action_Location":"Australia","Lat":-25.0,"Long":135.0,"Timestamp":20181105033000,"Source":"http:\/\/rtrfm.com.au\/story\/premiere-dumbleachers-australian-dream\/"},{"ID":800046843,"Actor1":"AUSTRALIA","Actor1_Country":"AUS","Actor2":"NEWS CORP","Actor2_Country":"USA","Code":13,"Class":1,"Action_Location":"Canberra, Australian Capital Territory, Australia","Lat":-35.2833,"Long":149.217,"Timestamp":20181105033000,"Source":"http:\/\/www.xinhuanet.com\/english\/2018-11\/05\/c_137583007.htm"},{"ID":800046844,"Actor1":"QUEENSLAND","Actor1_Country":"AUS","Actor2":"HOSPITAL","Actor2_Country":null,"Code":73,"Class":2,"Action_Location":"Ormeau, Queensland, Australia","Lat":-27.7833,"Long":153.267,"Timestamp":20181105033000,"Source":"https:\/\/www.dailymail.co.uk\/news\/article-6352931\/Four-workers-rushed-hospital-chemical-spill-pet-food-factory.html"},{"ID":800046845,"Actor1":"BANGLADESH","Actor1_Country":"BGD","Actor2":"REFUGEE","Actor2_Country":null,"Code":182,"Class":4,"Action_Location":"Bangladesh","Lat":24.0,"Long":90.0,"Timestamp":20181105033000,"Source":"https:\/\/aecnewstoday.com\/2018\/myanmar-morning-news-for-november-5\/"},{"ID":800046846,"Actor1":"BANGLADESH","Actor1_Country":"BGD","Actor2":"REFUGEE","Actor2_Country":null,"Code":182,"Class":4,"Action_Location":"Bangladesh","Lat":24.0,"Long":90.0,"Timestamp":20181105033000,"Source":"https:\/\/aecnewstoday.com\/2018\/myanmar-morning-news-for-november-5\/"},{"ID":800046847,"Actor1":"BANGLADESH","Actor1_Country":"BGD","Actor2":"REFUGEE","Actor2_Country":null,"Code":193,"Class":4,"Action_Location":"Tamwe, Yangon, Myanmar","Lat":16.81,"Long":96.1778,"Timestamp":20181105033000,"Source":"https:\/\/aecnewstoday.com\/2018\/myanmar-morning-news-for-november-5\/"},{"ID":800046848,"Actor1":"BANGLADESH","Actor1_Country":"BGD","Actor2":"REFUGEE","Actor2_Country":null,"Code":193,"Class":4,"Action_Location":"Bangladesh","Lat":24.0,"Long":90.0,"Timestamp":20181105033000,"Source":"https:\/\/aecnewstoday.com\/2018\/myanmar-morning-news-for-november-5\/"},{"ID":800046849,"Actor1":"DHAKA","Actor1_Country":"BGD","Actor2":"INTELLIGENCE","Actor2_Country":null,"Code":173,"Class":4,"Action_Location":"Dubai, Dubayy, United Arab Emirates","Lat":25.2522,"Long":55.28,"Timestamp":20181105033000,"Source":"http:\/\/www.newagebd.net\/article\/55146\/2kg-gold-seized-3-held-at-dhaka-airport"},{"ID":800046850,"Actor1":"BRAZIL","Actor1_Country":"BRA","Actor2":"GOVERNMENT","Actor2_Country":null,"Code":90,"Class":2,"Action_Location":"Canada","Lat":60.0,"Long":-96.0,"Timestamp":20181105033000,"Source":"https:\/\/www.japantimes.co.jp\/?post_type=news&p=1563416"},{"ID":800046851,"Actor1":"BRAZIL","Actor1_Country":"BRA","Actor2":"GOVERNMENT","Actor2_Country":null,"Code":90,"Class":2,"Action_Location":"United States","Lat":39.828175,"Long":-98.5795,"Timestamp":20181105033000,"Source":"https:\/\/www.japantimes.co.jp\/?post_type=news&p=1563416"},{"ID":800046852,"Actor1":"BRAZIL","Actor1_Country":"BRA","Actor2":"ISRAEL","Actor2_Country":"ISR","Code":12,"Class":1,"Action_Location":"Jerusalem, Israel (general), Israel","Lat":31.7667,"Long":35.2333,"Timestamp":20181105033000,"Source":"https:\/\/dissidentvoice.org\/2018\/11\/netanuyahus-courting-of-bolsonaro-is-the-latest-of-israels-alliances-with-far-right-figures\/"},{"ID":800046862,"Actor1":"COMPANIES","Actor1_Country":null,"Actor2":"SHANGHAI","Actor2_Country":"CHN","Code":42,"Class":1,"Action_Location":"Japan","Lat":36.0,"Long":138.0,"Timestamp":20181105033000,"Source":"https:\/\/www.sfgate.com\/news\/world\/article\/China-s-Xi-promises-market-opening-as-import-fair-13362424.php"},{"ID":800046863,"Actor1":"COMPANIES","Actor1_Country":null,"Actor2":"SHANGHAI","Actor2_Country":"CHN","Code":42,"Class":1,"Action_Location":"Germany","Lat":51.5,"Long":10.5,"Timestamp":20181105033000,"Source":"http:\/\/www.startribune.com\/china-s-xi-promises-market-opening-as-import-fair-begins\/499591571\/"},{"ID":800046864,"Actor1":"COMPANIES","Actor1_Country":null,"Actor2":"SHANGHAI","Actor2_Country":"CHN","Code":42,"Class":1,"Action_Location":"Germany","Lat":51.5,"Long":10.5,"Timestamp":20181105033000,"Source":"http:\/\/www.startribune.com\/china-s-xi-promises-market-opening-as-import-fair-begins\/499591571\/"},{"ID":800046865,"Actor1":"COMPANIES","Actor1_Country":null,"Actor2":"GERMAN","Actor2_Country":"DEU","Code":61,"Class":2,"Action_Location":"Beijing, Beijing, China","Lat":39.9289,"Long":116.388,"Timestamp":20181105033000,"Source":"http:\/\/www.startribune.com\/china-s-xi-promises-market-opening-as-import-fair-begins\/499591571\/"},{"ID":800046866,"Actor1":"COMPANIES","Actor1_Country":null,"Actor2":"GERMAN","Actor2_Country":"DEU","Code":61,"Class":2,"Action_Location":"Washington, District of Columbia, United States","Lat":38.8951,"Long":-77.0364,"Timestamp":20181105033000,"Source":"http:\/\/www.startribune.com\/china-s-xi-promises-market-opening-as-import-fair-begins\/499591571\/"},{"ID":800046867,"Actor1":"BUSINESS","Actor1_Country":null,"Actor2":"LONDON","Actor2_Country":"GBR","Code":42,"Class":1,"Action_Location":"Israel","Lat":31.5,"Long":34.75,"Timestamp":20181105033000,"Source":"https:\/\/dailycaller.com\/2018\/11\/04\/soros-spending-millions-migrants\/"},{"ID":800046868,"Actor1":"BUSINESS","Actor1_Country":null,"Actor2":"LONDON","Actor2_Country":"GBR","Code":42,"Class":1,"Action_Location":"Russia","Lat":60.0,"Long":100.0,"Timestamp":20181105033000,"Source":"https:\/\/dailycaller.com\/2018\/11\/04\/soros-spending-millions-migrants\/"},{"ID":800046869,"Actor1":"BUSINESS","Actor1_Country":null,"Actor2":"UNITED KINGDOM","Actor2_Country":"GBR","Code":42,"Class":1,"Action_Location":"Russia","Lat":60.0,"Long":100.0,"Timestamp":20181105033000,"Source":"https:\/\/dailycaller.com\/2018\/11\/04\/soros-spending-millions-migrants\/"},{"ID":800046870,"Actor1":"ENTREPRENEUR","Actor1_Country":null,"Actor2":"MINIST","Actor2_Country":null,"Code":40,"Class":1,"Action_Location":"Karachi, Sindh, Pakistan","Lat":24.8667,"Long":67.05,"Timestamp":20181105033000,"Source":"https:\/\/www.dawn.com\/news\/1443629\/fawad-heaps-scorn-on-ppp-govt-in-sindh"},{"ID":800046871,"Actor1":"BANK","Actor1_Country":null,"Actor2":"ELECTORAL COMMISSION","Actor2_Country":null,"Code":71,"Class":2,"Action_Location":"United Kingdom","Lat":54.0,"Long":-4.0,"Timestamp":20181105033000,"Source":"https:\/\/www.dailymail.co.uk\/news\/article-6352953\/DOMINIC-LAWSON-Arron-Banks-chancer-Lords-look-ridiculous-demanding-Peoples-Vote.html"},{"ID":800046872,"Actor1":"BUSINESS","Actor1_Country":null,"Actor2":"STATE OWNED ENTERPRISE","Actor2_Country":null,"Code":10,"Class":1,"Action_Location":"France","Lat":46.0,"Long":2.0,"Timestamp":20181105033000,"Source":"https:\/\/english.thesaigontimes.vn\/63891\/it-is-opportune-to-invest-in-vietnam-says-ccifv-president.html"},{"ID":800046873,"Actor1":"BUSINESS","Actor1_Country":null,"Actor2":"STATE OWNED ENTERPRISE","Actor2_Country":null,"Code":10,"Class":1,"Action_Location":"France","Lat":46.0,"Long":2.0,"Timestamp":20181105033000,"Source":"https:\/\/english.thesaigontimes.vn\/63891\/it-is-opportune-to-invest-in-vietnam-says-ccifv-president.html"},{"ID":800046874,"Actor1":"INDUSTRY","Actor1_Country":null,"Actor2":"NEWS CORP","Actor2_Country":"USA","Code":13,"Class":1,"Action_Location":"Canberra, Australian Capital Territory, Australia","Lat":-35.2833,"Long":149.217,"Timestamp":20181105033000,"Source":"http:\/\/www.xinhuanet.com\/english\/2018-11\/05\/c_137583007.htm"},{"ID":800046875,"Actor1":"BUSINESS","Actor1_Country":null,"Actor2":"UNITED STATES","Actor2_Country":"USA","Code":43,"Class":1,"Action_Location":"San Francisco, California, United States","Lat":37.7749,"Long":-122.419,"Timestamp":20181105033000,"Source":"https:\/\/www.modbee.com\/news\/politics-government\/article221118035.html"},{"ID":800046876,"Actor1":"BUSINESS","Actor1_Country":null,"Actor2":"BOSTON","Actor2_Country":"USA","Code":43,"Class":1,"Action_Location":"San Francisco, California, United States","Lat":37.7749,"Long":-122.419,"Timestamp":20181105033000,"Source":"https:\/\/www.modbee.com\/news\/politics-government\/article221118035.html"},{"ID":800046877,"Actor1":"BUSINESS","Actor1_Country":null,"Actor2":"UNITED STATES","Actor2_Country":"USA","Code":43,"Class":1,"Action_Location":"San Francisco, California, United States","Lat":37.7749,"Long":-122.419,"Timestamp":20181105033000,"Source":"https:\/\/www.modbee.com\/news\/politics-government\/article221118035.html"},{"ID":800046878,"Actor1":"BUSINESS","Actor1_Country":null,"Actor2":"BOSTON","Actor2_Country":"USA","Code":43,"Class":1,"Action_Location":"Boston, Massachusetts, United States","Lat":42.3584,"Long":-71.0598,"Timestamp":20181105033000,"Source":"https:\/\/www.modbee.com\/news\/politics-government\/article221118035.html"},{"ID":800046879,"Actor1":"BUSINESS","Actor1_Country":null,"Actor2":"SAN FRANCISCO","Actor2_Country":"USA","Code":43,"Class":1,"Action_Location":"Boston, Massachusetts, United States","Lat":42.3584,"Long":-71.0598,"Timestamp":20181105033000,"Source":"https:\/\/www.modbee.com\/news\/politics-government\/article221118035.html"},{"ID":800046884,"Actor1":"CANADA","Actor1_Country":"CAN","Actor2":"BUSINESS","Actor2_Country":null,"Code":51,"Class":1,"Action_Location":"Abbotsford, British Columbia, Canada","Lat":49.05,"Long":-122.3,"Timestamp":20181105033000,"Source":"https:\/\/www.abbynews.com\/news\/abbotsford-chamber-names-new-executive-director\/"},{"ID":800046885,"Actor1":"CANADA","Actor1_Country":"CAN","Actor2":"BUSINESS","Actor2_Country":null,"Code":51,"Class":1,"Action_Location":"Vancouver, British Columbia, Canada","Lat":49.25,"Long":-123.133,"Timestamp":20181105033000,"Source":"https:\/\/www.abbynews.com\/news\/abbotsford-chamber-names-new-executive-director\/"},{"ID":800046886,"Actor1":"CANADA","Actor1_Country":"CAN","Actor2":"COMPANIES","Actor2_Country":null,"Code":110,"Class":3,"Action_Location":"Canada","Lat":60.0,"Long":-96.0,"Timestamp":20181105033000,"Source":"https:\/\/www.tickerreport.com\/banking-finance\/3910392\/tanger-factory-outlet-centers-inc-skt-given-consensus-recommendation-of-hold-by-brokerages.html"},{"ID":800046887,"Actor1":"CANADA","Actor1_Country":"CAN","Actor2":"COMPANIES","Actor2_Country":null,"Code":111,"Class":3,"Action_Location":"Canada","Lat":60.0,"Long":-96.0,"Timestamp":20181105033000,"Source":"https:\/\/www.tickerreport.com\/banking-finance\/3910392\/tanger-factory-outlet-centers-inc-skt-given-consensus-recommendation-of-hold-by-brokerages.html"},{"ID":800046888,"Actor1":"CANADA","Actor1_Country":"CAN","Actor2":"GREECE","Actor2_Country":"GRC","Code":84,"Class":2,"Action_Location":"Abbotsford, British Columbia, Canada","Lat":49.05,"Long":-122.3,"Timestamp":20181105033000,"Source":"https:\/\/www.abbynews.com\/news\/abbotsford-chamber-names-new-executive-director\/"},{"ID":800046889,"Actor1":"CANADA","Actor1_Country":"CAN","Actor2":"CHEYENNE","Actor2_Country":null,"Code":42,"Class":1,"Action_Location":"Ottawa, Ontario, Canada","Lat":45.4167,"Long":-75.7,"Timestamp":20181105033000,"Source":"https:\/\/www.avweb.com\/avwebflash\/news\/One-Dead-Two-Safe-In-Mid-Air-231807-1.html"},{"ID":800046890,"Actor1":"CANADA","Actor1_Country":"CAN","Actor2":"CANADA","Actor2_Country":"CAN","Code":84,"Class":2,"Action_Location":"Vancouver, British Columbia, Canada","Lat":49.25,"Long":-123.133,"Timestamp":20181105033000,"Source":"https:\/\/www.abbynews.com\/news\/abbotsford-chamber-names-new-executive-director\/"},{"ID":800046891,"Actor1":"MANITOBA","Actor1_Country":"CAN","Actor2":"HEALTH MINIST","Actor2_Country":null,"Code":20,"Class":1,"Action_Location":"Canada","Lat":60.0,"Long":-96.0,"Timestamp":20181105033000,"Source":"https:\/\/www.cbc.ca\/news\/canada\/manitoba\/lifeflight-privatization-letter-1.4891448"},{"ID":800046892,"Actor1":"MANITOBA","Actor1_Country":"CAN","Actor2":"HEALTH MINIST","Actor2_Country":null,"Code":40,"Class":1,"Action_Location":"Canada","Lat":60.0,"Long":-96.0,"Timestamp":20181105033000,"Source":"https:\/\/www.cbc.ca\/news\/canada\/manitoba\/lifeflight-privatization-letter-1.4891448"},{"ID":800046893,"Actor1":"GENEVA","Actor1_Country":"CHE","Actor2":"SWITZERLAND","Actor2_Country":"CHE","Code":51,"Class":1,"Action_Location":"Geneva, Gen\u00e8, Switzerland","Lat":46.1956,"Long":6.14811,"Timestamp":20181105033000,"Source":"https:\/\/www.yahoo.com\/news\/saudi-rights-record-un-spotlight-020445872.html"},{"ID":800046894,"Actor1":"GENEVA","Actor1_Country":"CHE","Actor2":"SWITZERLAND","Actor2_Country":"CHE","Code":51,"Class":1,"Action_Location":"Riyadh, Ar Riya?, Saudi Arabia","Lat":24.6408,"Long":46.7728,"Timestamp":20181105033000,"Source":"https:\/\/www.yahoo.com\/news\/saudi-rights-record-un-spotlight-020445872.html"},{"ID":800046895,"Actor1":"GENEVA","Actor1_Country":"CHE","Actor2":"CHINA","Actor2_Country":"CHN","Code":20,"Class":1,"Action_Location":"Geneva, Gen\u00e8, Switzerland","Lat":46.1956,"Long":6.14811,"Timestamp":20181105033000,"Source":"https:\/\/www.japantimes.co.jp\/?post_type=news&p=1563335"},{"ID":800046896,"Actor1":"GENEVA","Actor1_Country":"CHE","Actor2":"CHINA","Actor2_Country":"CHN","Code":20,"Class":1,"Action_Location":"Geneva, Gen\u00e8, Switzerland","Lat":46.1956,"Long":6.14811,"Timestamp":20181105033000,"Source":"https:\/\/www.japantimes.co.jp\/?post_type=news&p=1563335"},{"ID":800046897,"Actor1":"GENEVA","Actor1_Country":"CHE","Actor2":"THE UN","Actor2_Country":null,"Code":43,"Class":1,"Action_Location":"Geneva, Gen\u00e8, Switzerland","Lat":46.1956,"Long":6.14811,"Timestamp":20181105033000,"Source":"https:\/\/www.yahoo.com\/news\/saudi-rights-record-un-spotlight-020445872.html"},{"ID":800046898,"Actor1":"GENEVA","Actor1_Country":"CHE","Actor2":"JOURNALIST","Actor2_Country":null,"Code":51,"Class":1,"Action_Location":"Geneva, Gen\u00e8, Switzerland","Lat":46.1956,"Long":6.14811,"Timestamp":20181105033000,"Source":"https:\/\/www.yahoo.com\/news\/saudi-rights-record-un-spotlight-020445872.html"},{"ID":800046899,"Actor1":"SWITZERLAND","Actor1_Country":"CHE","Actor2":"JOURNALIST","Actor2_Country":null,"Code":51,"Class":1,"Action_Location":"Riyadh, Ar Riya?, Saudi Arabia","Lat":24.6408,"Long":46.7728,"Timestamp":20181105033000,"Source":"https:\/\/www.yahoo.com\/news\/saudi-rights-record-un-spotlight-020445872.html"},{"ID":800046900,"Actor1":"GENEVA","Actor1_Country":"CHE","Actor2":"JOURNALIST","Actor2_Country":null,"Code":51,"Class":1,"Action_Location":"Riyadh, Ar Riya?, Saudi Arabia","Lat":24.6408,"Long":46.7728,"Timestamp":20181105033000,"Source":"https:\/\/www.yahoo.com\/news\/saudi-rights-record-un-spotlight-020445872.html"},{"ID":800046901,"Actor1":"GENEVA","Actor1_Country":"CHE","Actor2":"JOURNALIST","Actor2_Country":null,"Code":51,"Class":1,"Action_Location":"Riyadh, Ar Riya?, Saudi Arabia","Lat":24.6408,"Long":46.7728,"Timestamp":20181105033000,"Source":"https:\/\/www.yahoo.com\/news\/saudi-rights-record-un-spotlight-020445872.html"},{"ID":800046908,"Actor1":"SHANGHAI","Actor1_Country":"CHN","Actor2":"COMPANIES","Actor2_Country":null,"Code":43,"Class":1,"Action_Location":"Japan","Lat":36.0,"Long":138.0,"Timestamp":20181105033000,"Source":"https:\/\/www.sfgate.com\/news\/world\/article\/China-s-Xi-promises-market-opening-as-import-fair-13362424.php"},{"ID":800046909,"Actor1":"SHANGHAI","Actor1_Country":"CHN","Actor2":"COMPANIES","Actor2_Country":null,"Code":43,"Class":1,"Action_Location":"Germany","Lat":51.5,"Long":10.5,"Timestamp":20181105033000,"Source":"http:\/\/www.startribune.com\/china-s-xi-promises-market-opening-as-import-fair-begins\/499591571\/"},{"ID":800046910,"Actor1":"SHANGHAI","Actor1_Country":"CHN","Actor2":"COMPANIES","Actor2_Country":null,"Code":43,"Class":1,"Action_Location":"Germany","Lat":51.5,"Long":10.5,"Timestamp":20181105033000,"Source":"http:\/\/www.startribune.com\/china-s-xi-promises-market-opening-as-import-fair-begins\/499591571\/"},{"ID":800046911,"Actor1":"CHINESE","Actor1_Country":"CHN","Actor2":"COMPANIES","Actor2_Country":null,"Code":122,"Class":3,"Action_Location":"Canada","Lat":60.0,"Long":-96.0,"Timestamp":20181105033000,"Source":"https:\/\/www.japantimes.co.jp\/?post_type=news&p=1563584"},{"ID":800046912,"Actor1":"CHINA","Actor1_Country":"CHN","Actor2":"AEROSPACE","Actor2_Country":null,"Code":173,"Class":4,"Action_Location":"Canada","Lat":60.0,"Long":-96.0,"Timestamp":20181105033000,"Source":"https:\/\/www.japantimes.co.jp\/?post_type=news&p=1563584"},{"ID":800046913,"Actor1":"CHINA","Actor1_Country":"CHN","Actor2":"XI JINPING","Actor2_Country":"CHN","Code":43,"Class":1,"Action_Location":"Lancang, Yunnan, China","Lat":22.5621,"Long":99.9103,"Timestamp":20181105033000,"Source":"http:\/\/en.dangcongsan.vn\/foreign-affairs\/vietnam-considers-relationship-with-china-one-of-top-priorities-pm-503808.html"},{"ID":800046914,"Actor1":"CHINA","Actor1_Country":"CHN","Actor2":"CHINA","Actor2_Country":"CHN","Code":43,"Class":1,"Action_Location":"Islamabad, Islamabad, Pakistan","Lat":33.7,"Long":73.1667,"Timestamp":20181105033000,"Source":"https:\/\/www.dawn.com\/news\/1443674\/imran-xi-call-for-timely-completion-of-cpec-projects"},{"ID":800046915,"Actor1":"CHINA","Actor1_Country":"CHN","Actor2":"XI JINPING","Actor2_Country":"CHN","Code":43,"Class":1,"Action_Location":"China","Lat":35.0,"Long":105.0,"Timestamp":20181105033000,"Source":"http:\/\/vovworld.vn\/en-US\/news\/vietnam-considers-relations-with-china-one-of-the-top-priorities-pm-696182.vov"},{"ID":800046916,"Actor1":"CHINA","Actor1_Country":"CHN","Actor2":"MINORITIES","Actor2_Country":null,"Code":90,"Class":2,"Action_Location":"Xinjiang, Jiangxi, China","Lat":27.7481,"Long":116.274,"Timestamp":20181105033000,"Source":"https:\/\/www.japantimes.co.jp\/?post_type=news&p=1563335"},{"ID":800046917,"Actor1":"SHANGHAI","Actor1_Country":"CHN","Actor2":"EGYPT","Actor2_Country":"EGY","Code":43,"Class":1,"Action_Location":"Japan","Lat":36.0,"Long":138.0,"Timestamp":20181105033000,"Source":"https:\/\/www.sfgate.com\/news\/world\/article\/China-s-Xi-promises-market-opening-as-import-fair-13362424.php"},{"ID":800046918,"Actor1":"SHANGHAI","Actor1_Country":"CHN","Actor2":"EGYPT","Actor2_Country":"EGY","Code":43,"Class":1,"Action_Location":"Germany","Lat":51.5,"Long":10.5,"Timestamp":20181105033000,"Source":"http:\/\/www.startribune.com\/china-s-xi-promises-market-opening-as-import-fair-begins\/499591571\/"},{"ID":800046919,"Actor1":"CHINESE","Actor1_Country":"CHN","Actor2":"MEDIA","Actor2_Country":null,"Code":10,"Class":1,"Action_Location":"Beijing, Beijing, China","Lat":39.9289,"Long":116.388,"Timestamp":20181105033000,"Source":"https:\/\/www.oneindia.com\/international\/china-will-help-pak-but-latter-needs-to-use-funds-efficiently-says-chinese-media-2803651.html"},{"ID":800046920,"Actor1":"CHINESE","Actor1_Country":"CHN","Actor2":"MEDIA","Actor2_Country":null,"Code":10,"Class":1,"Action_Location":"Beijing, Beijing, China","Lat":39.9289,"Long":116.388,"Timestamp":20181105033000,"Source":"https:\/\/www.oneindia.com\/international\/china-will-help-pak-but-latter-needs-to-use-funds-efficiently-says-chinese-media-2803651.html"},{"ID":800046921,"Actor1":"CHINA","Actor1_Country":"CHN","Actor2":"PHILIPPINE","Actor2_Country":"PHL","Code":43,"Class":1,"Action_Location":"Haiyan, Yunnan, China","Lat":24.8115,"Long":102.766,"Timestamp":20181105033000,"Source":"https:\/\/au.news.yahoo.com\/five-years-typhoon-haiyan-scores-still-harms-way-022426230--spt.html"},{"ID":800046922,"Actor1":"CHINA","Actor1_Country":"CHN","Actor2":"PHILIPPINE","Actor2_Country":"PHL","Code":43,"Class":1,"Action_Location":"Haiyan, Yunnan, China","Lat":24.8115,"Long":102.766,"Timestamp":20181105033000,"Source":"https:\/\/au.news.yahoo.com\/five-years-typhoon-haiyan-scores-still-harms-way-022426230--spt.html"},{"ID":800046923,"Actor1":"CHINA","Actor1_Country":"CHN","Actor2":"NORTH KOREA","Actor2_Country":"PRK","Code":43,"Class":1,"Action_Location":"Pyongyang, P'yongyang-si, North Korea","Lat":39.0194,"Long":125.755,"Timestamp":20181105033000,"Source":"https:\/\/www.scmp.com\/news\/asia\/east-asia\/article\/2171660\/north-korea-cuba-agree-deepen-ties-amid-us-sanctions"},{"ID":800046924,"Actor1":"CHINA","Actor1_Country":"CHN","Actor2":"NORTH KOREA","Actor2_Country":"PRK","Code":43,"Class":1,"Action_Location":"Shanghai, Shanghai, China","Lat":31.2222,"Long":121.458,"Timestamp":20181105033000,"Source":"https:\/\/www.scmp.com\/news\/asia\/east-asia\/article\/2171660\/north-korea-cuba-agree-deepen-ties-amid-us-sanctions"},{"ID":800046925,"Actor1":"CHINA","Actor1_Country":"CHN","Actor2":"THE INTERNATIONAL COMMUNITY","Actor2_Country":null,"Code":10,"Class":1,"Action_Location":"Xinjiang, Jiangxi, China","Lat":27.7481,"Long":116.274,"Timestamp":20181105033000,"Source":"https:\/\/www.japantimes.co.jp\/?post_type=news&p=1563335"},{"ID":800046926,"Actor1":"CHINESE","Actor1_Country":"CHN","Actor2":"REUTERS","Actor2_Country":"USA","Code":17,"Class":1,"Action_Location":"Shanghai, Shanghai, China","Lat":31.2222,"Long":121.458,"Timestamp":20181105033000,"Source":"https:\/\/uk.reuters.com\/article\/uk-china-economy-tariff\/chinas-xi-promises-lower-tariffs-broader-market-access-idUKKCN1NA05B"},{"ID":800046927,"Actor1":"CHINESE","Actor1_Country":"CHN","Actor2":"REUTERS","Actor2_Country":"USA","Code":42,"Class":1,"Action_Location":"Shanghai, Shanghai, China","Lat":31.2222,"Long":121.458,"Timestamp":20181105033000,"Source":"https:\/\/uk.reuters.com\/article\/uk-china-economy-tariff\/chinas-xi-promises-lower-tariffs-broader-market-access-idUKKCN1NA05B"},{"ID":800046928,"Actor1":"CHINESE","Actor1_Country":"CHN","Actor2":"VIETNAM","Actor2_Country":"VNM","Code":42,"Class":1,"Action_Location":"Lancang, Yunnan, China","Lat":22.5621,"Long":99.9103,"Timestamp":20181105033000,"Source":"http:\/\/en.dangcongsan.vn\/foreign-affairs\/vietnam-considers-relationship-with-china-one-of-top-priorities-pm-503808.html"},{"ID":800046929,"Actor1":"CHINA","Actor1_Country":"CHN","Actor2":"VIETNAM","Actor2_Country":"VNM","Code":61,"Class":2,"Action_Location":"Vietnam, Republic Of","Lat":16.166667,"Long":107.833333,"Timestamp":20181105033000,"Source":"http:\/\/en.dangcongsan.vn\/foreign-affairs\/vietnam-considers-relationship-with-china-one-of-top-priorities-pm-503808.html"},{"ID":800046930,"Actor1":"CHINA","Actor1_Country":"CHN","Actor2":"VIETNAM","Actor2_Country":"VNM","Code":61,"Class":2,"Action_Location":"China","Lat":35.0,"Long":105.0,"Timestamp":20181105033000,"Source":"http:\/\/vovworld.vn\/en-US\/news\/vietnam-considers-relations-with-china-one-of-the-top-priorities-pm-696182.vov"},{"ID":800046931,"Actor1":"CHINA","Actor1_Country":"CHN","Actor2":"UIGHUR","Actor2_Country":null,"Code":10,"Class":1,"Action_Location":"Xinjiang, Jiangxi, China","Lat":27.7481,"Long":116.274,"Timestamp":20181105033000,"Source":"https:\/\/www.japantimes.co.jp\/?post_type=news&p=1563335"},{"ID":800046934,"Actor1":"CHINA","Actor1_Country":"CHN","Actor2":"CHINESE","Actor2_Country":"CHN","Code":36,"Class":1,"Action_Location":"Beijing, Beijing, China","Lat":39.9289,"Long":116.388,"Timestamp":20181105033000,"Source":"https:\/\/www.dawn.com\/news\/1443674\/imran-xi-call-for-timely-completion-of-cpec-projects"},{"ID":800046935,"Actor1":"XI JINPING","Actor1_Country":"CHN","Actor2":"CHINA","Actor2_Country":"CHN","Code":42,"Class":1,"Action_Location":"Quang Hieu, Ph\u00fa, Vietnam, Republic Of","Lat":13.1833,"Long":109.233,"Timestamp":20181105033000,"Source":"http:\/\/vovworld.vn\/en-US\/news\/vietnam-considers-relations-with-china-one-of-the-top-priorities-pm-696182.vov"},{"ID":800046936,"Actor1":"CHINA","Actor1_Country":"CHN","Actor2":"CHINA","Actor2_Country":"CHN","Code":42,"Class":1,"Action_Location":"Saudi Arabia","Lat":25.0,"Long":45.0,"Timestamp":20181105033000,"Source":"https:\/\/www.oneindia.com\/international\/china-will-help-pak-but-latter-needs-to-use-funds-efficiently-says-chinese-media-2803651.html"},{"ID":800046937,"Actor1":"XI JINPING","Actor1_Country":"CHN","Actor2":"CHINA","Actor2_Country":"CHN","Code":42,"Class":1,"Action_Location":"Lancang, Yunnan, China","Lat":22.5621,"Long":99.9103,"Timestamp":20181105033000,"Source":"http:\/\/en.dangcongsan.vn\/foreign-affairs\/vietnam-considers-relationship-with-china-one-of-top-priorities-pm-503808.html"},{"ID":800046938,"Actor1":"LI KEQIANG","Actor1_Country":"CHN","Actor2":"CHINA","Actor2_Country":"CHN","Code":46,"Class":1,"Action_Location":"Beijing, Beijing, China","Lat":39.9289,"Long":116.388,"Timestamp":20181105033000,"Source":"https:\/\/www.dawn.com\/news\/1443674\/imran-xi-call-for-timely-completion-of-cpec-projects"},{"ID":800046939,"Actor1":"LI KEQIANG","Actor1_Country":"CHN","Actor2":"PRIME MINISTER","Actor2_Country":null,"Code":46,"Class":1,"Action_Location":"Beijing, Beijing, China","Lat":39.9289,"Long":116.388,"Timestamp":20181105033000,"Source":"https:\/\/www.dawn.com\/news\/1443674\/imran-xi-call-for-timely-completion-of-cpec-projects"},{"ID":800046940,"Actor1":"LI KEQIANG","Actor1_Country":"CHN","Actor2":"CONGRESS","Actor2_Country":null,"Code":46,"Class":1,"Action_Location":"Beijing, Beijing, China","Lat":39.9289,"Long":116.388,"Timestamp":20181105033000,"Source":"https:\/\/www.dawn.com\/news\/1443674\/imran-xi-call-for-timely-completion-of-cpec-projects"},{"ID":800046941,"Actor1":"XI JINPING","Actor1_Country":"CHN","Actor2":"VIETNAMESE","Actor2_Country":"VNM","Code":51,"Class":1,"Action_Location":"Lancang, Yunnan, China","Lat":22.5621,"Long":99.9103,"Timestamp":20181105033000,"Source":"http:\/\/en.dangcongsan.vn\/foreign-affairs\/vietnam-considers-relationship-with-china-one-of-top-priorities-pm-503808.html"},{"ID":800046942,"Actor1":"XI JINPING","Actor1_Country":"CHN","Actor2":"VIETNAMESE","Actor2_Country":"VNM","Code":51,"Class":1,"Action_Location":"Lancang, Yunnan, China","Lat":22.5621,"Long":99.9103,"Timestamp":20181105033000,"Source":"http:\/\/en.dangcongsan.vn\/foreign-affairs\/vietnam-considers-relationship-with-china-one-of-top-priorities-pm-503808.html"},{"ID":800046946,"Actor1":"ANGLICAN","Actor1_Country":null,"Actor2":"SYDNEY","Actor2_Country":"AUS","Code":52,"Class":1,"Action_Location":"Sydney, New South Wales, Australia","Lat":-33.8833,"Long":151.217,"Timestamp":20181105033000,"Source":"https:\/\/www.abc.net.au\/news\/2018-11-05\/anglican-schools-right-to-discriminate-letter-opinion\/10465276"},{"ID":800046947,"Actor1":"CATHOLIC","Actor1_Country":null,"Actor2":"TANZANIA","Actor2_Country":"TZA","Code":42,"Class":1,"Action_Location":"Lake Victoria, Tanzania (general), Tanzania","Lat":-1.0,"Long":33.0,"Timestamp":20181105033000,"Source":"https:\/\/www.ippmedia.com\/en\/news\/magufuli-stresses-peace-perseverance-tolerance"},{"ID":800046949,"Actor1":"CHRISTIAN","Actor1_Country":null,"Actor2":"KENTUCKY","Actor2_Country":"USA","Code":193,"Class":4,"Action_Location":"Kentucky, United States","Lat":37.669,"Long":-84.6514,"Timestamp":20181105033000,"Source":"https:\/\/www.nbcnews.com\/news\/us-news\/friends-family-say-final-goodbyes-jeffersontown-kroger-shooting-victims-n930341?cid=public-rss_20181105"},{"ID":800046950,"Actor1":"CHRISTIAN","Actor1_Country":null,"Actor2":"KENTUCKY","Actor2_Country":"USA","Code":193,"Class":4,"Action_Location":"Male High School, Kentucky, United States","Lat":38.2403,"Long":-85.7522,"Timestamp":20181105033000,"Source":"https:\/\/www.nbcnews.com\/news\/us-news\/friends-family-say-final-goodbyes-jeffersontown-kroger-shooting-victims-n930341?cid=public-rss_20181105"},{"ID":800046951,"Actor1":"CHRISTIAN","Actor1_Country":null,"Actor2":"KENTUCKY","Actor2_Country":"USA","Code":193,"Class":4,"Action_Location":"Kentucky, United States","Lat":37.669,"Long":-84.6514,"Timestamp":20181105033000,"Source":"https:\/\/www.nbcnews.com\/news\/us-news\/friends-family-say-final-goodbyes-jeffersontown-kroger-shooting-victims-n930341?cid=public-rss_20181105"},{"ID":800046974,"Actor1":"POLICE","Actor1_Country":null,"Actor2":"COLLEGE","Actor2_Country":null,"Code":190,"Class":4,"Action_Location":"San Diego, California, United States","Lat":32.7153,"Long":-117.157,"Timestamp":20181105033000,"Source":"https:\/\/timesofsandiego.com\/crime\/2018\/11\/04\/police-investigating-death-of-woman-in-oceanside\/"},{"ID":800046975,"Actor1":"POLICE","Actor1_Country":null,"Actor2":"INTERIOR MINIST","Actor2_Country":null,"Code":10,"Class":1,"Action_Location":"Gujranwala, Punjab, Pakistan","Lat":32.15,"Long":74.1833,"Timestamp":20181105033000,"Source":"https:\/\/www.dawn.com\/news\/1443698\/over-1100-held-for-rioting-during-protest-against-aasias-acquittal"},{"ID":800046976,"Actor1":"POLICE","Actor1_Country":null,"Actor2":"INTERIOR MINIST","Actor2_Country":null,"Code":10,"Class":1,"Action_Location":"Nawabshah, Sindh, Pakistan","Lat":26.2483,"Long":68.4096,"Timestamp":20181105033000,"Source":"https:\/\/www.dawn.com\/news\/1443698\/over-1100-held-for-rioting-during-protest-against-aasias-acquittal"},{"ID":800046977,"Actor1":"POLICE","Actor1_Country":null,"Actor2":"PRESIDENT","Actor2_Country":null,"Code":23,"Class":1,"Action_Location":"Spain","Lat":40.0,"Long":-4.0,"Timestamp":20181105033000,"Source":"https:\/\/www.waaytv.com\/content\/news\/Florence-graffiti-artist-strikes-again-483991081.html"},{"ID":800046978,"Actor1":"POLICE","Actor1_Country":null,"Actor2":"AUTHORITIES","Actor2_Country":null,"Code":80,"Class":2,"Action_Location":"Chippewa Falls, Wisconsin, United States","Lat":44.9369,"Long":-91.3929,"Timestamp":20181105033000,"Source":"https:\/\/www.mprnews.org\/story\/2018\/11\/04\/hundreds-gather-vigil-for-girl-scouts-parent-killed-wisconsin-crash"},{"ID":800046979,"Actor1":"POLICE","Actor1_Country":null,"Actor2":"PRESIDENT","Actor2_Country":null,"Code":111,"Class":3,"Action_Location":"Spain","Lat":40.0,"Long":-4.0,"Timestamp":20181105033000,"Source":"https:\/\/www.waaytv.com\/content\/news\/Florence-graffiti-artist-strikes-again-483991081.html"},{"ID":800046980,"Actor1":"POLICE","Actor1_Country":null,"Actor2":"HOSPITAL","Actor2_Country":null,"Code":10,"Class":1,"Action_Location":"New Delhi, Delhi, India","Lat":28.6,"Long":77.2,"Timestamp":20181105033000,"Source":"https:\/\/www.independent.ie\/world-news\/asia-pacific\/girl-4-gangraped-in-indian-hospital-37492156.html"},{"ID":800046981,"Actor1":"POLICE","Actor1_Country":null,"Actor2":"HOSPITAL","Actor2_Country":null,"Code":10,"Class":1,"Action_Location":"Ireland","Lat":53.0,"Long":-8.0,"Timestamp":20181105033000,"Source":"https:\/\/www.independent.ie\/world-news\/asia-pacific\/girl-4-gangraped-in-indian-hospital-37492156.html"},{"ID":800046983,"Actor1":"POLICE","Actor1_Country":null,"Actor2":"HOSPITAL","Actor2_Country":null,"Code":43,"Class":1,"Action_Location":"South Yorkshire, United Kingdom (general), United Kingdom","Lat":53.45,"Long":-1.25,"Timestamp":20181105033000,"Source":"https:\/\/www.yorkshirepost.co.uk\/news\/opinion\/dr-alan-billings-the-case-for-investigating-hate-crimes-despite-the-pressures-facing-south-yorkshire-police-1-9427689"},{"ID":800046984,"Actor1":"POLICE","Actor1_Country":null,"Actor2":"HOSPITAL","Actor2_Country":null,"Code":84,"Class":2,"Action_Location":"Florida State University, Florida, United States","Lat":30.4408,"Long":-84.2918,"Timestamp":20181105033000,"Source":"https:\/\/www.nbcnews.com\/news\/us-news\/gunman-who-killed-2-florida-yoga-studio-had-history-harassing-n930936?cid=public-rss_20181105"},{"ID":800046985,"Actor1":"POLICE","Actor1_Country":null,"Actor2":"KARNATAKA","Actor2_Country":"IND","Code":13,"Class":1,"Action_Location":"Karnataka, Karnataka, India","Lat":13.5,"Long":76.0,"Timestamp":20181105033000,"Source":"https:\/\/www.deccanchronicle.com\/nation\/current-affairs\/051118\/police-summons-arjun-sarja-for-questioning.html"},{"ID":800046986,"Actor1":"POLICE","Actor1_Country":null,"Actor2":"KARNATAKA","Actor2_Country":"IND","Code":13,"Class":1,"Action_Location":"Bengaluru, Karnataka, India","Lat":12.9833,"Long":77.5833,"Timestamp":20181105033000,"Source":"https:\/\/www.deccanchronicle.com\/nation\/current-affairs\/051118\/police-summons-arjun-sarja-for-questioning.html"},{"ID":800046987,"Actor1":"POLICE","Actor1_Country":null,"Actor2":"KARNATAKA","Actor2_Country":"IND","Code":13,"Class":1,"Action_Location":"Karnataka, Karnataka, India","Lat":13.5,"Long":76.0,"Timestamp":20181105033000,"Source":"https:\/\/www.deccanchronicle.com\/nation\/current-affairs\/051118\/police-summons-arjun-sarja-for-questioning.html"},{"ID":800046989,"Actor1":"DEPUTY","Actor1_Country":null,"Actor2":"IRELAND","Actor2_Country":"IRL","Code":36,"Class":1,"Action_Location":"Cork City, Cork, Ireland","Lat":51.8976,"Long":-8.46773,"Timestamp":20181105033000,"Source":"https:\/\/www.thecork.ie\/2018\/11\/05\/irelands-largest-marine-festival-comes-to-cork-in-2019\/"},{"ID":800046990,"Actor1":"POLICE","Actor1_Country":null,"Actor2":"MEDIA","Actor2_Country":null,"Code":111,"Class":3,"Action_Location":"Kerala, Kerala, India","Lat":10.0,"Long":76.5,"Timestamp":20181105033000,"Source":"https:\/\/www.firstpost.com\/india\/sabarimala-temple-will-open-at-5-pm-for-special-puja-over-2300-kerala-cops-to-watch-over-protesters-prohibitory-orders-issued-5503431.html"},{"ID":800046991,"Actor1":"POLICE","Actor1_Country":null,"Actor2":"MEDIA","Actor2_Country":null,"Code":111,"Class":3,"Action_Location":"Pathanamthitta, Kerala, India","Lat":9.26667,"Long":76.7833,"Timestamp":20181105033000,"Source":"https:\/\/www.firstpost.com\/india\/sabarimala-temple-will-open-at-5-pm-for-special-puja-over-2300-kerala-cops-to-watch-over-protesters-prohibitory-orders-issued-5503431.html"},{"ID":800046992,"Actor1":"POLICEMEN","Actor1_Country":null,"Actor2":"ARMED FORCES","Actor2_Country":null,"Code":72,"Class":2,"Action_Location":"Karachi, Sindh, Pakistan","Lat":24.8667,"Long":67.05,"Timestamp":20181105033000,"Source":"https:\/\/www.dawn.com\/news\/1443634\/300-policemen-to-be-deputed-for-crowd-management-from-today"},{"ID":800046993,"Actor1":"DEPUTY","Actor1_Country":null,"Actor2":"MALAYSIA","Actor2_Country":"MYS","Code":43,"Class":1,"Action_Location":"Malim Nawar, Perak, Malaysia","Lat":4.3506,"Long":101.119,"Timestamp":20181105033000,"Source":"https:\/\/www.straitstimes.com\/opinion\/anwar-mahathir-and-the-test-posed-by-political-frogs"},{"ID":800046996,"Actor1":"POLICE CHIEF","Actor1_Country":null,"Actor2":"GUNMAN","Actor2_Country":null,"Code":30,"Class":1,"Action_Location":"Florida, United States","Lat":27.8333,"Long":-81.717,"Timestamp":20181105033000,"Source":"https:\/\/www.nbcnews.com\/news\/us-news\/gunman-who-killed-2-florida-yoga-studio-had-history-harassing-n930936?cid=public-rss_20181105"},{"ID":800047000,"Actor1":"BORDER PATROL","Actor1_Country":null,"Actor2":"UNITED STATES","Actor2_Country":"USA","Code":15,"Class":1,"Action_Location":"Texas, United States","Lat":31.106,"Long":-97.6475,"Timestamp":20181105033000,"Source":"https:\/\/sputniknews.com\/us\/201811051069505449-political-stunt-georgia-dems-avvused-cybercrimes-midterms\/"},{"ID":800047001,"Actor1":"POLICE","Actor1_Country":null,"Actor2":"UNITED STATES","Actor2_Country":"USA","Code":90,"Class":2,"Action_Location":"Florida State University, Florida, United States","Lat":30.4408,"Long":-84.2918,"Timestamp":20181105033000,"Source":"https:\/\/www.nbcnews.com\/news\/us-news\/gunman-who-killed-2-florida-yoga-studio-had-history-harassing-n930936?cid=public-rss_20181105"},{"ID":800047002,"Actor1":"POLICE","Actor1_Country":null,"Actor2":"UNITED STATES","Actor2_Country":"USA","Code":112,"Class":3,"Action_Location":"Charlotte, North Carolina, United States","Lat":35.2271,"Long":-80.8431,"Timestamp":20181105033000,"Source":"https:\/\/www.nbcnews.com\/news\/us-news\/white-woman-dubbed-south-park-susan-harassing-black-women-turns-n931016?cid=public-rss_20181105"},{"ID":800047003,"Actor1":"POLICE","Actor1_Country":null,"Actor2":"UNITED STATES","Actor2_Country":"USA","Code":114,"Class":3,"Action_Location":"Deltona, Florida, United States","Lat":28.9005,"Long":-81.2637,"Timestamp":20181105033000,"Source":"https:\/\/www.nbcnews.com\/news\/us-news\/florida-yoga-studio-shooting-leaves-1-victim-dead-4-wounded-n930716?cid=public-rss_20181105"},{"ID":800047004,"Actor1":"POLICE","Actor1_Country":null,"Actor2":"FLORIDA","Actor2_Country":"USA","Code":114,"Class":3,"Action_Location":"Deltona, Florida, United States","Lat":28.9005,"Long":-81.2637,"Timestamp":20181105033000,"Source":"https:\/\/www.nbcnews.com\/news\/us-news\/florida-yoga-studio-shooting-leaves-1-victim-dead-4-wounded-n930716?cid=public-rss_20181105"},{"ID":800047005,"Actor1":"POLICE","Actor1_Country":null,"Actor2":"UNITED STATES","Actor2_Country":"USA","Code":114,"Class":3,"Action_Location":"Florida, United States","Lat":27.8333,"Long":-81.717,"Timestamp":20181105033000,"Source":"https:\/\/www.nbcnews.com\/news\/us-news\/florida-yoga-studio-shooting-leaves-1-victim-dead-4-wounded-n930716?cid=public-rss_20181105"},{"ID":800047006,"Actor1":"LAW ENFORCEMENT AGENCIES","Actor1_Country":null,"Actor2":"FLORIDA","Actor2_Country":"USA","Code":173,"Class":4,"Action_Location":"Florida, United States","Lat":27.8333,"Long":-81.717,"Timestamp":20181105033000,"Source":"http:\/\/spacecoastdaily.com\/2018\/11\/arrests-in-brevard-county-november-4-2018-suspects-presumed-innocent-until-proven-guilty\/"},{"ID":800047007,"Actor1":"LAW ENFORCEMENT AGENCIES","Actor1_Country":null,"Actor2":"UNITED STATES","Actor2_Country":"USA","Code":173,"Class":4,"Action_Location":"Florida, United States","Lat":27.8333,"Long":-81.717,"Timestamp":20181105033000,"Source":"http:\/\/spacecoastdaily.com\/2018\/11\/arrests-in-brevard-county-november-4-2018-suspects-presumed-innocent-until-proven-guilty\/"},{"ID":800047008,"Actor1":"POLICE","Actor1_Country":null,"Actor2":"UNITED STATES","Actor2_Country":"USA","Code":173,"Class":4,"Action_Location":"Charlotte, North Carolina, United States","Lat":35.2271,"Long":-80.8431,"Timestamp":20181105033000,"Source":"https:\/\/www.nbcnews.com\/news\/us-news\/white-woman-dubbed-south-park-susan-harassing-black-women-turns-n931016?cid=public-rss_20181105"},{"ID":800047009,"Actor1":"LAW ENFORCEMENT AGENCIES","Actor1_Country":null,"Actor2":"FLORIDA","Actor2_Country":"USA","Code":173,"Class":4,"Action_Location":"Palm Bay, Florida, United States","Lat":28.0345,"Long":-80.5887,"Timestamp":20181105033000,"Source":"http:\/\/spacecoastdaily.com\/2018\/11\/arrests-in-brevard-county-november-4-2018-suspects-presumed-innocent-until-proven-guilty\/"},{"ID":800047010,"Actor1":"LAW ENFORCEMENT AGENCIES","Actor1_Country":null,"Actor2":"FLORIDA","Actor2_Country":"USA","Code":173,"Class":4,"Action_Location":"Florida, United States","Lat":27.8333,"Long":-81.717,"Timestamp":20181105033000,"Source":"http:\/\/spacecoastdaily.com\/2018\/11\/arrests-in-brevard-county-november-4-2018-suspects-presumed-innocent-until-proven-guilty\/"},{"ID":800047011,"Actor1":"BORDER PATROL","Actor1_Country":null,"Actor2":"UNITED STATES","Actor2_Country":"USA","Code":192,"Class":4,"Action_Location":"Texas, United States","Lat":31.106,"Long":-97.6475,"Timestamp":20181105033000,"Source":"https:\/\/sputniknews.com\/us\/201811051069505449-political-stunt-georgia-dems-avvused-cybercrimes-midterms\/"},{"ID":800047012,"Actor1":"POLICE","Actor1_Country":null,"Actor2":"PITTSBURGH","Actor2_Country":"USA","Code":43,"Class":1,"Action_Location":"Squirrel Hill, Pennsylvania, United States","Lat":40.4381,"Long":-79.9192,"Timestamp":20181105033000,"Source":"https:\/\/www.nbcnews.com\/news\/us-news\/thousands-across-globe-showupforshabbat-honor-squirrel-hill-victims-n930851?cid=public-rss_20181105"},{"ID":800047013,"Actor1":"POLICE","Actor1_Country":null,"Actor2":"THE ASSOCIATED PRESS","Actor2_Country":"USA","Code":10,"Class":1,"Action_Location":"Lake Hallie, Wisconsin, United States","Lat":44.8758,"Long":-91.4407,"Timestamp":20181105033000,"Source":"https:\/\/www.mprnews.org\/story\/2018\/11\/04\/hundreds-gather-vigil-for-girl-scouts-parent-killed-wisconsin-crash"},{"ID":800047014,"Actor1":"POLICE","Actor1_Country":null,"Actor2":"THE ASSOCIATED PRESS","Actor2_Country":"USA","Code":173,"Class":4,"Action_Location":"Lake Hallie, Wisconsin, United States","Lat":44.8758,"Long":-91.4407,"Timestamp":20181105033000,"Source":"https:\/\/www.mprnews.org\/story\/2018\/11\/04\/hundreds-gather-vigil-for-girl-scouts-parent-killed-wisconsin-crash"},{"ID":800047015,"Actor1":"DEPUTY","Actor1_Country":null,"Actor2":"GOVERNMENT","Actor2_Country":null,"Code":10,"Class":1,"Action_Location":"Damascus, Dimashq, Syria","Lat":33.5,"Long":36.3,"Timestamp":20181105033000,"Source":"http:\/\/www.outlookafghanistan.net\/international_detail.php?post_id=22157"},{"ID":800047019,"Actor1":"ASSAILANT","Actor1_Country":null,"Actor2":"POLICE","Actor2_Country":null,"Code":173,"Class":4,"Action_Location":"Kherson, Khersons'ka Oblast', Ukraine","Lat":46.6558,"Long":32.6178,"Timestamp":20181105033000,"Source":"https:\/\/www.japantimes.co.jp\/?post_type=news&p=1563596"},{"ID":800047021,"Actor1":"MAFIA","Actor1_Country":null,"Actor2":"PAKISTAN","Actor2_Country":"PAK","Code":42,"Class":1,"Action_Location":"Gulshan-I-Iqbal, Sindh, Pakistan","Lat":24.9222,"Long":67.09,"Timestamp":20181105033000,"Source":"https:\/\/www.dawn.com\/news\/1443632\/nab-freezes-14-bungalows-illegally-built-on-govt-land-in-gulshan"},{"ID":800047022,"Actor1":"CUBA","Actor1_Country":"CUB","Actor2":"NORTH KOREA","Actor2_Country":"PRK","Code":30,"Class":1,"Action_Location":"Cuba","Lat":22.0,"Long":-79.5,"Timestamp":20181105033000,"Source":"https:\/\/www.scmp.com\/news\/asia\/east-asia\/article\/2171660\/north-korea-cuba-agree-deepen-ties-amid-us-sanctions"},{"ID":800047023,"Actor1":"CUBA","Actor1_Country":"CUB","Actor2":"NORTH KOREA","Actor2_Country":"PRK","Code":30,"Class":1,"Action_Location":"Pyongyang, P'yongyang-si, North Korea","Lat":39.0194,"Long":125.755,"Timestamp":20181105033000,"Source":"https:\/\/www.scmp.com\/news\/asia\/east-asia\/article\/2171660\/north-korea-cuba-agree-deepen-ties-amid-us-sanctions"},{"ID":800047024,"Actor1":"CUBA","Actor1_Country":"CUB","Actor2":"PYONGYANG","Actor2_Country":"PRK","Code":40,"Class":1,"Action_Location":"Cuba","Lat":22.0,"Long":-79.5,"Timestamp":20181105033000,"Source":"https:\/\/www.scmp.com\/news\/asia\/east-asia\/article\/2171660\/north-korea-cuba-agree-deepen-ties-amid-us-sanctions"},{"ID":800047025,"Actor1":"CUBAN","Actor1_Country":"CUB","Actor2":"NORTH KOREA","Actor2_Country":"PRK","Code":172,"Class":4,"Action_Location":"Pyongyang, P'yongyang-si, North Korea","Lat":39.0194,"Long":125.755,"Timestamp":20181105033000,"Source":"https:\/\/www.scmp.com\/news\/asia\/east-asia\/article\/2171660\/north-korea-cuba-agree-deepen-ties-amid-us-sanctions"},{"ID":800047026,"Actor1":"CUBAN","Actor1_Country":"CUB","Actor2":"NORTH KOREA","Actor2_Country":"PRK","Code":172,"Class":4,"Action_Location":"Cuba","Lat":22.0,"Long":-79.5,"Timestamp":20181105033000,"Source":"https:\/\/www.scmp.com\/news\/asia\/east-asia\/article\/2171660\/north-korea-cuba-agree-deepen-ties-amid-us-sanctions"},{"ID":800047027,"Actor1":"CUBA","Actor1_Country":"CUB","Actor2":"THE US","Actor2_Country":"USA","Code":50,"Class":1,"Action_Location":"Cuba","Lat":22.0,"Long":-79.5,"Timestamp":20181105033000,"Source":"https:\/\/www.scmp.com\/news\/asia\/east-asia\/article\/2171660\/north-korea-cuba-agree-deepen-ties-amid-us-sanctions"},{"ID":800047028,"Actor1":"CUBA","Actor1_Country":"CUB","Actor2":"VENEZUELA","Actor2_Country":"VEN","Code":163,"Class":4,"Action_Location":"Venezuela","Lat":8.0,"Long":-66.0,"Timestamp":20181105033000,"Source":"http:\/\/www.theunshackled.net\/rundown\/john-bolton-hails-bolsonaro-victory-threatens-new-sanctions-against-troika-of-tyranny-in-latin-america\/"},{"ID":800047029,"Actor1":"CUBA","Actor1_Country":"CUB","Actor2":"VENEZUELA","Actor2_Country":"VEN","Code":163,"Class":4,"Action_Location":"Venezuela","Lat":8.0,"Long":-66.0,"Timestamp":20181105033000,"Source":"http:\/\/www.theunshackled.net\/rundown\/john-bolton-hails-bolsonaro-victory-threatens-new-sanctions-against-troika-of-tyranny-in-latin-america\/"},{"ID":800047030,"Actor1":"CUBA","Actor1_Country":"CUB","Actor2":"PYONGYANG","Actor2_Country":"PRK","Code":40,"Class":1,"Action_Location":"Cuba","Lat":22.0,"Long":-79.5,"Timestamp":20181105033000,"Source":"https:\/\/www.scmp.com\/news\/asia\/east-asia\/article\/2171660\/north-korea-cuba-agree-deepen-ties-amid-us-sanctions"},{"ID":800047054,"Actor1":"COMMUNITY","Actor1_Country":null,"Actor2":"BUSINESS","Actor2_Country":null,"Code":51,"Class":1,"Action_Location":"Vancouver, British Columbia, Canada","Lat":49.25,"Long":-123.133,"Timestamp":20181105033000,"Source":"https:\/\/www.abbynews.com\/news\/abbotsford-chamber-names-new-executive-director\/"},{"ID":800047056,"Actor1":"COMMUNITY","Actor1_Country":null,"Actor2":"SCHOOL","Actor2_Country":null,"Code":42,"Class":1,"Action_Location":"Chippewa Falls, Wisconsin, United States","Lat":44.9369,"Long":-91.3929,"Timestamp":20181105033000,"Source":"https:\/\/www.mprnews.org\/story\/2018\/11\/04\/hundreds-gather-vigil-for-girl-scouts-parent-killed-wisconsin-crash"},{"ID":800047057,"Actor1":"COMMUNITY","Actor1_Country":null,"Actor2":"SCHOOL","Actor2_Country":null,"Code":42,"Class":1,"Action_Location":"Chippewa Falls, Wisconsin, United States","Lat":44.9369,"Long":-91.3929,"Timestamp":20181105033000,"Source":"https:\/\/www.mprnews.org\/story\/2018\/11\/04\/hundreds-gather-vigil-for-girl-scouts-parent-killed-wisconsin-crash"},{"ID":800047058,"Actor1":"COMMUNITY","Actor1_Country":null,"Actor2":"SCHOOL","Actor2_Country":null,"Code":42,"Class":1,"Action_Location":"Wisconsin, United States","Lat":44.2563,"Long":-89.6385,"Timestamp":20181105033000,"Source":"https:\/\/www.mprnews.org\/story\/2018\/11\/04\/hundreds-gather-vigil-for-girl-scouts-parent-killed-wisconsin-crash"},{"ID":800047059,"Actor1":"VOTER","Actor1_Country":null,"Actor2":"SCHOOL","Actor2_Country":null,"Code":51,"Class":1,"Action_Location":"Marquette University, Wisconsin, United States","Lat":43.0375,"Long":-87.9298,"Timestamp":20181105033000,"Source":"https:\/\/www.postcrescent.com\/story\/news\/2018\/11\/04\/wisconsin-election-2018-key-decisions-fox-valley-voters\/1848533002\/"},{"ID":800047060,"Actor1":"COMMUNITY","Actor1_Country":null,"Actor2":"SCHOOL","Actor2_Country":null,"Code":190,"Class":4,"Action_Location":"Chippewa Falls, Wisconsin, United States","Lat":44.9369,"Long":-91.3929,"Timestamp":20181105033000,"Source":"https:\/\/www.mprnews.org\/story\/2018\/11\/04\/hundreds-gather-vigil-for-girl-scouts-parent-killed-wisconsin-crash"},{"ID":800047061,"Actor1":"VOTER","Actor1_Country":null,"Actor2":"NEW CALEDONIA","Actor2_Country":"FRA","Code":20,"Class":1,"Action_Location":"New Caledonia","Lat":-21.5,"Long":165.5,"Timestamp":20181105033000,"Source":"https:\/\/www.dawn.com\/news\/1443706\/new-caledonia-votes-against-independence-from-france"},{"ID":800047063,"Actor1":"COMMUNITY","Actor1_Country":null,"Actor2":"HEAD OF STATE","Actor2_Country":null,"Code":80,"Class":2,"Action_Location":"Colombo, Western, Sri Lanka","Lat":6.93194,"Long":79.8478,"Timestamp":20181105033000,"Source":"https:\/\/scroll.in\/article\/900926\/sri-lankas-political-crisis-explained-and-what-it-means-for-the-island-nations-tamil-community"},{"ID":800047064,"Actor1":"VOTER","Actor1_Country":null,"Actor2":"PRESIDENT","Actor2_Country":null,"Code":86,"Class":2,"Action_Location":"Dekalb, New York, United States","Lat":44.499,"Long":-75.3427,"Timestamp":20181105033000,"Source":"https:\/\/northernstar.info\/opinion\/migrant-caravan-stirs-politics\/article_c6feaddc-e085-11e8-98b7-8301c4d0efe4.html"},{"ID":800047065,"Actor1":"VOTER","Actor1_Country":null,"Actor2":"PRESIDENT","Actor2_Country":null,"Code":86,"Class":2,"Action_Location":"New York, United States","Lat":42.1497,"Long":-74.9384,"Timestamp":20181105033000,"Source":"https:\/\/northernstar.info\/opinion\/migrant-caravan-stirs-politics\/article_c6feaddc-e085-11e8-98b7-8301c4d0efe4.html"},{"ID":800047066,"Actor1":"VOTER","Actor1_Country":null,"Actor2":"SENATE","Actor2_Country":null,"Code":42,"Class":1,"Action_Location":"New London, Wisconsin, United States","Lat":44.3928,"Long":-88.7398,"Timestamp":20181105033000,"Source":"https:\/\/www.postcrescent.com\/story\/news\/2018\/11\/04\/wisconsin-election-2018-key-decisions-fox-valley-voters\/1848533002\/"},{"ID":800047067,"Actor1":"VOTER","Actor1_Country":null,"Actor2":"SENATE","Actor2_Country":null,"Code":42,"Class":1,"Action_Location":"Outagamie County, Wisconsin, United States","Lat":44.4167,"Long":-88.4668,"Timestamp":20181105033000,"Source":"https:\/\/www.postcrescent.com\/story\/news\/2018\/11\/04\/wisconsin-election-2018-key-decisions-fox-valley-voters\/1848533002\/"},{"ID":800047068,"Actor1":"MIGRANT","Actor1_Country":null,"Actor2":"MEXICO","Actor2_Country":"MEX","Code":233,"Class":1,"Action_Location":"Mexico","Lat":23.0,"Long":-102.0,"Timestamp":20181105033000,"Source":"https:\/\/www.oann.com\/migrant-caravan-splits-into-groups-some-return-home\/"},{"ID":800047069,"Actor1":"MIGRANT","Actor1_Country":null,"Actor2":"MEXICO","Actor2_Country":"MEX","Code":42,"Class":1,"Action_Location":"Mexico","Lat":23.0,"Long":-102.0,"Timestamp":20181105033000,"Source":"https:\/\/www.oann.com\/migrant-caravan-splits-into-groups-some-return-home\/"},{"ID":800047070,"Actor1":"COMMUNITY","Actor1_Country":null,"Actor2":"MALAYSIAN","Actor2_Country":"MYS","Code":12,"Class":1,"Action_Location":"Tanah Melayu, Malaysia (general), Malaysia","Lat":4.0,"Long":102.0,"Timestamp":20181105033000,"Source":"https:\/\/www.freemalaysiatoday.com\/category\/opinion\/2018\/11\/05\/first-things-first-on-icerd\/"},{"ID":800047071,"Actor1":"CITIZEN","Actor1_Country":null,"Actor2":"POLITICAL PARTY","Actor2_Country":null,"Code":42,"Class":1,"Action_Location":"Hyderabad, Andhra Pradesh, India","Lat":17.3753,"Long":78.4744,"Timestamp":20181105033000,"Source":"https:\/\/www.siasat.com\/news\/hyderabad-rowdy-sheeters-create-panic-yakutpura-assembly-constituency-1428093\/"},{"ID":800047072,"Actor1":"COMMUNITY","Actor1_Country":null,"Actor2":"FLORIDA","Actor2_Country":"USA","Code":36,"Class":1,"Action_Location":"Florida, United States","Lat":27.8333,"Long":-81.717,"Timestamp":20181105033000,"Source":"https:\/\/www.theledger.com\/news\/20181104\/florence-villa-workshop-set-for-thursday"},{"ID":800047073,"Actor1":"COMMUNITY","Actor1_Country":null,"Actor2":"LOS ANGELES","Actor2_Country":"USA","Code":42,"Class":1,"Action_Location":"Seal Beach, California, United States","Lat":33.7414,"Long":-118.105,"Timestamp":20181105033000,"Source":"https:\/\/www.nbcnews.com\/news\/us-news\/patrons-california-shop-buy-doughnuts-dozen-give-owner-time-wife-n930901?cid=public-rss_20181105"},{"ID":800047074,"Actor1":"COMMUNITY","Actor1_Country":null,"Actor2":"UNITED STATES","Actor2_Country":"USA","Code":42,"Class":1,"Action_Location":"Seal Beach, California, United States","Lat":33.7414,"Long":-118.105,"Timestamp":20181105033000,"Source":"https:\/\/www.nbcnews.com\/news\/us-news\/patrons-california-shop-buy-doughnuts-dozen-give-owner-time-wife-n930901?cid=public-rss_20181105"},{"ID":800047075,"Actor1":"COMMUNITY","Actor1_Country":null,"Actor2":"UNITED STATES","Actor2_Country":"USA","Code":42,"Class":1,"Action_Location":"California, United States","Lat":36.17,"Long":-119.746,"Timestamp":20181105033000,"Source":"https:\/\/www.nbcnews.com\/news\/us-news\/patrons-california-shop-buy-doughnuts-dozen-give-owner-time-wife-n930901?cid=public-rss_20181105"},{"ID":800047076,"Actor1":"COMMUNITY","Actor1_Country":null,"Actor2":"UNITED STATES","Actor2_Country":"USA","Code":42,"Class":1,"Action_Location":"Chippewa Falls, Wisconsin, United States","Lat":44.9369,"Long":-91.3929,"Timestamp":20181105033000,"Source":"https:\/\/www.mprnews.org\/story\/2018\/11\/04\/hundreds-gather-vigil-for-girl-scouts-parent-killed-wisconsin-crash"},{"ID":800047077,"Actor1":"VOTER","Actor1_Country":null,"Actor2":"UNITED STATES","Actor2_Country":"USA","Code":51,"Class":1,"Action_Location":"Marquette University, Wisconsin, United States","Lat":43.0375,"Long":-87.9298,"Timestamp":20181105033000,"Source":"https:\/\/www.postcrescent.com\/story\/news\/2018\/11\/04\/wisconsin-election-2018-key-decisions-fox-valley-voters\/1848533002\/"},{"ID":800047078,"Actor1":"VOTER","Actor1_Country":null,"Actor2":"UNITED STATES","Actor2_Country":"USA","Code":57,"Class":1,"Action_Location":"Georgia, United States","Lat":32.9866,"Long":-83.6487,"Timestamp":20181105033000,"Source":"https:\/\/www.zdnet.com\/article\/republican-rival-puts-georgias-democratic-party-under-investigation-for-cyber-crimes\/"},{"ID":800047079,"Actor1":"COMMUNITY","Actor1_Country":null,"Actor2":"UNITED STATES","Actor2_Country":"USA","Code":190,"Class":4,"Action_Location":"Chippewa Falls, Wisconsin, United States","Lat":44.9369,"Long":-91.3929,"Timestamp":20181105033000,"Source":"https:\/\/www.mprnews.org\/story\/2018\/11\/04\/hundreds-gather-vigil-for-girl-scouts-parent-killed-wisconsin-crash"},{"ID":800047080,"Actor1":"COMMUNITY","Actor1_Country":null,"Actor2":"UNITED STATES","Actor2_Country":"USA","Code":42,"Class":1,"Action_Location":"Chippewa Falls, Wisconsin, United States","Lat":44.9369,"Long":-91.3929,"Timestamp":20181105033000,"Source":"https:\/\/www.mprnews.org\/story\/2018\/11\/04\/hundreds-gather-vigil-for-girl-scouts-parent-killed-wisconsin-crash"},{"ID":800047081,"Actor1":"COMMUNITY","Actor1_Country":null,"Actor2":"UNITED STATES","Actor2_Country":"USA","Code":42,"Class":1,"Action_Location":"Wisconsin, United States","Lat":44.2563,"Long":-89.6385,"Timestamp":20181105033000,"Source":"https:\/\/www.mprnews.org\/story\/2018\/11\/04\/hundreds-gather-vigil-for-girl-scouts-parent-killed-wisconsin-crash"},{"ID":800047082,"Actor1":"COMMUNITY","Actor1_Country":null,"Actor2":"WISCONSIN","Actor2_Country":"USA","Code":42,"Class":1,"Action_Location":"Wisconsin, United States","Lat":44.2563,"Long":-89.6385,"Timestamp":20181105033000,"Source":"http:\/\/www.chicagotribune.com\/news\/nationworld\/ct-wisconsin-car-crash-girl-scouts-killed-20181104-story.html"},{"ID":800047083,"Actor1":"COMMUNITY","Actor1_Country":null,"Actor2":"UNITED STATES","Actor2_Country":"USA","Code":190,"Class":4,"Action_Location":"Chippewa Falls, Wisconsin, United States","Lat":44.9369,"Long":-91.3929,"Timestamp":20181105033000,"Source":"https:\/\/www.mprnews.org\/story\/2018\/11\/04\/hundreds-gather-vigil-for-girl-scouts-parent-killed-wisconsin-crash"},{"ID":800047084,"Actor1":"GERMAN","Actor1_Country":"DEU","Actor2":"COMPANIES","Actor2_Country":null,"Code":61,"Class":2,"Action_Location":"Egypt","Lat":27.0,"Long":30.0,"Timestamp":20181105033000,"Source":"http:\/\/www.startribune.com\/china-s-xi-promises-market-opening-as-import-fair-begins\/499591571\/"},{"ID":800047085,"Actor1":"GERMAN","Actor1_Country":"DEU","Actor2":"COMPANIES","Actor2_Country":null,"Code":61,"Class":2,"Action_Location":"Egypt","Lat":27.0,"Long":30.0,"Timestamp":20181105033000,"Source":"http:\/\/www.startribune.com\/china-s-xi-promises-market-opening-as-import-fair-begins\/499591571\/"},{"ID":800047086,"Actor1":"GERMAN","Actor1_Country":"DEU","Actor2":"COMPANIES","Actor2_Country":null,"Code":61,"Class":2,"Action_Location":"Washington, District of Columbia, United States","Lat":38.8951,"Long":-77.0364,"Timestamp":20181105033000,"Source":"https:\/\/www.sfgate.com\/news\/world\/article\/China-s-Xi-promises-market-opening-as-import-fair-13362424.php"},{"ID":800047088,"Actor1":"DANISH","Actor1_Country":"DNK","Actor2":"RESIDENTS","Actor2_Country":null,"Code":20,"Class":1,"Action_Location":"Kabul, Kabol, Afghanistan","Lat":34.5167,"Long":69.1833,"Timestamp":20181105033000,"Source":"http:\/\/www.outlookafghanistan.net\/topics.php?post_id=22155"},{"ID":800047089,"Actor1":"DANISH","Actor1_Country":"DNK","Actor2":"RESIDENTS","Actor2_Country":null,"Code":20,"Class":1,"Action_Location":"Uruzgan, Oruzgan, Afghanistan","Lat":32.9277,"Long":66.6325,"Timestamp":20181105033000,"Source":"http:\/\/www.outlookafghanistan.net\/topics.php?post_id=22155"},{"ID":800047104,"Actor1":"STUDENTS AND TEACHER","Actor1_Country":null,"Actor2":"SYDNEY","Actor2_Country":"AUS","Code":52,"Class":1,"Action_Location":"Sydney, New South Wales, Australia","Lat":-33.8833,"Long":151.217,"Timestamp":20181105033000,"Source":"https:\/\/www.abc.net.au\/news\/2018-11-05\/anglican-schools-right-to-discriminate-letter-opinion\/10465276"},{"ID":800047106,"Actor1":"SCHOOL","Actor1_Country":null,"Actor2":"COMMUNITY","Actor2_Country":null,"Code":43,"Class":1,"Action_Location":"Chippewa Falls, Wisconsin, United States","Lat":44.9369,"Long":-91.3929,"Timestamp":20181105033000,"Source":"https:\/\/www.mprnews.org\/story\/2018\/11\/04\/hundreds-gather-vigil-for-girl-scouts-parent-killed-wisconsin-crash"},{"ID":800047107,"Actor1":"SCHOOL","Actor1_Country":null,"Actor2":"COMMUNITY","Actor2_Country":null,"Code":43,"Class":1,"Action_Location":"Wisconsin, United States","Lat":44.2563,"Long":-89.6385,"Timestamp":20181105033000,"Source":"https:\/\/www.mprnews.org\/story\/2018\/11\/04\/hundreds-gather-vigil-for-girl-scouts-parent-killed-wisconsin-crash"},{"ID":800047108,"Actor1":"SCHOOL","Actor1_Country":null,"Actor2":"SCHOOL","Actor2_Country":null,"Code":20,"Class":1,"Action_Location":"Rapides Parish, Louisiana, United States","Lat":31.1669,"Long":-92.4835,"Timestamp":20181105033000,"Source":"http:\/\/www.wbtv.com\/2018\/11\/05\/wine-bag-found-inside-louisiana-teachers-classroom\/"},{"ID":800047109,"Actor1":"STUDENT","Actor1_Country":null,"Actor2":"STUDENT","Actor2_Country":null,"Code":190,"Class":4,"Action_Location":"Texas, United States","Lat":31.106,"Long":-97.6475,"Timestamp":20181105033000,"Source":"https:\/\/www.azfamily.com\/newlyweds-killed-in-helicopter-crash-leaving-ceremony\/article_8bb71096-1d03-5d68-8557-8f24a7d95f16.html"},{"ID":800047110,"Actor1":"COLLEGE","Actor1_Country":null,"Actor2":"NIGERIAN","Actor2_Country":"NGA","Code":43,"Class":1,"Action_Location":"Abuja, Abuja Federal Capital Territory, Nigeria","Lat":9.08333,"Long":7.53333,"Timestamp":20181105033000,"Source":"http:\/\/nigeriastandardnewspaper.com\/ng\/buharigate-waec-headquarters-ghana-has-no-trace-of-certified-true-copies-of-mohammed-buhari-examination-certificate-in-our-archives-records-aptitude-test-department-boama-gyima-head-of-nation\/"},{"ID":800047111,"Actor1":"COLLEGE","Actor1_Country":null,"Actor2":"NIGERIAN","Actor2_Country":"NGA","Code":43,"Class":1,"Action_Location":"India","Lat":20.0,"Long":77.0,"Timestamp":20181105033000,"Source":"http:\/\/nigeriastandardnewspaper.com\/ng\/buharigate-waec-headquarters-ghana-has-no-trace-of-certified-true-copies-of-mohammed-buhari-examination-certificate-in-our-archives-records-aptitude-test-department-boama-gyima-head-of-nation\/"},{"ID":800047112,"Actor1":"ECONOMIST","Actor1_Country":null,"Actor2":"WASHINGTON","Actor2_Country":"USA","Code":13,"Class":1,"Action_Location":"Washington, District of Columbia, United States","Lat":38.8951,"Long":-77.0364,"Timestamp":20181105033000,"Source":"https:\/\/www.breitbart.com\/politics\/2018\/11\/04\/ex-criminals-jobs-training-donald-trump-go-go-economy\/"},{"ID":800047113,"Actor1":"STUDENT","Actor1_Country":null,"Actor2":"UNITED STATES","Actor2_Country":"USA","Code":20,"Class":1,"Action_Location":"Boston, Massachusetts, United States","Lat":42.3584,"Long":-71.0598,"Timestamp":20181105033000,"Source":"http:\/\/bcheights.com\/2018\/11\/04\/schlozman-shakes-up-political-science-dept-since-74\/"},{"ID":800047114,"Actor1":"SCHOOL","Actor1_Country":null,"Actor2":"UNITED STATES","Actor2_Country":"USA","Code":36,"Class":1,"Action_Location":"Boston, Massachusetts, United States","Lat":42.3584,"Long":-71.0598,"Timestamp":20181105033000,"Source":"http:\/\/bcheights.com\/2018\/11\/04\/schlozman-shakes-up-political-science-dept-since-74\/"},{"ID":800047115,"Actor1":"SCHOOL","Actor1_Country":null,"Actor2":"UNITED STATES","Actor2_Country":"USA","Code":36,"Class":1,"Action_Location":"New York, United States","Lat":42.1497,"Long":-74.9384,"Timestamp":20181105033000,"Source":"http:\/\/www.gothamgazette.com\/city\/8042-the-week-ahead-in-new-york-politics-november-5"},{"ID":800047116,"Actor1":"SCHOOL","Actor1_Country":null,"Actor2":"UNITED STATES","Actor2_Country":"USA","Code":36,"Class":1,"Action_Location":"New York, United States","Lat":42.1497,"Long":-74.9384,"Timestamp":20181105033000,"Source":"http:\/\/www.gothamgazette.com\/city\/8042-the-week-ahead-in-new-york-politics-november-5"},{"ID":800047117,"Actor1":"PROFESSOR","Actor1_Country":null,"Actor2":"UNITED STATES","Actor2_Country":"USA","Code":42,"Class":1,"Action_Location":"Boston, Massachusetts, United States","Lat":42.3584,"Long":-71.0598,"Timestamp":20181105033000,"Source":"http:\/\/bcheights.com\/2018\/11\/04\/schlozman-shakes-up-political-science-dept-since-74\/"},{"ID":800047118,"Actor1":"UNIVERSITY","Actor1_Country":null,"Actor2":"UNITED STATES","Actor2_Country":"USA","Code":84,"Class":2,"Action_Location":"Marquette University, Wisconsin, United States","Lat":43.0375,"Long":-87.9298,"Timestamp":20181105033000,"Source":"https:\/\/www.postcrescent.com\/story\/news\/2018\/11\/04\/wisconsin-election-2018-key-decisions-fox-valley-voters\/1848533002\/"},{"ID":800047119,"Actor1":"UNIVERSITY","Actor1_Country":null,"Actor2":"UNITED STATES","Actor2_Country":"USA","Code":84,"Class":2,"Action_Location":"New London, Wisconsin, United States","Lat":44.3928,"Long":-88.7398,"Timestamp":20181105033000,"Source":"https:\/\/www.postcrescent.com\/story\/news\/2018\/11\/04\/wisconsin-election-2018-key-decisions-fox-valley-voters\/1848533002\/"},{"ID":800047120,"Actor1":"UNIVERSITY","Actor1_Country":null,"Actor2":"UNITED STATES","Actor2_Country":"USA","Code":84,"Class":2,"Action_Location":"Outagamie County, Wisconsin, United States","Lat":44.4167,"Long":-88.4668,"Timestamp":20181105033000,"Source":"https:\/\/www.postcrescent.com\/story\/news\/2018\/11\/04\/wisconsin-election-2018-key-decisions-fox-valley-voters\/1848533002\/"},{"ID":800047121,"Actor1":"COLLEGE","Actor1_Country":null,"Actor2":"BOSTON","Actor2_Country":"USA","Code":42,"Class":1,"Action_Location":"Brookline Reservoir, Massachusetts, United States","Lat":42.327,"Long":-71.1363,"Timestamp":20181105033000,"Source":"http:\/\/bcheights.com\/2018\/11\/04\/schlozman-shakes-up-political-science-dept-since-74\/"},{"ID":800047124,"Actor1":"SCHOOL","Actor1_Country":null,"Actor2":"SCHOOL","Actor2_Country":null,"Code":51,"Class":1,"Action_Location":"Washington, District of Columbia, United States","Lat":38.8951,"Long":-77.0364,"Timestamp":20181105033000,"Source":"https:\/\/www.yakimaherald.com\/opinion\/cepeda-column-mr-president-latinos-don-t-scare-easily\/article_acd4f858-de14-11e8-ac23-67b2af18d4e0.html"},{"ID":800047125,"Actor1":"SCHOOL","Actor1_Country":null,"Actor2":"STUDENT","Actor2_Country":null,"Code":100,"Class":3,"Action_Location":"Muscatine, Iowa, United States","Lat":41.4245,"Long":-91.0432,"Timestamp":20181105033000,"Source":"https:\/\/muscatinejournal.com\/muscatine\/news\/local\/muskies-cast-their-vote-in-statewide-straw-poll\/article_7a15a3f1-0352-5613-a16b-c364c446a21c.html"},{"ID":800047126,"Actor1":"EGYPT","Actor1_Country":"EGY","Actor2":"SHANGHAI","Actor2_Country":"CHN","Code":42,"Class":1,"Action_Location":"Beijing, Beijing, China","Lat":39.9289,"Long":116.388,"Timestamp":20181105033000,"Source":"http:\/\/www.startribune.com\/china-s-xi-promises-market-opening-as-import-fair-begins\/499591571\/"},{"ID":800047129,"Actor1":"EGYPTIAN","Actor1_Country":"EGY","Actor2":"EGYPTIAN","Actor2_Country":"EGY","Code":90,"Class":2,"Action_Location":"Moscow, Moskva, Russia","Lat":55.7522,"Long":37.6156,"Timestamp":20181105033000,"Source":"http:\/\/www.outlookafghanistan.net\/international_detail.php?post_id=22156"},{"ID":800047132,"Actor1":"ETHIOPIA","Actor1_Country":"ETH","Actor2":"KING","Actor2_Country":null,"Code":10,"Class":1,"Action_Location":"Aksum, Tigray, Ethiopia","Lat":14.1245,"Long":38.7244,"Timestamp":20181105033000,"Source":"https:\/\/www.modernghana.com\/news\/895253\/did-god-protected-ethiopia-from-western-colonial-aggression.html"},{"ID":800047133,"Actor1":"EUROPE","Actor1_Country":"EUR","Actor2":"IRELAND","Actor2_Country":"IRL","Code":36,"Class":1,"Action_Location":"Safe Harbour, Roscommon, Ireland","Lat":53.5333,"Long":-8.0,"Timestamp":20181105033000,"Source":"https:\/\/www.thecork.ie\/2018\/11\/05\/irelands-largest-marine-festival-comes-to-cork-in-2019\/"},{"ID":800047135,"Actor1":"FRENCH","Actor1_Country":"FRA","Actor2":"FRANCE","Actor2_Country":"FRA","Code":20,"Class":1,"Action_Location":"Paris, France (general), France","Lat":48.8667,"Long":2.33333,"Timestamp":20181105033000,"Source":"http:\/\/en.dangcongsan.vn\/news-and-events\/hanoi-leader-asks-for-more-oda-loans-from-france-503735.html"},{"ID":800047136,"Actor1":"FRENCH","Actor1_Country":"FRA","Actor2":"FRANCE","Actor2_Country":"FRA","Code":20,"Class":1,"Action_Location":"Paris, France (general), France","Lat":48.8667,"Long":2.33333,"Timestamp":20181105033000,"Source":"http:\/\/en.dangcongsan.vn\/news-and-events\/hanoi-leader-asks-for-more-oda-loans-from-france-503735.html"},{"ID":800047137,"Actor1":"FRANCE","Actor1_Country":"FRA","Actor2":"HANOI","Actor2_Country":"VNM","Code":10,"Class":1,"Action_Location":"Hanoi, Ha N?i, Vietnam, Republic Of","Lat":21.0333,"Long":105.85,"Timestamp":20181105033000,"Source":"http:\/\/en.dangcongsan.vn\/news-and-events\/hanoi-leader-asks-for-more-oda-loans-from-france-503735.html"},{"ID":800047138,"Actor1":"FRANCE","Actor1_Country":"FRA","Actor2":"HANOI","Actor2_Country":"VNM","Code":10,"Class":1,"Action_Location":"Paris, France (general), France","Lat":48.8667,"Long":2.33333,"Timestamp":20181105033000,"Source":"http:\/\/en.dangcongsan.vn\/news-and-events\/hanoi-leader-asks-for-more-oda-loans-from-france-503735.html"},{"ID":800047139,"Actor1":"FRENCH","Actor1_Country":"FRA","Actor2":"VIETNAM","Actor2_Country":"VNM","Code":20,"Class":1,"Action_Location":"Paris, France (general), France","Lat":48.8667,"Long":2.33333,"Timestamp":20181105033000,"Source":"http:\/\/en.dangcongsan.vn\/news-and-events\/hanoi-leader-asks-for-more-oda-loans-from-france-503735.html"},{"ID":800047140,"Actor1":"FRANCE","Actor1_Country":"FRA","Actor2":"HANOI","Actor2_Country":"VNM","Code":71,"Class":2,"Action_Location":"Dien Bien, Tinh \u00bfien Bien, Vietnam, Republic Of","Lat":21.3833,"Long":103.017,"Timestamp":20181105033000,"Source":"http:\/\/en.dangcongsan.vn\/news-and-events\/hanoi-leader-asks-for-more-oda-loans-from-france-503735.html"},{"ID":800047141,"Actor1":"FRANCE","Actor1_Country":"FRA","Actor2":"VIETNAM","Actor2_Country":"VNM","Code":71,"Class":2,"Action_Location":"Hanoi, Ha N?i, Vietnam, Republic Of","Lat":21.0333,"Long":105.85,"Timestamp":20181105033000,"Source":"http:\/\/en.dangcongsan.vn\/news-and-events\/hanoi-leader-asks-for-more-oda-loans-from-france-503735.html"},{"ID":800047142,"Actor1":"FRENCH","Actor1_Country":"FRA","Actor2":"HANOI","Actor2_Country":"VNM","Code":20,"Class":1,"Action_Location":"Paris, France (general), France","Lat":48.8667,"Long":2.33333,"Timestamp":20181105033000,"Source":"http:\/\/en.dangcongsan.vn\/news-and-events\/hanoi-leader-asks-for-more-oda-loans-from-france-503735.html"},{"ID":800047145,"Actor1":"FRANCE","Actor1_Country":"FRA","Actor2":"VIETNAM","Actor2_Country":"VNM","Code":42,"Class":1,"Action_Location":"France","Lat":46.0,"Long":2.0,"Timestamp":20181105033000,"Source":"https:\/\/english.thesaigontimes.vn\/63891\/it-is-opportune-to-invest-in-vietnam-says-ccifv-president.html"},{"ID":800047146,"Actor1":"FRANCE","Actor1_Country":"FRA","Actor2":"VIETNAM","Actor2_Country":"VNM","Code":42,"Class":1,"Action_Location":"Vietnam, Republic Of","Lat":16.166667,"Long":107.833333,"Timestamp":20181105033000,"Source":"https:\/\/english.thesaigontimes.vn\/63891\/it-is-opportune-to-invest-in-vietnam-says-ccifv-president.html"},{"ID":800047147,"Actor1":"CHRISTINE LAGARDE","Actor1_Country":"FRA","Actor2":"SHANGHAI","Actor2_Country":"CHN","Code":20,"Class":1,"Action_Location":"Vietnam, Republic Of","Lat":16.166667,"Long":107.833333,"Timestamp":20181105033000,"Source":"https:\/\/www.cnbc.com\/2018\/11\/05\/china-president-xi-jinping-again-talks-up-commitment-to-free-trade.html"},{"ID":800047148,"Actor1":"CHRISTINE LAGARDE","Actor1_Country":"FRA","Actor2":"SHANGHAI","Actor2_Country":"CHN","Code":20,"Class":1,"Action_Location":"Shanghai, Shanghai, China","Lat":31.2222,"Long":121.458,"Timestamp":20181105033000,"Source":"https:\/\/www.cnbc.com\/2018\/11\/05\/china-president-xi-jinping-again-talks-up-commitment-to-free-trade.html"},{"ID":800047157,"Actor1":"LONDON","Actor1_Country":"GBR","Actor2":"BUSINESS","Actor2_Country":null,"Code":43,"Class":1,"Action_Location":"Russia","Lat":60.0,"Long":100.0,"Timestamp":20181105033000,"Source":"https:\/\/dailycaller.com\/2018\/11\/04\/soros-spending-millions-migrants\/"},{"ID":800047158,"Actor1":"LONDON","Actor1_Country":"GBR","Actor2":"BUSINESS","Actor2_Country":null,"Code":43,"Class":1,"Action_Location":"Israel","Lat":31.5,"Long":34.75,"Timestamp":20181105033000,"Source":"https:\/\/dailycaller.com\/2018\/11\/04\/soros-spending-millions-migrants\/"},{"ID":800047159,"Actor1":"UNITED KINGDOM","Actor1_Country":"GBR","Actor2":"BUSINESS","Actor2_Country":null,"Code":43,"Class":1,"Action_Location":"Russia","Lat":60.0,"Long":100.0,"Timestamp":20181105033000,"Source":"https:\/\/dailycaller.com\/2018\/11\/04\/soros-spending-millions-migrants\/"},{"ID":800047160,"Actor1":"BRITAIN","Actor1_Country":"GBR","Actor2":"BRITISH","Actor2_Country":"GBR","Code":12,"Class":1,"Action_Location":"Ireland","Lat":53.0,"Long":-8.0,"Timestamp":20181105033000,"Source":"https:\/\/www.independent.ie\/business\/brexit\/blair-warns-mps-there-is-simply-no-answer-to-irish-issue-37492132.html"},{"ID":800047161,"Actor1":"UNITED KINGDOM","Actor1_Country":"GBR","Actor2":"LONDON","Actor2_Country":"GBR","Code":46,"Class":1,"Action_Location":"London, London, City of, United Kingdom","Lat":51.5,"Long":-0.116667,"Timestamp":20181105033000,"Source":"https:\/\/www.nbcnews.com\/news\/us-news\/thousands-across-globe-showupforshabbat-honor-squirrel-hill-victims-n930851?cid=public-rss_20181105"},{"ID":800047162,"Actor1":"UNITED KINGDOM","Actor1_Country":"GBR","Actor2":"PRESIDENT","Actor2_Country":null,"Code":51,"Class":1,"Action_Location":"Smethwick, Sandwell, United Kingdom","Lat":52.5,"Long":-2.0,"Timestamp":20181105033000,"Source":"https:\/\/yourstory.com\/2018\/11\/uk-sculpture-indian-soldiers-wwi\/"},{"ID":800047163,"Actor1":"UNITED KINGDOM","Actor1_Country":"GBR","Actor2":"EMPLOYEE","Actor2_Country":null,"Code":10,"Class":1,"Action_Location":"London, London, City of, United Kingdom","Lat":51.5,"Long":-0.116667,"Timestamp":20181105033000,"Source":"https:\/\/www.nbcnews.com\/news\/us-news\/two-dead-after-wall-collapse-amazon-distribution-center-baltimore-n930786?cid=public-rss_20181105"},{"ID":800047164,"Actor1":"UNITED KINGDOM","Actor1_Country":"GBR","Actor2":"THOMSON REUTERS","Actor2_Country":"CAN","Code":13,"Class":1,"Action_Location":"China","Lat":35.0,"Long":105.0,"Timestamp":20181105033000,"Source":"https:\/\/www.japantimes.co.jp\/?post_type=news&p=1563602"},{"ID":800047165,"Actor1":"UNITED KINGDOM","Actor1_Country":"GBR","Actor2":"THOMSON REUTERS","Actor2_Country":"CAN","Code":13,"Class":1,"Action_Location":"China","Lat":35.0,"Long":105.0,"Timestamp":20181105033000,"Source":"https:\/\/www.japantimes.co.jp\/?post_type=news&p=1563602"},{"ID":800047166,"Actor1":"UNITED KINGDOM","Actor1_Country":"GBR","Actor2":"PARTY LEADER","Actor2_Country":null,"Code":51,"Class":1,"Action_Location":"Georgia, United States","Lat":32.9866,"Long":-83.6487,"Timestamp":20181105033000,"Source":"https:\/\/sputniknews.com\/us\/201811051069505449-political-stunt-georgia-dems-avvused-cybercrimes-midterms\/"},{"ID":800047167,"Actor1":"UNITED KINGDOM","Actor1_Country":"GBR","Actor2":"SOUTH ASIA","Actor2_Country":"SAS","Code":51,"Class":1,"Action_Location":"Smethwick, Sandwell, United Kingdom","Lat":52.5,"Long":-2.0,"Timestamp":20181105033000,"Source":"https:\/\/yourstory.com\/2018\/11\/uk-sculpture-indian-soldiers-wwi\/"},{"ID":800047168,"Actor1":"SCOT","Actor1_Country":"GBR","Actor2":"US AMBASSADOR","Actor2_Country":"USA","Code":20,"Class":1,"Action_Location":"Yangon, Yangon, Myanmar","Lat":16.8053,"Long":96.1561,"Timestamp":20181105033000,"Source":"https:\/\/aecnewstoday.com\/2018\/myanmar-morning-news-for-november-5\/"},{"ID":800047171,"Actor1":"LONDON","Actor1_Country":"GBR","Actor2":"UNITED KINGDOM","Actor2_Country":"GBR","Code":46,"Class":1,"Action_Location":"London, London, City of, United Kingdom","Lat":51.5,"Long":-0.116667,"Timestamp":20181105033000,"Source":"https:\/\/www.nbcnews.com\/news\/us-news\/thousands-across-globe-showupforshabbat-honor-squirrel-hill-victims-n930851?cid=public-rss_20181105"},{"ID":800047172,"Actor1":"BRITISH","Actor1_Country":"GBR","Actor2":"THERESA MAY","Actor2_Country":"GBR","Code":12,"Class":1,"Action_Location":"Ireland","Lat":53.0,"Long":-8.0,"Timestamp":20181105033000,"Source":"https:\/\/www.independent.ie\/business\/brexit\/blair-warns-mps-there-is-simply-no-answer-to-irish-issue-37492132.html"},{"ID":800047173,"Actor1":"ACCRA","Actor1_Country":"GHA","Actor2":"GHANA","Actor2_Country":"GHA","Code":112,"Class":3,"Action_Location":"Abuja, Abuja Federal Capital Territory, Nigeria","Lat":9.08333,"Long":7.53333,"Timestamp":20181105033000,"Source":"http:\/\/nigeriastandardnewspaper.com\/ng\/buharigate-waec-headquarters-ghana-has-no-trace-of-certified-true-copies-of-mohammed-buhari-examination-certificate-in-our-archives-records-aptitude-test-department-boama-gyima-head-of-nation\/"},{"ID":800047174,"Actor1":"ACCRA","Actor1_Country":"GHA","Actor2":"GHANA","Actor2_Country":"GHA","Code":112,"Class":3,"Action_Location":"Accra, Greater Accra, Ghana","Lat":5.55,"Long":-0.216667,"Timestamp":20181105033000,"Source":"http:\/\/nigeriastandardnewspaper.com\/ng\/buharigate-waec-headquarters-ghana-has-no-trace-of-certified-true-copies-of-mohammed-buhari-examination-certificate-in-our-archives-records-aptitude-test-department-boama-gyima-head-of-nation\/"},{"ID":800047175,"Actor1":"ACCRA","Actor1_Country":"GHA","Actor2":"PRESIDENT","Actor2_Country":null,"Code":112,"Class":3,"Action_Location":"Abuja, Abuja Federal Capital Territory, Nigeria","Lat":9.08333,"Long":7.53333,"Timestamp":20181105033000,"Source":"http:\/\/nigeriastandardnewspaper.com\/ng\/buharigate-waec-headquarters-ghana-has-no-trace-of-certified-true-copies-of-mohammed-buhari-examination-certificate-in-our-archives-records-aptitude-test-department-boama-gyima-head-of-nation\/"},{"ID":800047176,"Actor1":"ACCRA","Actor1_Country":"GHA","Actor2":"PRESIDENT","Actor2_Country":null,"Code":112,"Class":3,"Action_Location":"Accra, Greater Accra, Ghana","Lat":5.55,"Long":-0.216667,"Timestamp":20181105033000,"Source":"http:\/\/nigeriastandardnewspaper.com\/ng\/buharigate-waec-headquarters-ghana-has-no-trace-of-certified-true-copies-of-mohammed-buhari-examination-certificate-in-our-archives-records-aptitude-test-department-boama-gyima-head-of-nation\/"},{"ID":800047220,"Actor1":"GOVERNMENT","Actor1_Country":null,"Actor2":"AFGHANISTAN","Actor2_Country":"AFG","Code":10,"Class":1,"Action_Location":"Khas Uruzgan, Oruzgan, Afghanistan","Lat":32.9167,"Long":66.8333,"Timestamp":20181105033000,"Source":"http:\/\/www.outlookafghanistan.net\/topics.php?post_id=22155"},{"ID":800047221,"Actor1":"GOVERNMENT","Actor1_Country":null,"Actor2":"AFGHANISTAN","Actor2_Country":"AFG","Code":111,"Class":3,"Action_Location":"Kabul, Kabol, Afghanistan","Lat":34.5167,"Long":69.1833,"Timestamp":20181105033000,"Source":"http:\/\/www.outlookafghanistan.net\/topics.php?post_id=22155"},{"ID":800047222,"Actor1":"GOVERNMENT","Actor1_Country":null,"Actor2":"AFGHANISTAN","Actor2_Country":"AFG","Code":111,"Class":3,"Action_Location":"Kabul, Kabol, Afghanistan","Lat":34.5167,"Long":69.1833,"Timestamp":20181105033000,"Source":"http:\/\/www.outlookafghanistan.net\/topics.php?post_id=22155"},{"ID":800047225,"Actor1":"PRESIDENT","Actor1_Country":null,"Actor2":"BANGLADESH","Actor2_Country":"BGD","Code":1712,"Class":4,"Action_Location":"Dhaka, Dhaka, Bangladesh","Lat":23.7231,"Long":90.4086,"Timestamp":20181105033000,"Source":"http:\/\/www.newagebd.net\/article\/55159\/london-court-finds-bnp-leader-guilty-of-vandalising-bangladesh-mission"},{"ID":800047226,"Actor1":"ELECTORAL COMMISSION","Actor1_Country":null,"Actor2":"BANK","Actor2_Country":null,"Code":12,"Class":1,"Action_Location":"United Kingdom","Lat":54.0,"Long":-4.0,"Timestamp":20181105033000,"Source":"https:\/\/www.dailymail.co.uk\/news\/article-6352953\/DOMINIC-LAWSON-Arron-Banks-chancer-Lords-look-ridiculous-demanding-Peoples-Vote.html"},{"ID":800047228,"Actor1":"MINIST","Actor1_Country":null,"Actor2":"ENTREPRENEUR","Actor2_Country":null,"Code":40,"Class":1,"Action_Location":"Karachi, Sindh, Pakistan","Lat":24.8667,"Long":67.05,"Timestamp":20181105033000,"Source":"https:\/\/www.dawn.com\/news\/1443629\/fawad-heaps-scorn-on-ppp-govt-in-sindh"},{"ID":800047230,"Actor1":"ADMINISTRATION","Actor1_Country":null,"Actor2":"CHINA","Actor2_Country":"CHN","Code":170,"Class":4,"Action_Location":"China","Lat":35.0,"Long":105.0,"Timestamp":20181105033000,"Source":"https:\/\/thehill.com\/policy\/cybersecurity\/414669-midterm-vote-to-set-cyber-agenda"},{"ID":800047231,"Actor1":"ADMINISTRATION","Actor1_Country":null,"Actor2":"CHINA","Actor2_Country":"CHN","Code":170,"Class":4,"Action_Location":"China","Lat":35.0,"Long":105.0,"Timestamp":20181105033000,"Source":"https:\/\/thehill.com\/policy\/cybersecurity\/414669-midterm-vote-to-set-cyber-agenda"},{"ID":800047232,"Actor1":"PRIME MINISTER","Actor1_Country":null,"Actor2":"LI KEQIANG","Actor2_Country":"CHN","Code":46,"Class":1,"Action_Location":"Beijing, Beijing, China","Lat":39.9289,"Long":116.388,"Timestamp":20181105033000,"Source":"https:\/\/www.dawn.com\/news\/1443674\/imran-xi-call-for-timely-completion-of-cpec-projects"},{"ID":800047233,"Actor1":"GOVERNMENT","Actor1_Country":null,"Actor2":"MISCREANT","Actor2_Country":null,"Code":170,"Class":4,"Action_Location":"Chakri, Punjab, Pakistan","Lat":33.2923,"Long":72.7618,"Timestamp":20181105033000,"Source":"https:\/\/www.dawn.com\/news\/1443573\/two-more-cases-registered-as-govt-orders-crackdown-on-miscreants"},{"ID":800047234,"Actor1":"GOVERNMENT","Actor1_Country":null,"Actor2":"MISCREANT","Actor2_Country":null,"Code":170,"Class":4,"Action_Location":"Rawalpindi, Punjab, Pakistan","Lat":33.6,"Long":73.0667,"Timestamp":20181105033000,"Source":"https:\/\/www.dawn.com\/news\/1443573\/two-more-cases-registered-as-govt-orders-crackdown-on-miscreants"},{"ID":800047235,"Actor1":"PRESIDENT","Actor1_Country":null,"Actor2":"VOTER","Actor2_Country":null,"Code":22,"Class":1,"Action_Location":"Georgia, United States","Lat":32.9866,"Long":-83.6487,"Timestamp":20181105033000,"Source":"https:\/\/www.oann.com\/pres-trump-endorses-ga-secy-of-state-brian-kemp-for-governor\/"},{"ID":800047236,"Actor1":"PRESIDENT","Actor1_Country":null,"Actor2":"MIGRANT","Actor2_Country":null,"Code":51,"Class":1,"Action_Location":"Guatemala","Lat":15.5,"Long":-90.25,"Timestamp":20181105033000,"Source":"https:\/\/www.businessinsider.com\/trump-migrant-caravan-invasion-campaign-rally-marsha-blackburn-tennessee-2018-11"},{"ID":800047237,"Actor1":"PRESIDENT","Actor1_Country":null,"Actor2":"VOTER","Actor2_Country":null,"Code":72,"Class":2,"Action_Location":"Dekalb, New York, United States","Lat":44.499,"Long":-75.3427,"Timestamp":20181105033000,"Source":"https:\/\/northernstar.info\/opinion\/migrant-caravan-stirs-politics\/article_c6feaddc-e085-11e8-98b7-8301c4d0efe4.html"},{"ID":800047238,"Actor1":"PRESIDENT","Actor1_Country":null,"Actor2":"VOTER","Actor2_Country":null,"Code":72,"Class":2,"Action_Location":"New York, United States","Lat":42.1497,"Long":-74.9384,"Timestamp":20181105033000,"Source":"https:\/\/northernstar.info\/opinion\/migrant-caravan-stirs-politics\/article_c6feaddc-e085-11e8-98b7-8301c4d0efe4.html"},{"ID":800047239,"Actor1":"PRESIDENT","Actor1_Country":null,"Actor2":"IMMIGRANT","Actor2_Country":null,"Code":84,"Class":2,"Action_Location":"Vermont, United States","Lat":44.0407,"Long":-72.7093,"Timestamp":20181105033000,"Source":"https:\/\/dissidentvoice.org\/2018\/11\/the-fire-this-time-it-will-keep-burning-long-after-november-6\/"},{"ID":800047240,"Actor1":"GOVERNMENT","Actor1_Country":null,"Actor2":"DANISH","Actor2_Country":"DNK","Code":111,"Class":3,"Action_Location":"Kabul, Kabol, Afghanistan","Lat":34.5167,"Long":69.1833,"Timestamp":20181105033000,"Source":"http:\/\/www.outlookafghanistan.net\/topics.php?post_id=22155"},{"ID":800047241,"Actor1":"CHANCELLOR","Actor1_Country":null,"Actor2":"SCHOOL","Actor2_Country":null,"Code":71,"Class":2,"Action_Location":"New York, United States","Lat":42.1497,"Long":-74.9384,"Timestamp":20181105033000,"Source":"https:\/\/www.yorkshirepost.co.uk\/news\/opinion\/jayne-dowle-forget-patronising-little-extras-our-chancellor-needs-a-lesson-in-funding-schools-1-9427705"},{"ID":800047242,"Actor1":"GOVERNMENT","Actor1_Country":null,"Actor2":"STUDENT","Actor2_Country":null,"Code":110,"Class":3,"Action_Location":"Darlinghurst, New South Wales, Australia","Lat":-33.8833,"Long":151.217,"Timestamp":20181105033000,"Source":"https:\/\/www.abc.net.au\/news\/2018-11-05\/anglican-schools-right-to-discriminate-letter-opinion\/10465276"},{"ID":800047243,"Actor1":"GOVERNMENT","Actor1_Country":null,"Actor2":"STUDENT","Actor2_Country":null,"Code":110,"Class":3,"Action_Location":"Sydney, New South Wales, Australia","Lat":-33.8833,"Long":151.217,"Timestamp":20181105033000,"Source":"https:\/\/www.abc.net.au\/news\/2018-11-05\/anglican-schools-right-to-discriminate-letter-opinion\/10465276"},{"ID":800047244,"Actor1":"THE PM","Actor1_Country":null,"Actor2":"FRENCH","Actor2_Country":"FRA","Code":30,"Class":1,"Action_Location":"Hanoi, Ha N?i, Vietnam, Republic Of","Lat":21.0333,"Long":105.85,"Timestamp":20181105033000,"Source":"http:\/\/en.dangcongsan.vn\/news-and-events\/hanoi-leader-asks-for-more-oda-loans-from-france-503735.html"},{"ID":800047245,"Actor1":"THE PM","Actor1_Country":null,"Actor2":"FRANCE","Actor2_Country":"FRA","Code":51,"Class":1,"Action_Location":"Hanoi, Ha N?i, Vietnam, Republic Of","Lat":21.0333,"Long":105.85,"Timestamp":20181105033000,"Source":"http:\/\/en.dangcongsan.vn\/news-and-events\/hanoi-leader-asks-for-more-oda-loans-from-france-503735.html"},{"ID":800047246,"Actor1":"THE PM","Actor1_Country":null,"Actor2":"FRANCE","Actor2_Country":"FRA","Code":51,"Class":1,"Action_Location":"Hanoi, Ha N?i, Vietnam, Republic Of","Lat":21.0333,"Long":105.85,"Timestamp":20181105033000,"Source":"http:\/\/en.dangcongsan.vn\/news-and-events\/hanoi-leader-asks-for-more-oda-loans-from-france-503735.html"},{"ID":800047247,"Actor1":"FIRE CHIEF","Actor1_Country":null,"Actor2":"UNITED KINGDOM","Actor2_Country":"GBR","Code":90,"Class":2,"Action_Location":"London, London, City of, United Kingdom","Lat":51.5,"Long":-0.116667,"Timestamp":20181105033000,"Source":"https:\/\/www.nbcnews.com\/news\/us-news\/two-dead-after-wall-collapse-amazon-distribution-center-baltimore-n930786?cid=public-rss_20181105"},{"ID":800047248,"Actor1":"PRESIDENT","Actor1_Country":null,"Actor2":"UNITED KINGDOM","Actor2_Country":"GBR","Code":173,"Class":4,"Action_Location":"Dhaka, Dhaka, Bangladesh","Lat":23.7231,"Long":90.4086,"Timestamp":20181105033000,"Source":"http:\/\/www.newagebd.net\/article\/55159\/london-court-finds-bnp-leader-guilty-of-vandalising-bangladesh-mission"},{"ID":800047249,"Actor1":"PRIME MINISTER","Actor1_Country":null,"Actor2":"DAVID CAMERON","Actor2_Country":"GBR","Code":51,"Class":1,"Action_Location":"New York, United States","Lat":42.1497,"Long":-74.9384,"Timestamp":20181105033000,"Source":"https:\/\/www.yorkshirepost.co.uk\/news\/opinion\/jayne-dowle-forget-patronising-little-extras-our-chancellor-needs-a-lesson-in-funding-schools-1-9427705"},{"ID":800047250,"Actor1":"GOVERNMENT","Actor1_Country":null,"Actor2":"HIGHER EDUCATION MINIST","Actor2_Country":null,"Code":10,"Class":1,"Action_Location":"Gujrat, Punjab, Pakistan","Lat":32.043,"Long":72.8767,"Timestamp":20181105033000,"Source":"https:\/\/www.dawn.com\/news\/1443607\/plan-to-abolish-pro-chancellor-slot-to-free-vcs-of-undue-intervention"},{"ID":800047251,"Actor1":"AUTHORITIES","Actor1_Country":null,"Actor2":"INTERNATIONAL MONETARY FUND","Actor2_Country":null,"Code":40,"Class":1,"Action_Location":"China","Lat":35.0,"Long":105.0,"Timestamp":20181105033000,"Source":"https:\/\/www.dawn.com\/news\/1443719\/no-more-tricks-please"},{"ID":800047252,"Actor1":"GOVERNMENT","Actor1_Country":null,"Actor2":"THE EU","Actor2_Country":"EUR","Code":42,"Class":1,"Action_Location":"United Kingdom","Lat":54.0,"Long":-4.0,"Timestamp":20181105033000,"Source":"https:\/\/www.dailymail.co.uk\/news\/article-6352953\/DOMINIC-LAWSON-Arron-Banks-chancer-Lords-look-ridiculous-demanding-Peoples-Vote.html"},